ride_id,rideable_type,started_at,ended_at,start_station_name,start_station_id,end_station_name,end_station_id,start_lat,start_lng,end_lat,end_lng,member_casual
D6189CFA4720CC49,classic_bike,2023-07-01 23:18:39,2023-07-01 23:39:26,Nostrand Ave & Rutland Rd,3585.06,Putnam Ave & Ralph Ave,4450.06,40.659529328,-73.950453877,40.68705,-73.92338,casual
1F611CC36CC24B72,classic_bike,2023-07-31 06:34:26,2023-07-31 06:44:32,E 82 St & East End Ave,7049.04,Central Park West & W 85 St,7354.01,40.772362232,-73.947161913,40.78476,-73.969862,member
69930A596BC5BA61,classic_bike,2023-07-12 19:31:23,2023-07-12 20:18:58,Grand Army Plaza & Central Park S,6839.10,Berkeley Pl & 6 Ave,4134.06,40.764459133,-73.973780751,40.6765304,-73.97846879,casual
0F6944812000E27C,electric_bike,2023-07-26 17:16:05,2023-07-26 17:25:31,Cleveland Pl & Spring St,5492.05,West St & Liberty St,5184.08,40.722103786686034,-73.99724900722504,40.711444,-74.014847,casual
EE945A1C857EA41B,classic_bike,2023-07-03 19:28:47,2023-07-03 19:34:04,W 20 St & 10 Ave,6306.01,8 Ave & W 16 St,6072.11,40.745686,-74.005141,40.740983,-74.001702,member
CF708B60FC8BBBFF,classic_bike,2023-07-08 11:30:16,2023-07-08 11:33:49,Devoe St & Lorimer St,5259.06,Roebling St & N 4 St,5267.09,40.713336468,-73.949012399,40.71469,-73.95739,member
E300202CE5CE5B72,classic_bike,2023-07-08 20:21:01,2023-07-08 20:31:05,Greenpoint Ave & Manhattan Ave,5785.05,Bradley Ave & Greenpoint Ave,5917.02,40.73026,-73.95394,40.73565914819229,-73.93478840589523,member
85C89D2E6017FEA5,classic_bike,2023-07-06 07:42:20,2023-07-06 07:45:33,46 St & 30 Rd,6703.06,48 St & Broadway,6629.06,40.76072,-73.910989,40.755763,-73.912715,member
EC0DEDC8805CA4C9,classic_bike,2023-07-10 10:03:01,2023-07-10 10:05:57,E 2 St & Avenue B,5515.02,E 7 St & Avenue A,5626.07,40.72217444,-73.98368779,40.72621788,-73.98379855,member
558F4049B5F55840,classic_bike,2023-07-17 06:25:43,2023-07-17 06:32:55,Washington Pl & Broadway,5755.01,Barrow St & Hudson St,5805.05,40.72903917,-73.99404649,40.73172428,-74.00674436,member
0A12538815304934,classic_bike,2023-07-26 22:22:41,2023-07-26 22:26:33,Wyckoff Ave & Gates Ave,4847.03,Menahan St & Onderdonk Ave,5034.03,40.699873447,-73.911823273,40.70553,-73.9096,casual
D56FCAE2EF5FA2E0,classic_bike,2023-07-06 17:12:34,2023-07-06 17:15:23,Ave A & E 14 St,5779.11,E 7 St & Ave B,5584.05,40.730122685,-73.980617762,40.7251285241158,-73.98131668567657,member
6F4D5051BA89943D,classic_bike,2023-07-20 15:11:27,2023-07-20 15:29:31,W 52 St & 6 Ave,6740.01,W 29 St & 9 Ave,6416.06,40.76132983124814,-73.97982001304626,40.7500727,-73.99839279,member
89034E1D0FC9BAEE,classic_bike,2023-07-12 17:14:13,2023-07-12 17:24:21,West St & Liberty St,5184.08,Morton St & Washington St,5772.05,40.711444,-74.014847,40.73115,-74.00887,member
4BBA8F385E5D4916,classic_bike,2023-07-17 18:29:17,2023-07-17 18:49:52,E 51 St & Lexington Ave,6659.01,Rivington St & Chrystie St,5453.01,40.75714758,-73.97207836,40.72110063,-73.9919254,member
B1A8ACF24ED50B24,classic_bike,2023-07-08 08:03:34,2023-07-08 08:15:51,Murray St & West St,5329.08,Bank St & Washington St,5964.01,40.71503,-74.01246,40.7361967,-74.00859207,member
29CAA0614B38834B,classic_bike,2023-07-24 18:29:56,2023-07-24 18:48:57,Withers St & Kingsland Ave,5362.08,Withers St & Kingsland Ave,5362.08,40.717727184,-73.940658808,40.71773,-73.94051,member
D6725766E3CF08BF,classic_bike,2023-07-18 17:39:37,2023-07-18 17:44:50,Withers St & Kingsland Ave,5362.08,Graham Ave & Grand St,5178.06,40.71773,-73.94051,40.711863,-73.944024,member
B18C1310FAECAC98,classic_bike,2023-07-31 07:54:36,2023-07-31 08:01:13,E 47 St & 2 Ave,6498.10,E 33 St & 5 Ave,6322.01,40.753142595,-73.970524669,40.74765947,-73.98490707,member
94E4E078807990DC,classic_bike,2023-07-05 13:41:51,2023-07-05 13:54:43,Westchester Ave & Southern Blvd,8004.03,Lincoln Ave & E 138 St,7744.06,40.825023413,-73.891701937,40.810893,-73.927311,member
E8AC4034510C4DF5,classic_bike,2023-07-23 16:13:20,2023-07-23 16:37:57,1 Ave & E 18 St,5854.09,8 Ave & W 16 St,6072.11,40.73381219196632,-73.98054420948029,40.740983,-74.001702,member
B6AE5A2991E242EB,classic_bike,2023-07-30 22:53:16,2023-07-30 23:10:27,E 10 St & Avenue A,5659.05,11 Ave & W 41 St,6726.01,40.727477193,-73.981547236,40.76030096,-73.99884222,member
89CBBFCE6057AFF3,classic_bike,2023-07-13 14:21:14,2023-07-13 14:27:54,West Broadway & Watts St,5569.07,Bayard St & Baxter St,5351.03,40.723178267,-74.003044844,40.71602118,-73.99974372,member
45BFDD455597A539,classic_bike,2023-07-07 09:24:07,2023-07-07 09:29:15,E 17 St & Broadway,5980.07,E 27 St & Park Ave S,6131.13,40.73704984,-73.99009296,40.74275179648995,-73.9847157150507,member
D61DCA134A4A13CF,electric_bike,2023-07-08 14:06:20,2023-07-08 14:35:40,6 Ave & Walker St,5430.1,11 Ave & W 41 St,6726.01,40.7197920901383,-74.0052238852195,40.76030096,-73.99884222,casual
5A07E2DE1DAB53C1,classic_bike,2023-07-23 23:37:56,2023-07-23 23:50:44,Madison Ave & E 120 St,7667.04,Lenox Ave & W 146 St,7910.1,40.802874446,-73.943023562,40.821111,-73.935971,casual
C02D08F09C5EB035,classic_bike,2023-07-23 05:36:34,2023-07-23 05:39:32,E 13 St & Avenue A,5779.09,E 7 St & Ave B,5584.05,40.72966729392978,-73.98067966103554,40.7251285241158,-73.98131668567657,member
9DACD326066DE49B,classic_bike,2023-07-27 13:44:57,2023-07-27 14:00:20,West St & Liberty St,5184.08,8 Ave & W 16 St,6072.11,40.711504102,-74.014826775,40.740983,-74.001702,casual
6AE0A4251790C42C,classic_bike,2023-07-15 12:27:56,2023-07-15 12:53:33,E 45 St & 3 Ave,6464.08,Amsterdam Ave & W 79 St,7311.02,40.75255434,-73.97282625,40.7829391,-73.9786517,member
6A921BB6BAFEF067,classic_bike,2023-07-26 12:08:02,2023-07-26 12:31:55,E 171 St & 3 Ave,8171.06,3 Ave & E 170 St,8137.06,40.837211847,-73.902196765,40.834857,-73.903743,member
2292573A1CF733E5,classic_bike,2023-07-29 12:01:37,2023-07-29 12:06:18,Central Park West & W 72 St,7141.07,W 70 St & Amsterdam Ave,7207.08,40.77579376683666,-73.9762057363987,40.77748046,-73.98288594,member
38C83702810CC80D,classic_bike,2023-07-30 13:35:43,2023-07-30 14:00:34,Powers St & Olive St,5210.01,Front St & Gold St,4927.04,40.71323,-73.93894,40.70224,-73.982578,casual
BD76F5694D8FFC74,classic_bike,2023-07-26 08:35:36,2023-07-26 09:04:10,Myrtle Ave & Lewis Ave,4729.01,E 53 St & 3 Ave,6617.02,40.696821332,-73.9375422,40.75763227739443,-73.96930575370789,member
D94ED5E79EA79798,classic_bike,2023-07-24 19:58:08,2023-07-24 20:13:13,W 21 St & 6 Ave,6140.05,E 58 St & 1 Ave (NW Corner),6723.1,40.741899729,-73.994012833,40.759125,-73.962658,member
1427A313C027C3BF,classic_bike,2023-07-07 17:30:24,2023-07-07 17:30:30,E 58 St & 3 Ave,6762.02,E 58 St & 3 Ave,6762.02,40.761277556,-73.967344761,40.76095756,-73.96724467,member
A1AFA2CDA1C7FCE3,classic_bike,2023-07-24 17:59:31,2023-07-24 18:05:21,W 41 St & 8 Ave,6602.03,Broadway & W 29 St,6289.06,40.75673008,-73.990032315,40.7462009,-73.98855723,member
3715DBD264B90BC0,classic_bike,2023-07-22 12:44:10,2023-07-22 12:46:31,Norfolk St & Broome St,5374.01,Orchard St & Grand St,5343.11,40.7172274,-73.98802084,40.717318403855785,-73.99067759513855,member
7E302D4A84823145,classic_bike,2023-07-16 01:24:17,2023-07-16 01:35:26,Featherbed Ln & Nelson Ave,8327.15,Westchester Ave & E 156 St,7891.06,40.846252084,-73.919578195,40.817802,-73.905203,member
B052A2370C2B9CE9,classic_bike,2023-07-19 10:42:08,2023-07-19 11:04:58,Norman Ave & Leonard St,5666.11,Canal St & Rutgers St,5303.08,40.725819,-73.950815,40.71427487,-73.98990025,member
061EEEA6D33C16BA,classic_bike,2023-07-20 13:14:55,2023-07-20 13:30:03,E 115 St & Madison Ave,7599.02,E 89 St & 3 Ave,7265.10,40.7989445,-73.944846,40.7806284,-73.9521667,member
37F29815BBAC5894,classic_bike,2023-07-21 14:14:43,2023-07-21 14:17:07,Washington Park,4546.05,Carlton Ave & Flushing Ave,4732.08,40.6917823,-73.9737299,40.697787,-73.973736,member
779BB18668FEADBA,classic_bike,2023-07-30 21:12:59,2023-07-30 21:40:40,Park Cir & East Dr,3344.02,Greene Ave & Throop Ave,4510.04,40.651566,-73.972212,40.6894932,-73.942061,member
EBA1415F03EE6EDF,classic_bike,2023-07-01 01:36:39,2023-07-01 01:41:24,Ave A & E 14 St,5779.11,Suffolk St & Stanton St,5445.02,40.73031071000895,-73.98047178983688,40.72066442,-73.98517977,member
44FEE1F320867683,classic_bike,2023-07-16 19:50:25,2023-07-16 19:56:08,St Marks Pl & 1 Ave,5626.13,Broadway & E 14 St,5905.12,40.72779126,-73.98564945,40.73454567,-73.99074142,member
1A746F20DCA1CF01,classic_bike,2023-07-29 16:16:58,2023-07-29 16:30:56,Cambridge Pl & Gates Ave,4377.04,Central Ave & Himrod St,4713.01,40.684994221,-73.963097453,40.69676,-73.92302,member
F58D3207221A2B1A,classic_bike,2023-07-13 12:31:18,2023-07-13 12:44:33,Amsterdam Ave & W 82 St,7360.10,Central Park West & W 85 St,7354.01,40.785453677,-73.976768255,40.78476,-73.969862,member
4227AED95535EB93,classic_bike,2023-07-22 14:18:05,2023-07-22 14:22:58,72 St & Woodside Ave,6141.02,Skillman Ave & 54 St,6276.05,40.742964625,-73.893010974,40.745502,-73.909887,member
5C93FD70331F517F,classic_bike,2023-07-15 12:54:57,2023-07-15 12:59:11,3 Ave & E 170 St,8137.06,Webster Ave & E 166 St,8052.01,40.834961057,-73.90370512,40.828975,-73.911259,member
5C4590E50C787CD5,electric_bike,2023-07-31 08:05:41,2023-07-31 08:09:30,Chauncey St & Howard Ave,4293.05,Fulton St & Utica Ave,4228.02,40.68158,-73.91959,40.6794268,-73.9298911,member
10C739E8D95A64B3,classic_bike,2023-07-21 16:34:24,2023-07-21 16:39:34,7 Ave & 22 St,3515.01,10 St & 7 Ave,3762.08,40.658029,-73.989605,40.6662078,-73.98199886,member
A12672069651703A,classic_bike,2023-07-19 17:10:48,2023-07-19 17:17:16,St. Nicholas Ave & W 126 St,7756.10,Lenox Ave & W 111 St,7602.05,40.8114323,-73.9518776,40.7987859,-73.9523,member
D92C0568B2A32945,classic_bike,2023-07-17 10:31:11,2023-07-17 10:38:45,E 44 St & 2 Ave,6422.09,3 Ave & E 71 St,6960.10,40.751158476,-73.97210598,40.76873687,-73.96119945,member
A766FF3763F71CC2,classic_bike,2023-07-06 12:25:42,2023-07-06 12:28:30,Madison St & Seneca Ave,4880.11,Madison St & Forest Ave,5025.02,40.70183,-73.90625,40.70555,-73.90245,member
DE8D3C2CE0032707,classic_bike,2023-07-31 12:36:02,2023-07-31 12:40:27,4 Ave & 3 St,4028.04,6 Ave & 9 St,3803.09,40.673490405,-73.985858083,40.668127,-73.98377641,member
AE4E7B15BC2386BA,classic_bike,2023-07-11 17:48:16,2023-07-11 18:01:15,5 Ave & E 72 St,7100.07,7 Ave & Central Park South,6912.01,40.77282817,-73.96685276,40.7667405590595,-73.9790689945221,casual
944F8A3D35733D93,classic_bike,2023-07-07 19:41:40,2023-07-07 19:48:08,N 7 St & Driggs Ave,5340.01,Kent Ave & Grand St,5388.01,40.716963291,-73.956400037,40.716425,-73.96594,casual
AE2EB0FACCF2AEF0,classic_bike,2023-07-22 21:24:24,2023-07-22 21:31:19,Union Ave & N 12 St,5411.07,Graham Ave & Grand St,5178.06,40.71929276,-73.952452421,40.711863,-73.944024,member
6AA7C9C5EB6EC7A8,classic_bike,2023-07-18 12:15:31,2023-07-18 12:17:26,Brevoort Pl & Bedford Ave,4181.10,Macon St & Nostrand Ave,4214.03,40.68012,-73.95362,40.6809833854,-73.9500479759,member
DA303666B9933750,electric_bike,2023-07-29 19:54:47,2023-07-29 20:04:37,Roosevelt Island Tramway,6599.01,Motorgate,6814.01,40.757284,-73.9536,40.7639089,-73.9477213,casual
8A57BD8A87C84B3E,classic_bike,2023-07-10 09:22:31,2023-07-10 09:25:12,Henry St & Grand St,5294.04,Clinton St & Grand St,5303.06,40.714211,-73.981095,40.71559509,-73.9870295,member
C17391E23C5D7A65,classic_bike,2023-07-23 11:03:37,2023-07-23 11:08:31,E 84 St & 1 Ave,7180.02,E 81 St & Park Ave,7188.1,40.77565541,-73.95068615,40.77677702,-73.9590097,member
1CE90871ADEE4D4B,classic_bike,2023-07-03 14:22:36,2023-07-03 14:34:54,W 47 St & 6 Ave,6667.04,E 78 St & 2 Ave,7057.07,40.758397,-73.98255,40.7727966,-73.95577801,member
425E9B03097C28F2,electric_bike,2023-07-04 21:58:22,2023-07-04 22:01:17,Lexington Ave & E 36 St,6313.10,Lexington Ave & E 29 St,6164.09,40.7475739589548,-73.9788007736206,40.74311555376486,-73.98215353488922,member
758106DCAB1F96D3,classic_bike,2023-07-01 22:24:40,2023-07-01 23:22:51,Johnson St & Brooklyn Bridge Blvd,4637.07,Riverside Dr & W 153 St,8108.02,40.69290733333333,-73.91596161666666,40.832164,-73.949702,casual
CEA6022A2E421E12,classic_bike,2023-07-05 14:39:08,2023-07-05 14:47:30,E 45 St & 3 Ave,6464.08,W 53 St & 10 Ave,6890.01,40.752062082,-73.972835064,40.76669671,-73.99061728,member
AA1EB2DD7DFFD25D,classic_bike,2023-07-02 10:35:31,2023-07-02 10:37:14,Walton Ave & E 171 St,8249.10,Plaza Dr & W 170 St,8213.01,40.840928555,-73.91525507,40.840484,-73.917946,casual
7702CA39653CCB54,classic_bike,2023-07-02 18:03:08,2023-07-02 18:07:46,W 95 St & Broadway,7541.01,W 100 St & Manhattan Ave,7538.14,40.7937704,-73.971888,40.795,-73.9645,member
551647FC648C645A,classic_bike,2023-07-07 13:50:41,2023-07-07 13:52:36,Fort Washington Ave & W 173 St,8320.01,W 168th S & Fort Washington Ave,8226.07,40.845044255,-73.940853477,40.84210236102173,-73.9422395825386,member
01F79F900B41BC9B,classic_bike,2023-07-07 09:53:09,2023-07-07 10:11:14,Bergen St & Vanderbilt Ave,4157.1,Rogers Ave & Lincoln Rd,3625.07,40.6794388,-73.9680438,40.66127,-73.95352,member
EDE6ABB83EDEFF0A,classic_bike,2023-07-01 05:30:31,2023-07-01 05:33:11,E 13 St & 2 Ave,5820.08,E 11 St & 3 Ave,5788.16,40.73153937464073,-73.9853024482727,40.73127,-73.98849,member
DFED12698E8226DC,classic_bike,2023-07-13 12:13:49,2023-07-13 12:34:24,Center Blvd & 48 Ave,6254.06,31 Ave & Crescent St,6893.1,40.745038,-73.957539,40.7658346,-73.9265474,member
CAE3F323650A70C5,classic_bike,2023-07-06 21:02:25,2023-07-06 21:08:23,5 Ave & E 29 St,6248.06,W 20 St & 7 Ave,6182.02,40.745175242,-73.987007856,40.74238787,-73.99726235,member
84EECC07B3F943D1,classic_bike,2023-07-12 19:21:24,2023-07-12 19:24:14,9 Ave & W 22 St,6266.06,8 Ave & W 16 St,6072.11,40.745390773,-74.002114177,40.740983,-74.001702,member
04026C0C7FD0D697,classic_bike,2023-07-10 13:18:11,2023-07-10 13:18:47,W 147 St & Adam Clayton Powell Blvd,7971.07,W 147 St & Adam Clayton Powell Blvd,7971.07,40.82281,-73.937413,40.82281,-73.937413,member
8CE9776F4715B32C,classic_bike,2023-07-24 20:19:26,2023-07-24 20:24:02,Kent St & McGuinness Blvd,5785.10,Van Dam St & Greenpoint Ave,5883.06,40.731284499,-73.951463223,40.73443564069459,-73.93790781497955,member
2122F1236A5A1B78,classic_bike,2023-07-12 10:40:34,2023-07-12 10:52:12,Amsterdam Ave & W 82 St,7360.10,Riverside Dr & W 104 St,7623.13,40.78524672,-73.97667321,40.8013434,-73.9711457439,member
DC198CEE5EB89AD5,classic_bike,2023-07-07 20:33:17,2023-07-07 20:43:10,38 St & 30 Ave,6850.01,31 Ave & 57 St,6621.06,40.764174520197685,-73.91583994030952,40.757357,-73.904726,member
91EB587DAE53561E,classic_bike,2023-07-12 12:25:40,2023-07-12 12:29:17,E 17 St & Broadway,5980.07,E 17 St & 2 Ave,5896.01,40.73704984,-73.99009296,40.73431166276575,-73.98372530937195,member
2FE17EF9AEB1A962,classic_bike,2023-07-16 15:34:55,2023-07-16 15:52:01,6 Ave & W 33 St,6364.07,W 59 St & 10 Ave,7023.04,40.74893415,-73.988602996,40.770513,-73.988038,member
75E2C199765ADDB2,classic_bike,2023-07-07 20:51:34,2023-07-07 20:59:26,Crown St & Rogers Ave,3768.02,Prospect Pl & Underhill Ave,4116.08,40.666496754,-73.953264832,40.6769694,-73.96579,casual
718E5C96FE123FD1,classic_bike,2023-07-16 18:19:46,2023-07-16 18:31:12,W 33 St & 10 Ave,6492.04,W 12 St & Hudson St,5997.10,40.753899097,-73.999100685,40.73752993301071,-74.00558933615685,member
55D45F717F0F7E35,classic_bike,2023-07-21 16:55:11,2023-07-21 17:35:04,3 Ave & Schermerhorn St,4437.01,29 St & 5 Ave,3523.06,40.686866403,-73.979555368,40.656986,-73.998194,casual
360F94617F72F0C3,classic_bike,2023-07-30 12:29:24,2023-07-30 12:34:02,Calyer St & Guernsey St,5709.03,Berry St & N 8 St,5379.09,40.727519631,-73.955065012,40.7190095,-73.95852515,casual
8DDD4572008DD1DF,classic_bike,2023-07-27 15:36:33,2023-07-27 15:53:18,E 2 St & Avenue A,5553.1,Grand Army Plaza & Central Park S,6839.1,40.723280072,-73.986009479,40.7643971,-73.97371465,member
163314D139EF63A0,classic_bike,2023-07-01 20:03:28,2023-07-01 20:08:12,E 85 St & York Ave,7146.04,E 78 St & 2 Ave,7057.07,40.77536905,-73.94803392,40.7727966,-73.95577801,member
FA1C9013F1AB1EF7,classic_bike,2023-07-08 14:00:14,2023-07-08 14:03:56,35 Ave & 10 St,6806.06,Motorgate,6814.01,40.7631253,-73.939929962,40.7639089,-73.9477213,member
91E81A60BEA247DB,classic_bike,2023-07-17 12:14:29,2023-07-17 12:18:28,8 Ave & W 33 St,6450.12,W 40 St & 7 Ave,6560.14,40.751551,-73.993934,40.754818,-73.988154,member
88C800956E6D1483,classic_bike,2023-07-05 20:20:58,2023-07-05 20:48:32,Wyckoff Ave & Cooper Ave,4615.01,Waterbury St & Stagg St,5099.02,40.69338,-73.90061,40.71019,-73.93734,casual
86E4DB26BCC26216,classic_bike,2023-07-14 01:32:49,2023-07-14 01:45:16,DeKalb Ave & Vanderbilt Ave,4461.04,Orchard St & Grand St,5343.11,40.689428926,-73.968872905,40.717318403855785,-73.99067759513855,member
C9C5CB2553A8BF93,classic_bike,2023-07-28 09:23:50,2023-07-28 09:31:04,W 15 St & 7 Ave,6030.06,W 26 St & 10 Ave,6382.05,40.73935542,-73.99931783,40.749717753,-74.002950346,member
B0F935E5146D4DDE,classic_bike,2023-07-15 23:51:49,2023-07-16 00:08:17,Henry St & Degraw St,4380.08,Orchard St & Grand St,5343.11,40.68457973,-73.999127746,40.717318403855785,-73.99067759513855,member
D34903C05832BF5F,classic_bike,2023-07-13 21:17:44,2023-07-13 21:25:03,Carroll St & 5 Ave,4060.09,Atlantic Ave & Fort Greene Pl,4354.07,40.6751622,-73.9814832,40.68382604,-73.97632328,member
716851E3D3F4E269,classic_bike,2023-07-12 07:55:18,2023-07-12 08:00:19,Willoughby St & Fleet St,4628.05,Cumberland St & Lafayette Ave,4428.02,40.692039847,-73.981333852,40.68753406,-73.97265183,member
5C43A6009DAE0717,classic_bike,2023-07-26 13:42:30,2023-07-26 13:46:29,Grand St & Havemeyer St,5267.08,Kent Ave & Grand St,5388.01,40.71286844,-73.95698119,40.716425,-73.96594,member
22531E6931135042,classic_bike,2023-07-31 18:35:23,2023-07-31 18:40:22,E 76 St & Park Ave,7128.08,E 77 St & 1 Ave,7020.02,40.77375555,-73.962298393,40.77095553869235,-73.95356208096926,member
4E7BF9C4E3BF218C,classic_bike,2023-07-27 22:36:02,2023-07-27 22:55:41,3 Ave & E 62 St,6762.04,W 106 St & Amsterdam Ave,7634.01,40.763275146,-73.96566534,40.8008363,-73.9664492472,member
8BB4B9FF071E5331,classic_bike,2023-07-26 17:38:31,2023-07-26 17:55:12,St Marks Ave & Rochester Ave,4039.04,Beaver St & Fayette St,4840.06,40.674000502,-73.927708268,40.70099,-73.93921,member
7C730D4812788CB8,classic_bike,2023-07-25 00:07:27,2023-07-25 00:11:21,4 Ave & E 12 St,5788.15,E 1 St & Bowery,5636.13,40.732398748,-73.989886761,40.72486122254819,-73.99213135242462,member
0F6A3BEBBAC97EA5,electric_bike,2023-07-27 10:40:42,2023-07-27 10:43:31,E 67 St & Park Ave,6932.14,3 Ave & E 71 St,6960.10,40.76780080148132,-73.96592080593109,40.76873687,-73.96119945,member
4A00759BDABB680F,classic_bike,2023-07-02 13:09:10,2023-07-02 13:34:10,Jay St & York St,4895.09,2 Av & 37 St,3460.04,40.701281667,-73.986726999,40.656326,-74.009627,casual
0DA7CDDBFD1FF889,classic_bike,2023-07-04 18:42:49,2023-07-04 19:05:36,6 Ave & 21 St,3628.11,Sands St & Jay St,4821.03,40.660218358,-73.990960717,40.700119,-73.9862,member
C380E863FDB7B92B,classic_bike,2023-07-19 14:58:11,2023-07-19 15:11:31,Kenmare St & Elizabeth St,5453.06,Pier 40 - Hudson River Park,5696.03,40.72054,-73.9949,40.7277140777778,-74.01129573583603,member
450E60BFD6FCE7B4,classic_bike,2023-07-11 05:37:07,2023-07-11 05:46:01,Willoughby Ave & Tompkins Ave,4665.02,Eldert St & Bushwick Ave,4399.03,40.694260955,-73.946279883,40.68652,-73.91321,casual
04FA8BA0085379AA,electric_bike,2023-07-06 13:08:52,2023-07-06 13:11:54,E 77 St & 3 Ave,7092.06,E 72 St & Park Ave,6998.08,40.77314236,-73.95856158,40.77118287540658,-73.96409422159195,member
C6782C274D785807,classic_bike,2023-07-29 00:42:16,2023-07-29 00:46:57,W 17 St & 7 Ave,6107.08,W 16 St & The High Line,6233.05,40.74056423633952,-73.99852573871613,40.74334935,-74.00681753,member
F11447D263CE3B1F,classic_bike,2023-07-10 19:34:54,2023-07-10 20:13:34,W 92 St & Broadway,7502.01,Columbus Ave & W 72 St,7175.05,40.792357326,-73.97394228,40.7770575,-73.97898475,member
DD25FD296D4E111C,electric_bike,2023-07-09 17:20:17,2023-07-09 17:31:10,5 St & 51 Ave,6137.04,Motorgate,6814.01,40.7423737,-73.9566,40.7639089,-73.9477213,member
7BE5CD644A794FA9,classic_bike,2023-07-29 19:27:04,2023-07-29 19:36:24,E 33 St & 1 Ave,6197.08,1 Ave & E 16 St,5779.08,40.74322681432173,-73.97449783980846,40.73221853,-73.98165557,member
E8ECF0EDD8049620,classic_bike,2023-07-08 11:15:25,2023-07-08 11:17:41,Allen St & Rivington St,5414.06,E 1 St & Bowery,5636.13,40.72019576,-73.98997825,40.72486122254819,-73.99213135242462,member
2B66197A9C7289E8,classic_bike,2023-07-20 10:36:17,2023-07-20 11:11:02,W 106 St & Amsterdam Ave,7634.01,W 37 St & Broadway,6441.06,40.8008363,-73.9664492472,40.75227093837409,-73.98770570755005,member
349DEFBC099260B8,classic_bike,2023-07-03 15:50:17,2023-07-03 16:01:22,Flushing Ave & Vanderbilt Ave,4762.05,Bergen St & Flatbush Ave,4281.08,40.698098063,-73.970775247,40.680944723477296,-73.97567331790923,member
ACD1126ED339593F,classic_bike,2023-07-15 14:21:28,2023-07-15 15:01:31,E 10 St & Avenue A,5659.05,St Marks Pl & 2 Ave,5669.10,40.72740794,-73.98142006,40.7284186,-73.98713956,member
EBE68BB698C26536,classic_bike,2023-07-15 16:43:12,2023-07-15 17:22:49,Westchester Ave & Jackson Ave,7853.01,E 142 St & 3 Ave,7781.10,40.816135406,-73.908241391,40.812735,-73.923697,member
02F7878F924E0007,classic_bike,2023-07-07 10:42:17,2023-07-07 10:53:53,W 145 St & Amsterdam Ave,7997.08,W 116 St & Broadway,7713.11,40.825239658,-73.947208047,40.8082,-73.9641,member
6E6515F276A250BE,electric_bike,2023-07-06 15:28:53,2023-07-06 15:39:28,Fulton St & Broadway,5175.08,Forsyth St & Broome St,5453.05,40.711066,-74.009447,40.71893904,-73.99266288,member
CA6CDD30B7C10772,classic_bike,2023-07-12 05:33:47,2023-07-12 05:58:26,33 St & 47 Ave,6185.04,20 Ave & Shore Blvd,7391.02,40.74283,-73.9321,40.785994,-73.915098,casual
CC50605B354F1565,classic_bike,2023-07-12 14:04:25,2023-07-12 14:15:38,Malcolm X Blvd & DeKalb Ave,4648.03,Menahan St & Central Ave,4672.01,40.69867311666667,-73.94151793333333,40.69543,-73.9196,casual
03ED6B9258FAEBA0,classic_bike,2023-07-20 21:59:13,2023-07-20 22:03:53,Degraw St & Smith St,4298.05,Wyckoff St & 3 Ave,4290.06,40.6829151,-73.99318208,40.6827549,-73.98258555,member
4510A64C34742A5D,classic_bike,2023-07-09 07:06:55,2023-07-09 07:10:15,Ditmars Blvd & 19 St,7291.06,31 St & 23 Ave,7144.01,40.781328917,-73.918139815,40.7747878,-73.9125551,casual
B7720AB9B0BB7A1F,classic_bike,2023-07-19 16:22:47,2023-07-19 16:26:06,8 Ave & W 49 St,6747.07,W 50 St & 10 Ave,6890.06,40.76171227910671,-73.98655101656914,40.76473420006519,-73.99194359779358,member
1D147B909C13FDAC,classic_bike,2023-07-19 18:49:55,2023-07-19 19:02:51,LaGuardia Pl & W 3 St,5721.14,E 27 St & Park Ave S,6131.13,40.729158998,-73.99805069,40.74275179648995,-73.9847157150507,casual
19C1348029761E6A,classic_bike,2023-07-30 14:31:53,2023-07-30 15:03:24,Broadway & W 56 St,6847.02,E 7 St & Ave B,5584.05,40.7652654,-73.98192338,40.7251285241158,-73.98131668567657,casual
E40B3CEC7FC53870,classic_bike,2023-07-30 12:34:36,2023-07-30 12:49:45,E 59 St & Madison Ave,6801.01,E 13 St & 2 Ave,5820.08,40.763316154,-73.971081972,40.73153937464073,-73.9853024482727,casual
7A38E491B57F0EA6,classic_bike,2023-07-06 10:36:31,2023-07-06 10:38:11,E 20 St & Park Ave,6055.08,Broadway & E 21 St,6098.10,40.737983584,-73.987687349,40.73988840858996,-73.98958593606949,member
09E4A350F976CC89,classic_bike,2023-07-30 13:24:34,2023-07-30 13:51:27,5 Ave & E 78 St,7161.08,Grand Army Plaza & Central Park S,6839.1,40.77632142182271,-73.96427392959595,40.7643971,-73.97371465,casual
FE4A1A794AFB564D,classic_bike,2023-07-15 10:02:36,2023-07-15 10:14:37,Bergen St & Vanderbilt Ave,4157.10,President St & 4 Ave,4101.17,40.6794388,-73.9680438,40.676757,-73.983262,casual
49A46CD68869AFF5,classic_bike,2023-07-12 16:43:27,2023-07-12 16:51:34,Orchard St & Grand St,5343.11,Leonard St & Church St,5359.11,40.717534423,-73.990601182,40.717571,-74.005549,member
B110F4D0F2005417,classic_bike,2023-07-26 12:44:08,2023-07-26 12:49:55,Grand St & Elizabeth St,5382.06,MacDougal St & Prince St,5687.04,40.718990564,-73.996275425,40.72710258,-74.00297088,casual
C8492BD05F0A2A40,classic_bike,2023-07-11 17:10:34,2023-07-11 17:16:30,45 Ave & 21 St,6319.07,5 St & 51 Ave,6137.04,40.74737075646803,-73.94777297973631,40.7423737,-73.9566,member
013CE790BBCCB4C2,classic_bike,2023-07-10 15:37:54,2023-07-10 18:09:42,Central Park West & W 68 St,7079.06,Grand Army Plaza & Central Park S,6839.1,40.773466229,-73.977885962,40.7643971,-73.97371465,casual
F8FD59B23FD99779,classic_bike,2023-07-24 05:34:56,2023-07-24 05:38:41,St Felix Ave & 61 St,4719.04,Norman St & Wyckoff Ave,4654.01,40.697128296,-73.893543124,40.69517,-73.90311,casual
4D691FCF1B922015,classic_bike,2023-07-10 22:03:59,2023-07-10 22:12:12,W 70 St & Amsterdam Ave,7207.08,5 Ave & E 78 St,7161.08,40.77748046,-73.98288594,40.77632142182271,-73.96427392959595,casual
58A62BA0B473717C,classic_bike,2023-07-27 08:21:45,2023-07-27 08:23:50,1 Ave & E 6 St,5626.15,St Marks Pl & 2 Ave,5669.10,40.72633085971696,-73.98616880178452,40.7284186,-73.98713956,member
404890CB077114CE,classic_bike,2023-07-12 15:59:29,2023-07-12 16:04:57,Sterling Pl & Bedford Ave,3993.03,Bedford Ave & Montgomery St,3736.03,40.672695,-73.954131,40.665816,-73.956934,member
3A0DC67521538D0D,classic_bike,2023-07-21 10:05:48,2023-07-21 10:22:05,Division St & Bowery,5270.08,Douglass St & 3 Ave,4217.02,40.714149833,-73.996438742,40.6802133,-73.98432695,member
D143B19AE92DB8C9,classic_bike,2023-07-28 23:13:56,2023-07-28 23:14:37,Berry St & N 8 St,5379.09,Berry St & N 8 St,5379.09,40.7190095,-73.95852515,40.7190095,-73.95852515,member
7AD4E869E46CA4CB,classic_bike,2023-07-25 07:08:36,2023-07-25 07:23:13,5 Ave & E 103 St,7511.19,W 51 St & Rockefeller Plaza,6700.14,40.792052984,-73.952686906,40.75973805251143,-73.97811613976955,member
19795E203845DB92,classic_bike,2023-07-25 08:49:57,2023-07-25 09:21:46,Bergen St & Vanderbilt Ave,4157.10,Old Slip & South St,4993.13,40.6794388,-73.9680438,40.70336686695866,-74.007867872715,member
19976107481AED2F,classic_bike,2023-07-02 10:47:47,2023-07-02 10:56:16,Columbia St & Rivington St,5365.02,Walker St & Baxter St,5351.07,40.717475176,-73.980174541,40.717411,-73.999573,member
B805B687EE958634,classic_bike,2023-07-21 15:04:01,2023-07-21 15:11:46,W 41 St & 8 Ave,6602.03,Broadway & W 29 St,6289.06,40.75640548,-73.9900262,40.7462009,-73.98855723,member
7E13DB2EF7047E15,classic_bike,2023-07-12 14:03:57,2023-07-12 14:32:42,Madison Ave & E 82 St,7188.13,Greene St & Prince St,5602.06,40.778004766,-73.961028814,40.72511734422387,-73.99930492043495,casual
99F5997C64688D69,classic_bike,2023-07-27 07:09:17,2023-07-27 07:14:35,1 Ave & E 18 St,5854.09,1 Ave & E 30 St,6079.03,40.73381219196632,-73.98054420948029,40.74144387,-73.97536082,member
E0420572589CC9A4,classic_bike,2023-07-03 16:33:01,2023-07-03 16:52:10,Duffield St & Willoughby St,4596.05,Centre St & Chambers St,5207.01,40.691892624,-73.984759808,40.71273266,-74.0046073,casual
3173CFF667C092FF,classic_bike,2023-07-10 11:59:19,2023-07-10 12:00:37,W 56 St & 10 Ave,6955.01,W 54 St & 11 Ave,6955.05,40.768262267,-73.988648534,40.768333,-73.992573,member
748D21F9EB74A019,classic_bike,2023-07-26 14:19:32,2023-07-26 14:26:30,W 55 St & 6 Ave,6809.09,Broadway & W 38 St,6560.15,40.763189,-73.978434,40.7529728216068,-73.98734897375107,member
5F67A7585CC9B61D,electric_bike,2023-07-17 19:58:23,2023-07-17 19:59:19,Clinton St & Joralemon St,4605.04,Clinton St & Joralemon St,4605.04,40.69239502,-73.99337909,40.69239502,-73.99337909,member
0208129E3879B424,classic_bike,2023-07-10 17:56:42,2023-07-10 18:00:15,Evergreen Ave & Noll St,4873.08,Knickerbocker Ave & Thames St,5018.06,40.70106,-73.93318,40.70539,-73.92976,member
61845719D00747E1,classic_bike,2023-07-20 19:23:02,2023-07-20 19:24:15,St Marks Pl & 2 Ave,5669.10,St Marks Pl & 1 Ave,5626.13,40.7284186,-73.98713956,40.72779126,-73.98564945,member
9006FD7FB7AFB7B8,classic_bike,2023-07-20 23:36:23,2023-07-20 23:37:02,Whitehall St & Bridge St,4962.02,Broadway & Battery Pl,4962.01,40.70366170524135,-74.0131813287735,40.70463334,-74.01361706,member
91E42760DAF2F773,classic_bike,2023-07-08 17:12:28,2023-07-08 17:20:44,W 12 St & Hudson St,5997.10,Duane St & Hudson St,5359.12,40.737550855,-74.005322337,40.71703,-74.00925,casual
560BBD863DE703D3,classic_bike,2023-07-12 19:33:23,2023-07-12 19:39:14,Melrose St & Broadway,4801.04,Wyckoff Av & Stanhope St,4931.05,40.697553873,-73.935885429,40.703545,-73.917775,member
BA3BF0DC19CEDDD7,classic_bike,2023-07-25 09:22:20,2023-07-25 09:24:29,E 6 St & Avenue D,5506.14,E 2 St & Avenue C,5476.03,40.722251058,-73.976721287,40.7208736,-73.98085795,member
2C7601AE42CCFAAA,classic_bike,2023-07-17 12:21:27,2023-07-17 12:21:54,Forsyth St & Broome St,5453.05,Delancey St & Eldridge St,5414.07,40.71893904,-73.99266288,40.719383,-73.991479,member
3F67D47A818D4537,classic_bike,2023-07-07 17:09:06,2023-07-07 17:21:04,Pacific St & Nostrand Ave,4140.03,Atlantic Ave & Fort Greene Pl,4354.07,40.6776,-73.94963,40.68382604,-73.97632328,casual
78BE4AE914A6A47A,classic_bike,2023-07-23 22:45:20,2023-07-23 23:04:48,Cumberland St & Lafayette Ave,4428.02,Menahan St & Onderdonk Ave,5034.03,40.687608242,-73.972824335,40.70553,-73.9096,member
68ED7E4F771FBFBE,classic_bike,2023-07-11 08:24:58,2023-07-11 08:39:22,E 81 St & Park Ave,7188.10,Broadway & W 53 St,6779.05,40.77677702,-73.9590097,40.76344058,-73.98268129,member
9CD088AB917D1BA2,classic_bike,2023-07-01 09:44:14,2023-07-01 09:52:43,4 Ave & 3 St,4028.04,Clinton St & Joralemon St,4605.04,40.673683524,-73.985636234,40.69239502,-73.99337909,member
044A3B4D54DBC9CB,classic_bike,2023-07-15 15:50:35,2023-07-15 15:58:24,Sharon St & Olive St,5323.06,Roebling St & N 4 St,5267.09,40.71534162042448,-73.93865078687668,40.71469,-73.95739,casual
EFD5DAC3E88A5831,classic_bike,2023-07-17 08:52:32,2023-07-17 08:58:24,28 Ave & 44 St,6879.04,48 St & Broadway,6629.06,40.76408932350688,-73.91065120697021,40.755763,-73.912715,member
F345E095291B454D,classic_bike,2023-07-13 21:44:48,2023-07-13 21:48:23,12 Ave & W 40 St,6765.01,11 Ave & W 41 St,6726.01,40.76087502,-74.00277668,40.76030096,-73.99884222,member
15045055839C8B7E,classic_bike,2023-07-28 20:47:26,2023-07-28 21:05:16,Maple St & Flatbush Ave,3593.01,Kosciuszko St & Tompkins Ave,4553.04,40.66026,-73.96045,40.69128258,-73.9452416,casual
48D6FCAE3F5CA16D,classic_bike,2023-07-13 17:39:51,2023-07-13 17:58:08,Congress St & Hicks St,4497.09,Garfield Pl & 8 Ave,3978.13,40.689354897,-73.999598145,40.6711978,-73.97484126,member
ECAE26A21039ABA9,classic_bike,2023-07-31 07:32:51,2023-07-31 07:32:58,Grand Ave & Bergen St,4190.06,Grand Ave & Bergen St,4190.06,40.678023458,-73.962224126,40.678045,-73.962408,member
AC2EEA25859B46E6,classic_bike,2023-07-07 11:37:18,2023-07-07 12:02:45,Hope St & Union Ave,5187.03,Bleecker St & Crosby St,5679.08,40.71167351,-73.95141312,40.72615604980408,-73.99510189890862,casual
A0344B93F8AF23AC,classic_bike,2023-07-12 19:41:45,2023-07-12 19:51:01,Adelphi St & Myrtle Ave,4620.02,State St & Smith St,4522.07,40.69308257,-73.97178913,40.68917,-73.9886,member
64D9124ECFE1B756,classic_bike,2023-07-02 14:52:33,2023-07-02 14:58:09,Murray St & Greenwich St,5288.12,Barrow St & Hudson St,5805.05,40.714972734,-74.010910392,40.73172428,-74.00674436,member
EFFAB35D064D1E62,classic_bike,2023-07-23 02:46:50,2023-07-23 02:54:49,Canal St & Rutgers St,5303.08,Walker St & Baxter St,5351.07,40.71427487,-73.98990025,40.717411,-73.999573,casual
A8BF948538924142,electric_bike,2023-07-31 18:51:14,2023-07-31 19:06:44,W 20 St & 10 Ave,6306.01,Pier 40 - Hudson River Park,5696.03,40.745686,-74.005141,40.7277140777778,-74.01129573583603,member
B9CF422585DB7098,classic_bike,2023-07-25 09:05:28,2023-07-25 09:17:02,W 59 St & 10 Ave,7023.04,Broadway & W 41 St,6560.01,40.770513,-73.988038,40.75513557,-73.98658032,member
E6AB95093E93FE60,classic_bike,2023-07-22 11:30:05,2023-07-22 11:32:47,Ave A & E 14 St,5779.11,1 Ave & E 16 St,5779.08,40.73031071000895,-73.98047178983688,40.73221853,-73.98165557,member
110F6D76F5D4C53F,classic_bike,2023-07-12 19:27:02,2023-07-12 19:35:55,Frost St & Meeker Ave,5371.07,Waterbury St & Stagg St,5099.02,40.71766197083994,-73.94880026578903,40.71019,-73.93734,casual
0588A509A4F23338,classic_bike,2023-07-18 22:15:15,2023-07-18 22:19:42,E 12 St & 3 Ave,5788.12,E 13 St & 2 Ave,5820.08,40.73223272,-73.98889957,40.73153937464073,-73.9853024482727,member
ABDB97FF36D71BE4,classic_bike,2023-07-06 18:40:30,2023-07-06 18:51:37,Broadway & E 21 St,6098.10,Cooper Square & Astor Pl,5712.03,40.73988840858996,-73.98958593606949,40.72951496224949,-73.99075269699097,member
0BAFF202CEDE6691,classic_bike,2023-07-21 08:46:40,2023-07-21 08:54:32,7 Ave & W 55 St,6847.05,West End Ave & W 60 St,7059.08,40.763917565,-73.981049657,40.77237,-73.99005,member
A48EE2BAAAB64663,classic_bike,2023-07-28 16:29:52,2023-07-28 16:34:13,Adam Clayton Powell Blvd & W 132 St,7814.01,W 144 St & Adam Clayton Powell Blvd,7932.10,40.813539,-73.94521,40.820877,-73.939249,member
7E7299852D2EC4C7,classic_bike,2023-07-21 12:16:38,2023-07-21 12:36:58,5 Ave & E 87 St,7323.09,W 56 St & 6 Ave,6809.07,40.78232260730881,-73.95987510681152,40.76340613,-73.97722479,casual
E0CF77264C3FBBDC,classic_bike,2023-07-21 10:23:47,2023-07-21 10:51:33,Broadway & W 56 St,6847.02,E 41 St & Madison Ave (SE corner),6432.10,40.765166163,-73.983062387,40.752049,-73.979635,casual
A332E9B8270B3DC9,classic_bike,2023-07-30 21:51:48,2023-07-30 21:59:01,Broadway & W 29 St,6289.06,10 Ave & W 28 St,6459.04,40.7462009,-73.98855723,40.75066386,-74.00176802,member
71E1893EF431450D,classic_bike,2023-07-27 13:41:37,2023-07-27 13:44:07,Christopher St & Greenwich St,5847.01,Bank St & Hudson St,5922.08,40.73291553,-74.00711384,40.73652889,-74.00618026,member
0904853D538582F8,classic_bike,2023-07-09 18:20:02,2023-07-09 18:32:02,39 Ave & 45 St,6401.03,43 Ave & 42 St,6251.06,40.74948287,-73.918223023,40.74534682580983,-73.9219419658184,member
6E2EDE5992C0C7A8,classic_bike,2023-07-06 10:32:06,2023-07-06 10:34:47,W 63 St & Broadway,7052.01,Central Park West & W 68 St,7079.06,40.77163851,-73.98261428,40.7734066,-73.97782542,member
026FF7C479508AED,classic_bike,2023-07-28 10:11:43,2023-07-28 10:17:21,W 11 St & 6 Ave,5914.03,E 17 St & 2 Ave,5896.01,40.735180259,-73.997790217,40.73431166276575,-73.98372530937195,member
110EDC1FF5386600,classic_bike,2023-07-19 19:28:57,2023-07-19 19:40:20,Berkeley Pl & 7 Ave,4051.01,Pacific St & Smith St,4446.03,40.675146838709786,-73.97523209452629,40.687880939612775,-73.98939281702042,member
801516D3C3488041,classic_bike,2023-07-27 18:03:48,2023-07-27 18:05:39,Broadway & W 133 St,7903.02,Broadway & W 138 St,7942.07,40.819179177,-73.955952644,40.82182,-73.95353,member
CEE5052543E81FE7,classic_bike,2023-07-13 11:14:22,2023-07-13 11:16:38,4 Ave & 17 St,3739.06,17 St & 5 Ave,3699.07,40.665507,-73.993037,40.663493,-73.991007,member
FE216A47278EB7DB,classic_bike,2023-07-20 17:40:24,2023-07-20 17:56:39,Vesey St & Church St,5216.06,Johnson St & Gold St,4668.08,40.71221958009051,-74.01047229766846,40.69474881,-73.98362464,member
D49F70CACFDC5F06,classic_bike,2023-07-18 10:25:37,2023-07-18 10:36:29,8 Ave & W 49 St,6747.07,E 53 St & 3 Ave,6617.02,40.762165666,-73.986451149,40.75763227739443,-73.96930575370789,member
021D18CF52652C88,classic_bike,2023-07-06 16:58:51,2023-07-06 17:04:19,E 50 St & Park Ave,6659.10,7 Ave & Central Park South,6912.01,40.756991982,-73.974460363,40.7667405590595,-73.9790689945221,member
AC7F0DE65E7FD298,classic_bike,2023-07-05 18:18:13,2023-07-05 18:22:14,Greenwich St & Hubert St,5470.10,Vesey St & Church St,5216.06,40.721188545,-74.009901881,40.71221958009051,-74.01047229766846,member
DF40A1D188F99EF8,classic_bike,2023-07-08 14:57:48,2023-07-08 15:05:18,1 St & 6 Ave,3946.07,St Marks Pl & 4 Ave,4249.10,40.672691822,-73.979596734,40.68177810928762,-73.97988975048065,member
1E5B942AFC7FF285,classic_bike,2023-07-08 14:20:14,2023-07-08 14:35:48,Central Park W & W 97 St,7538.18,W 67 St & Broadway,7116.04,40.79249519495111,-73.96417066463071,40.77492513,-73.98266566,member
299F1512B83CB198,classic_bike,2023-07-03 21:35:50,2023-07-03 22:04:36,E 2 St & Avenue B,5515.02,Metropolitan Ave & Meeker Ave,5300.05,40.72219336,-73.983579516,40.71413311,-73.95234386,casual
649040E741593711,electric_bike,2023-07-04 09:29:29,2023-07-04 09:47:07,Mt Morris Park W & W 120 St,7685.14,E 63 St & 3 Ave,6830.02,40.804038,-73.945925,40.763954,-73.9646,member
12C80E16EC3B7DCE,classic_bike,2023-07-31 08:48:23,2023-07-31 08:53:39,Broadway & W 38 St,6560.15,E 32 St & Park Ave,6280.12,40.753252745,-73.986672401,40.7457121,-73.98194829,member
5EB339EACD60B6DD,classic_bike,2023-07-06 19:01:14,2023-07-06 19:13:37,Bleecker St & Crosby St,5679.08,Canal St & Rutgers St,5303.08,40.72615604980408,-73.99510189890862,40.71427487,-73.98990025,casual
0647DE30F54EE7EB,classic_bike,2023-07-13 20:54:08,2023-07-13 20:58:18,9 Ave & W 18 St,6190.08,W 20 St & 7 Ave,6182.02,40.743270874,-74.00360775,40.74238787,-73.99726235,casual
1DABDC66203364E6,classic_bike,2023-07-19 15:22:30,2023-07-19 15:37:37,Irving Ave & Jefferson St,5051.02,Bushwick Ave & McKibbin St,5027.02,40.70538,-73.92535,40.705517,-73.93936,member
93CC9138C69771A9,classic_bike,2023-07-05 14:22:47,2023-07-05 14:27:47,Broadway & Morris St,5033.01,Vesey St & Church St,5216.06,40.705945132708806,-74.01321887969969,40.71221958009051,-74.01047229766846,member
614BB5A1A7C178D1,classic_bike,2023-07-03 14:18:41,2023-07-03 14:24:39,Bedford Ave & Montgomery St,3736.03,Caton Ave & Bedford Ave,3368.04,40.665816,-73.956934,40.65237,-73.95623,member
0FCBDD51FAA2197C,classic_bike,2023-07-04 10:13:36,2023-07-04 10:40:08,Linden Blvd & Nostrand Ave,3359.03,Court St & State St,4488.08,40.652718425,-73.949972153,40.6902375,-73.99203074,member
FB847759472B91AD,classic_bike,2023-07-27 19:35:37,2023-07-27 19:55:17,W 50 St & 10 Ave,6890.06,Bank St & Hudson St,5922.08,40.76473420006519,-73.99194359779358,40.73652889,-74.00618026,member
E15A5A3D680ED54C,classic_bike,2023-07-11 19:10:01,2023-07-11 19:15:38,Little West St & 1 Pl,5001.08,Greenwich St & Rector St,5073.07,40.705635428,-74.016990066,40.70806582380646,-74.0135595202446,member
AA21567F98F0D836,classic_bike,2023-07-17 14:11:41,2023-07-17 14:31:18,E 58 St & 3 Ave,6762.02,W 59 St & 10 Ave,7023.04,40.76095756,-73.96724467,40.770513,-73.988038,member
784E24B88EC69560,classic_bike,2023-07-08 22:07:57,2023-07-08 22:17:42,W 100 St & Broadway,7580.01,St Nicholas Ave & Manhattan Ave,7723.01,40.797469139,-73.970265746,40.809725,-73.953149,casual
D57B8443A493D9FA,classic_bike,2023-07-27 15:49:33,2023-07-27 15:53:46,E 161 St & River Ave,8041.07,Ogden Ave & W 164 St,8115.01,40.827895641,-73.927182794,40.832812,-73.929372,member
E701285090AA3BA9,classic_bike,2023-07-22 08:41:12,2023-07-22 09:20:08,W 22 St & 10 Ave,6306.06,5 Ave & E 78 St,7161.08,40.74691959,-74.00451887,40.77632142182271,-73.96427392959595,member
57E3368EB309939A,electric_bike,2023-07-01 11:08:04,2023-07-01 11:25:51,W 20 St & 7 Ave,6182.02,South St & Whitehall St,4846.01,40.74238787,-73.99726235,40.70122128,-74.01234218,member
773F9C49057004E5,classic_bike,2023-07-20 08:46:28,2023-07-20 08:52:22,Graham Ave & Grand St,5178.06,Morgan Ave & Lombardy St,5503.01,40.711767316,-73.943765402,40.72226,-73.93889,member
8253E234ABE8B568,classic_bike,2023-07-01 04:05:10,2023-07-01 04:17:22,Broadway & Roebling St,5125.07,McKibbin St & Bogart St,5059.02,40.70924826276157,-73.96063148975372,40.706237,-73.933871,casual
1BDA202B6B62CE91,classic_bike,2023-07-28 19:48:22,2023-07-28 19:56:55,E 95 St & 3 Ave,7365.13,W 100 St & Manhattan Ave,7538.14,40.785007,-73.950519919,40.795,-73.9645,member
1682A7D01DF89DE2,classic_bike,2023-07-24 13:49:14,2023-07-24 13:54:25,Broadway & Kosciuszko St,4608.01,Central Ave & Himrod St,4713.01,40.69329,-73.92852,40.69676,-73.92302,member
D09F8A6CAD192241,electric_bike,2023-07-12 16:47:53,2023-07-12 16:52:43,Main St & Plymouth St,4936.21,Front St & Gold St,4927.04,40.70378167354831,-73.99073392152786,40.70224,-73.982578,member
0253C00DC52AAA6D,classic_bike,2023-07-29 13:45:14,2023-07-29 13:49:54,W 90 St & Amsterdam Ave,7432.04,W 76 St & Columbus Ave,7281.09,40.790186405,-73.972806096,40.7801839724239,-73.97728532552719,casual
3A88967465C3C10B,classic_bike,2023-07-21 16:16:07,2023-07-21 16:30:01,Kent Ave & Grand St,5388.01,Delancey St & Eldridge St,5414.07,40.716656923,-73.965743065,40.719383,-73.991479,member
8A21924ABED80033,classic_bike,2023-07-19 16:07:25,2023-07-19 17:05:37,2 Ave & E 31 St,6197.02,W 67 St & Broadway,7116.04,40.74290902,-73.97706058,40.77492513,-73.98266566,casual
1734E2C705D2F092,classic_bike,2023-07-13 15:33:34,2023-07-13 15:48:18,LaGuardia Pl & W 3 St,5721.14,6 Ave & W 33 St,6364.07,40.729349494,-73.998061657,40.74901271,-73.98848395,member
B755978ED1DE609B,classic_bike,2023-07-02 19:30:40,2023-07-02 19:30:42,Isham St & Broadway,8665.09,Isham St & Broadway,8665.09,40.86788,-73.919685,40.86788,-73.919685,member
D2AE105A4FBE33DD,classic_bike,2023-07-18 10:46:42,2023-07-18 10:49:45,Columbus Ave & W 103 St,7595.17,W 95 St & Broadway,7541.01,40.79709816,-73.964200974,40.7937704,-73.971888,member
E8B8FA46E4BF8292,classic_bike,2023-07-03 18:06:32,2023-07-03 18:21:17,17 St & 5 Ave,3699.07,Caton Ave & E 7 St,3199.01,40.663493,-73.991007,40.647718,-73.973663,member
1B2E38AEC9393478,classic_bike,2023-07-22 23:54:42,2023-07-23 00:15:01,Driggs Ave & N 9 St,5411.08,Stuyvesant Ave & Hart St,4689.08,40.71816969454208,-73.95520135760307,40.69465,-73.9343,casual
F440CB5CEDF1A4A2,classic_bike,2023-07-28 19:37:54,2023-07-28 19:39:39,11 Ave & W 59 St,7059.01,W 59 St & 10 Ave,7023.04,40.77149671054441,-73.99046033620834,40.770513,-73.988038,member
F9FCADD03B1302C8,classic_bike,2023-07-09 16:33:09,2023-07-09 16:36:55,46 St & 7 Ave,3117.05,5 Ave & 41 St,3306.03,40.644743,-74.003754,40.649983,-74.005144,member
1AF16C1391568D39,classic_bike,2023-07-27 09:49:43,2023-07-27 11:38:16,Front St & Gold St,4927.04,Bedford Ave & Nassau Ave,5550.05,40.702193856,-73.982524157,40.72311651,-73.95212324,member
79A68C8F27AA82FA,classic_bike,2023-07-04 18:41:04,2023-07-04 18:49:41,Macon St & Lewis Ave,4310.06,Bushwick Ave & Harman St,4640.01,40.682846427,-73.93483448,40.69356,-73.92524,casual
5F51AD2E8285EB8F,classic_bike,2023-07-18 21:24:15,2023-07-18 21:26:48,Greenwich St & W Houston St,5730.08,Spring St & Hudson St,5653.12,40.728846,-74.008591,40.72583996792375,-74.0076532959938,member
04A32595EB0775D0,classic_bike,2023-07-13 15:10:51,2023-07-13 15:26:41,E 44 St & 2 Ave,6422.09,8 Ave & W 16 St,6072.11,40.75118387463277,-73.97138714790344,40.740983,-74.001702,member
9CD4227CB7B83708,classic_bike,2023-07-27 08:58:27,2023-07-27 09:24:33,E 12 St & Ave C,5616.08,Old Slip & South St,4993.13,40.727243,-73.976831,40.70336686695866,-74.007867872715,member
80FDD85A04CE820D,classic_bike,2023-07-18 07:52:07,2023-07-18 07:58:35,W 42 St & Dyer Ave,6644.07,W 54 St & 11 Ave,6955.05,40.75898481399634,-73.99379968643188,40.768333,-73.992573,member
6EF1AD25DB7F221A,classic_bike,2023-07-27 10:00:30,2023-07-27 10:07:21,College Ave & E 169 St,8141.05,Plaza Dr & W 170 St,8213.01,40.835101247,-73.91199863,40.840484,-73.917946,casual
0B336E281D570622,classic_bike,2023-07-22 14:59:59,2023-07-22 15:07:20,W 17 St & 8 Ave,6148.02,E 20 St & Park Ave,6055.08,40.74177603,-74.00149746,40.73827428,-73.98751968,casual
D77CCA4F95052742,classic_bike,2023-07-19 17:03:39,2023-07-19 17:59:16,Greenpoint Ave & West St,5752.09,Hanson Pl & Ashland Pl,4395.07,40.729803,-73.959099,40.68506807308177,-73.97790759801863,member
A6E632D6359C8A78,classic_bike,2023-07-27 12:55:48,2023-07-27 13:14:04,Grand Concourse & E 175 St,8303.06,W Tremont Ave & Montgomery Ave,8407.03,40.846370459,-73.909320593,40.851788,-73.916418,member
52CE9AEF3E5B2901,classic_bike,2023-07-19 06:58:21,2023-07-19 07:06:18,Ave A & E 11 St,5703.13,Forsyth St & Canal St,5270.07,40.72870183,-73.98126626,40.7158155,-73.99422366,casual
21B2D380D4636B53,classic_bike,2023-07-04 11:03:00,2023-07-04 11:37:26,3 Ave & E 100 St,7414.17,W 155 St & Frederick Douglass Blvd,8065.13,40.7877214,-73.94728331,40.82923,-73.936996,casual
F03DE5166C9E5186,classic_bike,2023-07-29 11:36:11,2023-07-29 11:43:23,9 Ave & W 22 St,6266.06,Greenwich Ave & 8 Ave,6072.06,40.7454973,-74.00197139,40.7390169121,-74.0026376103,member
EBA594BCEBB3C7A9,classic_bike,2023-07-14 16:00:45,2023-07-14 16:04:17,Roosevelt Island Tramway,6599.01,Motorgate,6814.01,40.757284,-73.9536,40.7639089,-73.9477213,member
5FF80A9126A64FBE,classic_bike,2023-07-16 19:10:36,2023-07-16 19:12:34,W 15 St & 7 Ave,6030.06,8 Ave & W 16 St,6072.11,40.739261866,-73.999460936,40.740983,-74.001702,member
8195C5AC5B716704,classic_bike,2023-07-02 10:35:25,2023-07-02 10:41:56,5 Ave & E 93 St,7372.10,Frederick Douglass Blvd & W 112 St,7631.23,40.766845333333336,-73.9712777,40.801694,-73.957145,member
D09D3B9D7A880CF2,classic_bike,2023-07-12 07:10:53,2023-07-12 07:18:11,Suydam St & St. Nicholas Ave,5043.06,Willoughby Ave & Myrtle Ave,4759.02,40.70636,-73.91945,40.69757,-73.93098,member
F31BBC6CEDA7FE6A,classic_bike,2023-07-01 21:48:35,2023-07-01 21:58:05,St Johns Pl & Washington Ave,4001.09,Douglass St & 4 Ave,4175.14,40.673718572,-73.963145375,40.6792788,-73.98154004,member
30EC21154BC6525E,classic_bike,2023-07-22 14:48:32,2023-07-22 14:52:17,Willoughby Ave & Hall St,4611.03,Clermont Ave & Lafayette Ave,4461.01,40.691914678,-73.965377927,40.68764484,-73.96968902,member
BAF2B1F989A47C67,classic_bike,2023-07-19 17:24:31,2023-07-19 17:38:05,2 Ave & E 125 St,7648.16,E 150 St & Gerard Ave,7906.13,40.802375674,-73.933572173,40.820089,-73.928947,member
6353BBC5A8C433EB,classic_bike,2023-07-08 20:11:12,2023-07-08 20:21:23,Stockholm St & Wilson Ave,4824.03,Myrtle Ave & Marcy Ave,4707.03,40.699304,-73.923044,40.69539817,-73.94954908,member
C24AFC0E9305431C,classic_bike,2023-07-21 12:25:18,2023-07-21 12:48:11,Henry St & Grand St,5294.04,Washington St & Gansevoort St,6039.06,40.714211,-73.981095,40.739323,-74.008119,casual
24FCDC5D2D0F5A3D,electric_bike,2023-07-31 13:51:44,2023-07-31 13:54:39,W 15 St & 6 Ave,5989.02,Broadway & W 25 St,6173.08,40.738046142482766,-73.99642959237099,40.74286877312112,-73.98918628692627,member
3D822C6FFBCCFCD0,classic_bike,2023-07-14 19:31:38,2023-07-14 19:45:14,Orchard St & Grand St,5343.11,Stanton St & Mangin St,5326.06,40.717339754,-73.990455151,40.71782143,-73.97628939,member
B63DC3F3A31DBFF8,classic_bike,2023-07-28 18:52:17,2023-07-28 19:00:57,Chauncey St & Stuyvesant Ave,4196.05,St Johns Pl & Howard Ave,3917.03,40.680130482,-73.931688309,40.66992,-73.92002,casual
4AE8291807762F15,classic_bike,2023-07-03 14:31:23,2023-07-03 14:38:19,Carmine St & 6 Ave,5763.03,E 1 St & Bowery,5636.13,40.73038599,-74.00214988,40.72486122254819,-73.99213135242462,member
1521E0BBDC5B4463,classic_bike,2023-07-19 00:39:17,2023-07-19 01:02:08,2 Ave & E 31 St,6197.02,3 Ave & E 112 St,7543.15,40.742949963,-73.977041841,40.795508,-73.941606,member
2BABA8007EAC0CA0,classic_bike,2023-07-18 01:58:01,2023-07-18 02:11:27,E 14 St & Avenue B,5736.09,Johnson St & Gold St,4668.08,40.729324102,-73.977559924,40.69474881,-73.98362464,member
622B71CAC90C0216,classic_bike,2023-07-17 12:40:52,2023-07-17 12:58:10,Broadway & E 19 St,6098.12,E 89 St & 3 Ave,7265.10,40.738637805,-73.98963511,40.7806284,-73.9521667,member
98446A8CBA769010,electric_bike,2023-07-17 06:53:40,2023-07-17 07:00:40,Bank St & Washington St,5964.01,Duane St & Hudson St,5359.12,40.7361967,-74.00859207,40.71703,-74.00925,member
96A931EB2B0D0799,classic_bike,2023-07-23 17:50:04,2023-07-23 17:54:46,Lafayette St & Jersey St,5561.06,St Marks Pl & 1 Ave,5626.13,40.724567056,-73.995741963,40.72779126,-73.98564945,member
D2EAA2BAF41718BC,classic_bike,2023-07-30 11:36:16,2023-07-30 11:43:27,Riverside Dr & W 104 St,7623.13,Central Park West & W 85 St,7354.01,40.80131948,-73.971011043,40.78476,-73.969862,member
AA961E7136A59BC8,classic_bike,2023-07-03 15:47:05,2023-07-03 16:12:27,Stanton St & Chrystie St,5523.02,West St & Liberty St,5184.08,40.72229346,-73.99147535,40.711444,-74.014847,casual
924DD9EABC743F66,classic_bike,2023-07-21 12:41:24,2023-07-21 12:52:16,E 17 St & Broadway,5980.07,W 44 St & 5 Ave,6551.02,40.69961236666666,-73.97986316666666,40.75500254,-73.98014437,member
B16A6B3DC04E0329,classic_bike,2023-07-13 12:35:30,2023-07-13 12:51:15,E 88 St & Park Ave,7293.10,W 59 St & 10 Ave,7023.04,40.781526446,-73.955931664,40.770513,-73.988038,casual
30D668CC6B3AC86C,electric_bike,2023-07-20 14:34:39,2023-07-20 14:42:41,St Nicholas Ave & Manhattan Ave,7723.01,Macombs Pl & W 152 St,8029.28,40.809725,-73.953149,40.826406,-73.937948,member
FE89CEE9F9A32E6A,classic_bike,2023-07-21 23:13:25,2023-07-21 23:22:35,Kenmare St & Elizabeth St,5453.06,Canal St & Rutgers St,5303.08,40.72054,-73.9949,40.71427487,-73.98990025,casual
70F8162A945A3EF9,classic_bike,2023-07-27 17:46:08,2023-07-27 18:41:39,Broadway & W 56 St,6847.02,Grand Army Plaza & Central Park S,6839.1,40.7652654,-73.98192338,40.7643971,-73.97371465,casual
F36C7431C43247D7,classic_bike,2023-07-20 20:18:38,2023-07-20 20:26:37,Grand St & Samuel Dickstein Plaza,5335.07,Great Jones St,5636.11,40.715006471,-73.983967304,40.72743423,-73.99379025,member
A04DB8042624352D,classic_bike,2023-07-12 17:51:06,2023-07-12 17:58:18,Mercer St & Spring St,5532.01,Canal St & Rutgers St,5303.08,40.723603964,-73.999329805,40.71427487,-73.98990025,member
439D9E95E0003F80,classic_bike,2023-07-20 22:53:04,2023-07-20 23:24:44,Bayard St & Leonard St,5442.05,W 43 St & 10 Ave,6756.01,40.719163895,-73.949198484,40.76009437,-73.99461843,member
BCD2A5F8912F9CB0,classic_bike,2023-07-30 11:23:28,2023-07-30 11:49:25,Whitehall St & Bridge St,4962.02,W 29 St & 9 Ave,6416.06,40.70366170524135,-74.0131813287735,40.7500727,-73.99839279,member
36C2B569DAE819C2,classic_bike,2023-07-31 19:28:27,2023-07-31 19:49:48,19 St & 24 Ave,7186.15,46 Ave & 5 St,6286.02,40.7774552,-73.9225403,40.74731,-73.95451,casual
EFB520323DDCB5FF,classic_bike,2023-07-05 08:57:58,2023-07-05 09:06:39,Lexington Ave & E 36 St,6313.10,1 Ave & E 30 St,6079.03,40.7475739589548,-73.9788007736206,40.74144387,-73.97536082,member
620DE031B94E0FCA,classic_bike,2023-07-02 10:02:18,2023-07-02 10:17:46,W 21 St & 6 Ave,6140.05,Amsterdam Ave & W 79 St,7311.02,40.74165988,-73.993998289,40.7829391,-73.9786517,member
1C6400C3559314D8,classic_bike,2023-07-12 16:36:32,2023-07-12 16:36:33,Ogden Ave & W 164 St,8115.01,Ogden Ave & W 164 St,8115.01,40.832812,-73.929372,40.832812,-73.929372,member
3187BA0EE4FA73A7,classic_bike,2023-07-05 18:00:50,2023-07-05 18:05:24,1 Ave & E 68 St,6822.09,E 78 St & 2 Ave,7057.07,40.764925361,-73.958192825,40.7727966,-73.95577801,member
7C6FD7488E927CD6,classic_bike,2023-07-07 09:48:04,2023-07-07 09:55:56,Putnam Ave & Ralph Ave,4450.06,Myrtle Ave & Lewis Ave,4729.01,40.687080741,-73.923223972,40.69681963,-73.93756926,member
8C010D3905436274,classic_bike,2023-07-10 12:41:19,2023-07-10 12:44:41,21 Ave & Crescent St,7284.01,31 St & 23 Ave,7144.01,40.7804811,-73.912144661,40.7747878,-73.9125551,member
00716E881F2416B5,electric_bike,2023-07-31 17:52:12,2023-07-31 17:52:19,MacDougal St & Prince St,5687.04,MacDougal St & Prince St,5687.04,40.72710258,-74.00297088,40.72710258,-74.00297088,casual
E312FA3B4C0BE1C1,classic_bike,2023-07-21 16:17:30,2023-07-21 16:45:08,W 113 St & Broadway,7713.01,Broadway & W 51 St,6779.04,40.805973,-73.964928,40.76228826,-73.98336183,member
DA4562C653B741AA,classic_bike,2023-07-20 16:34:05,2023-07-20 16:37:30,Courtlandt Ave & E 149 St,7840.05,E 147 St & Bergen Ave,7840.11,40.816402,-73.919549,40.814673,-73.91839,member
083120F1E1C1F443,classic_bike,2023-07-19 16:32:44,2023-07-19 16:47:03,Gansevoort St & Hudson St,6072.16,Spring St & Hudson St,5653.12,40.739360213,-74.005085588,40.72583996792375,-74.0076532959938,casual
00EA025339DEAC74,classic_bike,2023-07-22 09:16:49,2023-07-22 09:40:16,Clark St & Henry St,4789.03,Morton St & Washington St,5772.05,40.69760127,-73.99344559,40.73115,-74.00887,casual
0749476573446347,electric_bike,2023-07-06 14:36:48,2023-07-06 14:38:26,W 171 St & St. Nicholas Ave,8262.07,W 168th S & Fort Washington Ave,8226.07,40.842941,-73.938631,40.84210236102173,-73.9422395825386,member
885E6A823C01127D,classic_bike,2023-07-13 09:50:34,2023-07-13 10:03:19,7 Ave & W 55 St,6847.05,5 Ave & E 72 St,7100.07,40.764126,-73.980973,40.77282817,-73.96685276,member
F53CCCB161704A67,classic_bike,2023-07-11 16:50:21,2023-07-11 16:58:58,Grand Army Plaza & Central Park S,6839.10,W 41 St & 8 Ave,6602.03,40.764551282,-73.973851323,40.75640548,-73.9900262,member
4AE4A26FB3095386,electric_bike,2023-07-03 18:41:54,2023-07-03 18:42:42,Berry St & N 8 St,5379.09,Berry St & N 8 St,5379.09,40.7190095,-73.95852515,40.7190095,-73.95852515,member
867775973CBC9AA3,classic_bike,2023-07-12 18:30:26,2023-07-12 18:52:20,E 47 St & 2 Ave,6498.10,Central Park West & W 68 St,7079.06,40.75323098,-73.97032517,40.7734066,-73.97782542,member
CEA4440FBAB7064E,classic_bike,2023-07-29 20:15:20,2023-07-29 20:21:10,MacDougal St & Washington Sq,5797.01,Cooper Square & Astor Pl,5712.03,40.73226398,-73.99852205,40.72951496224949,-73.99075269699097,casual
0854C6BBFEA1A3F7,classic_bike,2023-07-10 08:32:39,2023-07-10 08:54:57,Clinton St & Grand St,5303.06,E 9 St & Avenue C,5616.01,40.71559509,-73.9870295,40.72521311,-73.97768752,member
16D9C9119F266375,classic_bike,2023-07-14 12:50:41,2023-07-14 12:59:31,E 32 St & Park Ave,6280.12,W 20 St & 8 Ave,6224.05,40.745313287,-73.981856346,40.74345335,-74.00004031,member
FC099AB85B12390F,classic_bike,2023-07-26 04:33:40,2023-07-26 04:50:46,Lincoln Pl & Nostrand Ave,3952.07,Knickerbocker Ave & Halsey St,4623.02,40.670791626,-73.950822473,40.693,-73.90824,member
19EBC6C2947F165F,classic_bike,2023-07-22 23:00:02,2023-07-22 23:03:40,Stagg St & Union Ave,5117.05,Metropolitan Ave & Meeker Ave,5300.05,40.70877084,-73.95095259,40.71413311,-73.95234386,member
BECAB9566B02CC8A,classic_bike,2023-07-11 19:12:54,2023-07-11 19:27:13,W 17 St & 7 Ave,6107.08,Pier 40 - Hudson River Park,5696.03,40.74056423633952,-73.99852573871613,40.7277140777778,-74.01129573583603,casual
CA05438153ED3236,classic_bike,2023-07-13 19:15:00,2023-07-13 19:27:59,Rugby Rd & Beverley Rd,3113.06,6 Ave & 9 St,3803.09,40.644417048,-73.965958953,40.668127,-73.98377641,member
4E4EF6BD5822FFB8,classic_bike,2023-07-01 22:13:30,2023-07-01 23:02:35,W 67 St & Broadway,7116.04,E 1 St & 1 Ave,5593.01,40.774814487,-73.982545733,40.72335597960796,-73.98864984512329,member
FB82399B4393FEEA,electric_bike,2023-07-31 17:57:02,2023-07-31 18:02:43,W 47 St & 6 Ave,6667.04,W 53 St & 10 Ave,6890.01,40.758397,-73.98255,40.76669671,-73.99061728,member
CA2A3B6358E0C368,classic_bike,2023-07-20 08:11:22,2023-07-20 08:19:30,Columbus Ave & W 72 St,7175.05,Central Park S & 6 Ave,6876.04,40.7770575,-73.97898475,40.76590936,-73.97634151,member
3A706D9BD196EAA9,classic_bike,2023-07-25 19:49:50,2023-07-25 19:55:23,W 67 St & Broadway,7116.04,W 87 St & West End Ave,7484.05,40.774752855,-73.982894897,40.789622,-73.97757,member
57C36E47CEDC1035,classic_bike,2023-07-31 17:06:52,2023-07-31 17:34:07,St Marks Pl & 1 Ave,5626.13,E 117 St & 1 Ave,7579.11,40.727807045,-73.986152053,40.79656826080296,-73.93459528684616,member
8BBAE5C4507C2322,classic_bike,2023-07-11 07:23:31,2023-07-11 07:40:02,E 9 St & Avenue C,5616.01,Lispenard St & Broadway,5391.06,40.72521311,-73.97768752,40.71939226,-74.00247214,member
1319A09F70CCB522,classic_bike,2023-07-14 14:29:06,2023-07-14 14:39:31,E 12 St & 3 Ave,5788.12,Suffolk St & Stanton St,5445.02,40.73223272,-73.98889957,40.72066442,-73.98517977,member
2209CA5D4E264CC8,classic_bike,2023-07-06 18:01:07,2023-07-06 18:07:52,11 Ave & W 59 St,7059.01,W 43 St & 10 Ave,6756.01,40.77149671054441,-73.99046033620834,40.76009437,-73.99461843,member
83AAAFCC2B183536,classic_bike,2023-07-13 15:06:02,2023-07-13 15:15:12,Davidson Ave & W Burnside Ave,8441.05,Davidson Ave & W Burnside Ave,8441.05,40.853646,-73.908731,40.853646,-73.908731,casual
FA15912D15B77573,electric_bike,2023-07-18 17:42:12,2023-07-18 17:50:44,Wyckoff Av & Jefferson St,5051.01,60 St & 60 Rd,5360.02,40.707165,-73.923711,40.71592232709503,-73.90601366758347,member
E121F0D138BCE843,classic_bike,2023-07-08 14:45:13,2023-07-08 15:03:40,11 Ave & W 59 St,7059.01,Stanton St & Chrystie St,5523.02,40.771485329,-73.990864158,40.72229346,-73.99147535,member
35A1187C6951060B,classic_bike,2023-07-24 10:42:25,2023-07-24 10:52:00,Avenue D & E 3 St,5436.09,St Marks Pl & 2 Ave,5669.10,40.72082834,-73.97793172,40.7284186,-73.98713956,member
D12263C73F74419A,classic_bike,2023-07-30 20:50:42,2023-07-30 20:59:33,,,2 Ave & E 29 St,6122.09,40.77,-73.97,40.74172351097472,-73.97809267044067,casual
D9FF903575EA791E,classic_bike,2023-07-15 01:01:54,2023-07-15 01:10:41,E 157 St & River Ave,8005.03,3 Ave & E 169 St,8103.05,40.825818896,-73.92740798,40.832678,-73.905158,casual
0D1F03B9C68E91A6,classic_bike,2023-07-31 22:59:35,2023-07-31 23:31:53,Central Park S & 6 Ave,6876.04,7 Ave & Central Park South,6912.01,40.76590936,-73.97634151,40.7667405590595,-73.9790689945221,casual
8591C49EC7FEED3F,classic_bike,2023-07-16 19:03:25,2023-07-16 19:09:46,E 97 St & Madison Ave,7393.09,Columbus Ave & W 95 St,7520.07,40.787704706,-73.953450203,40.7919557,-73.968087,casual
82B3412A75538153,classic_bike,2023-07-25 08:39:34,2023-07-25 08:47:33,Davidson Ave & W Burnside Ave,8441.05,E 171 St & Webster Ave,8190.03,40.853483796,-73.908789277,40.838379,-73.905838,member
67EC8F35DCB0E754,classic_bike,2023-07-26 13:54:07,2023-07-26 14:19:50,Center Blvd & 48 Ave,6254.06,5 St & 51 Ave,6137.04,40.745038,-73.957539,40.7423737,-73.9566,member
DFCF7E401A9603FA,classic_bike,2023-07-13 16:20:52,2023-07-13 16:30:51,11 Ave & W 41 St,6726.01,Grand Army Plaza & Central Park S,6839.1,40.760271668,-73.998883009,40.7643971,-73.97371465,member
18DFCE3DB5C5DEDB,classic_bike,2023-07-29 18:40:20,2023-07-29 18:53:05,W 15 St & 10 Ave,6115.09,E 20 St & Park Ave,6055.08,40.742470145,-74.007061124,40.73827428,-73.98751968,casual
E32AC8C3E66CB12E,classic_bike,2023-07-26 11:37:52,2023-07-26 12:39:37,Broadway & W 36 St,6441.01,E 72 St & Park Ave,6998.08,40.75097711,-73.98765428,40.77118287540658,-73.96409422159195,member
E66B97BCEAC0C9C1,classic_bike,2023-07-14 11:48:25,2023-07-14 11:53:53,Eastern Pkwy & Kingston Ave,3902.06,Eastern Pkwy & Kingston Ave,3902.06,40.669589162,-73.942614675,40.66959,-73.94237,casual
82C78F6D8D3561D6,classic_bike,2023-07-27 17:26:11,2023-07-27 17:28:48,Albany St & Greenwich St,5145.02,Vesey St & Church St,5216.06,40.709267,-74.013247,40.71221958009051,-74.01047229766846,member
1D90C392ABC5B980,classic_bike,2023-07-17 18:25:26,2023-07-17 18:34:27,W 47 St & 9 Ave,6786.02,W 52 St & 5 Ave,6700.01,40.76153045158114,-73.99007007479668,40.75992262,-73.97648516,member
33D72B3475BEA1A7,classic_bike,2023-07-18 22:07:16,2023-07-18 22:25:54,Henry St & Grand St,5294.04,1 Ave & E 39 St,6303.01,40.714267015,-73.981307149,40.74714,-73.97113,casual
225BD1C687E93B69,classic_bike,2023-07-08 19:48:59,2023-07-08 19:52:50,W 116 St & Amsterdam Ave,7692.11,W 107 St & Columbus Ave,7619.05,40.8067581,-73.9607082,40.7997568,-73.9621128676,member
DD8F96DE57D376CE,classic_bike,2023-07-17 18:45:40,2023-07-17 18:53:47,E 85 St & 3 Ave,7212.05,5 Ave & E 78 St,7161.08,40.778035998,-73.954166651,40.77632142182271,-73.96427392959595,member
868E8829F0AD0100,classic_bike,2023-07-25 11:30:45,2023-07-25 11:34:33,W 49 St & 8 Ave,6747.06,W 43 St & 10 Ave,6756.01,40.76227205,-73.98788205,40.76009437,-73.99461843,member
65A61FA40B4ACC83,classic_bike,2023-07-10 19:32:54,2023-07-10 19:33:58,W 56 St & 6 Ave,6809.07,W 55 St & 6 Ave,6809.09,40.76340613,-73.97722479,40.763189,-73.978434,member
D7484DAB86F0EC3F,classic_bike,2023-07-30 11:49:42,2023-07-30 11:55:30,E 2 St & Avenue C,5476.03,Cooper Square & Astor Pl,5712.03,40.7208736,-73.98085795,40.72951496224949,-73.99075269699097,member
038F7F664FDF6B37,classic_bike,2023-07-11 08:04:51,2023-07-11 08:12:45,W 50 St & 10 Ave,6890.06,W 52 St & 5 Ave,6700.01,40.76473420006519,-73.99194359779358,40.75992262,-73.97648516,member
3AFD6FA84EEA0168,classic_bike,2023-07-17 20:42:40,2023-07-17 21:47:37,W 54 St & 9 Ave,6920.03,W 54 St & 11 Ave,6955.05,40.76584941,-73.98690506,40.768333,-73.992573,casual
758F1233BA6A1716,classic_bike,2023-07-29 20:47:29,2023-07-29 20:54:09,E 17 St & 2 Ave,5896.01,E 5 St & Ave A,5626.06,40.734337568,-73.983793259,40.72479007746337,-73.98430064320564,member
96D7A02BBD9289F0,classic_bike,2023-07-18 19:27:22,2023-07-18 19:48:02,Vesey Pl & River Terrace,5297.02,9 Ave & W 22 St,6266.06,40.7153379,-74.01658354,40.7454973,-74.00197139,member
80432C93E43F7589,classic_bike,2023-07-16 23:43:14,2023-07-17 00:37:00,Little West St & 1 Pl,5001.08,Amsterdam Ave & W 79 St,7311.02,40.705734611,-74.017013431,40.7829391,-73.9786517,member
586F156A25424C44,classic_bike,2023-07-15 11:47:54,2023-07-15 11:55:12,E 81 St & York Ave,7084.12,E 81 St & 1 Ave,7121.13,40.7728384,-73.94989233,40.77377781072322,-73.95197331905365,member
956AF1045B6AE84D,classic_bike,2023-07-19 18:33:38,2023-07-19 19:42:45,Grand Army Plaza & Central Park S,6839.10,Central Park S & 6 Ave,6876.04,40.7643971,-73.97371465,40.76590936,-73.97634151,casual
7502E512F3174961,electric_bike,2023-07-30 16:39:02,2023-07-30 17:10:59,Eastern Pkwy & Washington Ave,3928.08,N 9 St & Wythe Ave,5489.06,40.6716493,-73.9631145,40.72054,-73.959,casual
A9ECBC3911B20F18,classic_bike,2023-07-01 15:31:53,2023-07-01 15:41:52,W 33 St & 10 Ave,6492.04,W 53 St & 10 Ave,6890.01,40.753537416,-73.998995662,40.76669671,-73.99061728,member
D7E36982E921F3FE,classic_bike,2023-07-24 18:35:15,2023-07-24 19:12:08,E 85 St & 3 Ave,7212.05,E 81 St & 1 Ave,7121.13,40.777906775,-73.954075217,40.77377781072322,-73.95197331905365,member
16BF36BA36524E9C,classic_bike,2023-07-18 09:40:53,2023-07-18 09:42:27,W 27 St & 6 Ave,6215.07,W 27 St & 7 Ave,6247.06,40.74526,-73.99062,40.746647,-73.993915,member
FEBFCA9B2035D11F,classic_bike,2023-07-20 08:54:39,2023-07-20 08:59:27,N 12 St & Bedford Ave,5450.04,Calyer St & Guernsey St,5709.03,40.72079821,-73.95484712,40.72755807335852,-73.95505852997303,casual
491D1548DB689055,classic_bike,2023-07-29 13:10:40,2023-07-29 13:56:32,Barclay St & Church St,5216.04,Sands St & Jay St,4821.03,40.712880135,-74.010528803,40.700119,-73.9862,casual
47EA4A8C7B6EBB91,classic_bike,2023-07-24 21:50:57,2023-07-24 21:59:36,Irving Ave & Halsey St,4695.04,Cedar St & Evergreen Ave,4721.01,40.69467,-73.90663,40.69671,-73.92807,member
C7C3D398222B1778,classic_bike,2023-07-05 20:02:32,2023-07-05 20:19:20,Mott St & Prince St,5561.04,W 43 St & 10 Ave,6756.01,40.72322464,-73.995106578,40.76009437,-73.99461843,member
FDD6ED22798ED594,classic_bike,2023-07-03 11:25:28,2023-07-03 11:49:34,Fort Washington Ave & W 183 St,8399.06,Riverside Dr & W 104 St,7623.13,40.852252,-73.937854,40.8013434,-73.9711457439,member
A6FEF7EA57C97149,classic_bike,2023-07-08 17:38:21,2023-07-08 17:50:10,E 106 St & Madison Ave,7528.31,2 Ave & E 104 St,7436.11,40.7934337,-73.94945003,40.7892105,-73.94370784,member
41FBF3D70C9B69F0,classic_bike,2023-07-16 17:08:09,2023-07-16 17:10:35,E 7 St & Avenue A,5626.07,St Marks Pl & 2 Ave,5669.10,40.72621788,-73.98379855,40.7284186,-73.98713956,member
D265DDB9B4A93CDD,classic_bike,2023-07-15 10:50:04,2023-07-15 10:50:19,W 95 St & Broadway,7541.01,W 95 St & Broadway,7541.01,40.7937704,-73.971888,40.7937704,-73.971888,member
2F9ADA90FD921AD7,classic_bike,2023-07-30 12:44:46,2023-07-30 14:11:16,5 Ave & E 87 St,7323.09,Central Park S & 6 Ave,6876.04,40.782611012,-73.959912777,40.76590936,-73.97634151,casual
89D8F64520F5B34D,classic_bike,2023-07-10 09:14:56,2023-07-10 09:19:06,Ave A & E 14 St,5779.11,E 9 St & Avenue C,5616.01,40.73031071000895,-73.98047178983688,40.72521311,-73.97768752,member
26BCAE265FB142A4,classic_bike,2023-07-31 17:13:10,2023-07-31 17:40:24,West St & Liberty St,5184.08,E 72 St & Park Ave,6998.08,40.711387396,-74.014833093,40.77118287540658,-73.96409422159195,member
23A70FC5246AB5FB,classic_bike,2023-07-18 00:08:02,2023-07-18 00:13:51,Church St & Worth St,5359.13,W 12 St & Hudson St,5997.10,40.758970016666666,-73.99475788333334,40.73752993301071,-74.00558933615685,member
636E62B21523163E,classic_bike,2023-07-14 07:17:55,2023-07-14 07:22:49,University Pl & E 14 St,5905.14,1 Ave & E 16 St,5779.08,40.734814,-73.992085,40.73221853,-73.98165557,member
C7C908F7B0B168E4,classic_bike,2023-07-08 18:42:17,2023-07-08 18:52:43,W 50 St & 9 Ave,6854.05,W 29 St & 9 Ave,6416.06,40.76360467795863,-73.98917958140373,40.7500727,-73.99839279,member
2DD89CD1E495AFD7,classic_bike,2023-07-26 18:15:13,2023-07-26 18:32:36,6 Ave & W 45 St,6593.15,E 81 St & Park Ave,7188.1,40.756951,-73.982631,40.77677702,-73.9590097,member
CC772C764C29EF01,classic_bike,2023-07-14 20:06:50,2023-07-14 20:38:33,W Broadway & Spring St,5569.06,E 33 St & 5 Ave,6322.01,40.72494672359416,-74.00165855884552,40.74765947,-73.98490707,casual
58A01EDEEB7036BF,classic_bike,2023-07-24 07:36:26,2023-07-24 07:52:45,Amsterdam Ave & W 79 St,7311.02,Frederick Douglass Blvd & W 112 St,7631.23,40.7829391,-73.9786517,40.801694,-73.957145,member
D08C697079EBC3F8,classic_bike,2023-07-26 16:29:56,2023-07-26 16:44:33,Kenmare St & Elizabeth St,5453.06,S 4 St & Roebling St,5195.06,40.72054,-73.9949,40.710709,-73.959724,member
3E23573D9637DCD1,classic_bike,2023-07-19 18:30:25,2023-07-19 18:38:36,W 56 St & 8 Ave,6884.03,W 41 St & 8 Ave,6602.03,40.765959181657976,-73.98313522338867,40.75640548,-73.9900262,member
FFE847262DDDC9D7,classic_bike,2023-07-14 15:56:09,2023-07-14 15:59:53,Union St & 4 Ave,4175.15,Prospect Pl & 6 Ave,4166.08,40.6772744,-73.98282002,40.6793307,-73.97519523,member
8C074638415DD8F5,classic_bike,2023-07-08 12:44:35,2023-07-08 13:07:03,St Marks Pl & 4 Ave,4249.1,St Marks Pl & 4 Ave,4249.10,40.68177810928762,-73.97988975048065,40.68177810928762,-73.97988975048065,member
A836CC5818DEF631,classic_bike,2023-07-20 17:54:09,2023-07-20 18:04:41,12 Ave & W 40 St,6765.01,E 41 St & Madison Ave (SE corner),6432.10,40.760900974,-74.002811313,40.752049,-73.979635,member
46A17FE8BD671893,classic_bike,2023-07-21 20:01:23,2023-07-21 20:29:28,Plaza Dr & W 170 St,8213.01,Walton Ave & E 171 St,8249.10,40.840484,-73.917946,40.840683,-73.915073,member
E2239654AC26DA60,classic_bike,2023-07-25 06:00:52,2023-07-25 06:03:31,W 92 St & Broadway,7502.01,Columbus Ave & W 95 St,7520.07,40.792422295,-73.973960876,40.7919557,-73.968087,member
0E9CD8D39E795371,electric_bike,2023-07-31 15:33:23,2023-07-31 15:35:15,Creston Ave & E 178 St,8379.07,E Tremont Ave & E 176 St,8356.02,40.850885,-73.906469,40.847798,-73.901883,member
020CD740384C7508,classic_bike,2023-07-22 17:52:57,2023-07-22 18:17:58,10 Ave & W 14 St,6157.04,E 1 St & Bowery,5636.13,40.74198159994023,-74.00831580162048,40.72486122254819,-73.99213135242462,casual
DDFB1405DEC7C410,classic_bike,2023-07-05 18:21:55,2023-07-05 18:25:04,W 67 St & Broadway,7116.04,Central Park West & W 68 St,7079.06,40.77492513,-73.98266566,40.7734066,-73.97782542,member
2E1EFA130477A718,classic_bike,2023-07-14 09:06:42,2023-07-14 09:27:56,Lefferts Ave & Schenectady Ave,3710.07,Caton Ave & E 7 St,3199.01,40.663475037,-73.934754729,40.647718,-73.973663,member
4D980C05092150A4,classic_bike,2023-07-05 02:13:57,2023-07-05 02:25:55,6 Ave & W 33 St,6364.07,Broadway & W 61 St,7014.12,40.748766184,-73.988672972,40.77003010255044,-73.9819684624672,casual
5C1008B4CAF6D256,classic_bike,2023-07-10 17:10:39,2023-07-10 17:21:18,W 41 St & 8 Ave,6602.03,E 33 St & 1 Ave,6197.08,40.75651443,-73.990106225,40.74322681432173,-73.97449783980846,member
8484057527900769,classic_bike,2023-07-09 11:22:26,2023-07-09 12:17:35,W 87 St & Amsterdam Ave,7458.03,West St & Liberty St,5184.08,40.78839,-73.9747,40.711444,-74.014847,casual
292B07B6E9CCD1D9,classic_bike,2023-07-18 21:01:19,2023-07-18 21:05:23,W 37 St & 10 Ave,6611.02,W 50 St & 9 Ave,6854.05,40.756562233,-73.998046041,40.76360467795863,-73.98917958140373,member
24CF366546E38AA8,classic_bike,2023-07-15 19:08:46,2023-07-15 19:22:12,Watts St & Greenwich St,5578.02,West St & Liberty St,5184.08,40.724070549,-74.009891748,40.711444,-74.014847,casual
9129E0BA77879A85,classic_bike,2023-07-27 06:07:18,2023-07-27 06:12:22,1 Ave & E 39 St,6303.01,E 53 St & 3 Ave,6617.02,40.74714,-73.97113,40.75763227739443,-73.96930575370789,casual
B9138FCE33004F2F,classic_bike,2023-07-11 18:48:57,2023-07-11 18:54:45,W 24 St & 7 Ave,6257.03,W 29 St & 9 Ave,6416.06,40.74487634,-73.99529885,40.7500727,-73.99839279,member
7C929BF311384138,classic_bike,2023-07-27 17:02:14,2023-07-27 17:29:51,21 Ave & Shore Blvd,7342.01,5 Ave & E 78 St,7161.08,40.784006357,-73.916866183,40.77632142182271,-73.96427392959595,member
E5CAF8E07FBB5D53,classic_bike,2023-07-26 14:43:41,2023-07-26 14:54:37,E 5 St & Ave A,5626.06,Roebling St & N 4 St,5267.09,40.724718928,-73.984060645,40.71469,-73.95739,member
83C89321ECEE32C6,classic_bike,2023-07-18 15:12:17,2023-07-18 15:20:04,E 10 St & Avenue A,5659.05,Broadway & E 21 St,6098.10,40.72724092,-73.980979204,40.73988840858996,-73.98958593606949,member
608E578C8D28E51A,classic_bike,2023-07-21 16:19:05,2023-07-21 16:41:04,Convent Ave & W 135 St,7860.08,St Nicholas Ave & Manhattan Ave,7723.01,40.818237662,-73.95116818,40.809725,-73.953149,member
D0923987AAF88C06,classic_bike,2023-07-20 08:44:06,2023-07-20 08:53:51,Greenwich St & W Houston St,5730.08,6 Ave & W 33 St,6364.07,40.728585958,-74.00855875,40.74901271,-73.98848395,member
8D33876ACEEB3061,classic_bike,2023-07-24 17:58:57,2023-07-24 18:08:55,E 188 St & Creston Ave,8566.05,W Tremont Ave & Montgomery Ave,8407.03,40.861493468,-73.898357391,40.851788,-73.916418,member
210F6A57D537FD8F,classic_bike,2023-07-26 19:16:18,2023-07-26 20:06:27,E 53 St & 3 Ave,6617.02,Broadway & W 53 St,6779.05,40.75763227739443,-73.96930575370789,40.76344058,-73.98268129,member
565EE00657234298,classic_bike,2023-07-11 06:17:02,2023-07-11 06:24:28,E 44 St & 2 Ave,6422.09,W 35 St & 9 Ave,6569.09,40.751657248,-73.971722722,40.75414519263519,-73.9960889518261,member
7516FFF4D4AC5CF6,classic_bike,2023-07-10 20:21:48,2023-07-10 20:29:13,Concord St & Bridge St,4781.03,Hanson Pl & Ashland Pl,4395.07,40.69766564,-73.98476437,40.68506807308177,-73.97790759801863,member
1FB61A63C1B105E5,classic_bike,2023-07-20 19:47:28,2023-07-20 19:59:21,Vesey Pl & River Terrace,5297.02,Spring St & Hudson St,5653.12,40.715180874,-74.016298771,40.72583996792375,-74.0076532959938,member
2DBD6C4BFF681991,classic_bike,2023-07-14 16:52:43,2023-07-14 17:09:04,W 55 St & 6 Ave,6809.09,E 89 St & 3 Ave,7265.10,40.763189,-73.978434,40.7806284,-73.9521667,member
D7B240B86919D8DD,classic_bike,2023-07-10 15:29:16,2023-07-10 15:49:32,Centre St & Chambers St,5207.01,Cadman Plaza E & Tillary St,4677.01,40.71273266,-74.0046073,40.69597683,-73.99014892,casual
A475713C56A8F6BB,classic_bike,2023-07-05 16:14:27,2023-07-05 16:30:34,W 55 St & 6 Ave,6809.09,E 13 St & 2 Ave,5820.08,40.762977242,-73.978917599,40.73153937464073,-73.9853024482727,member
FFFD7A9AEC0E400D,classic_bike,2023-07-27 22:27:49,2023-07-27 22:47:02,Fulton St & Clermont Ave,4386.05,3 St & Prospect Park West,3865.05,40.684180498,-73.969294071,40.668132,-73.97363831,member
7E3344E0DC8DFBFA,classic_bike,2023-07-17 08:16:17,2023-07-17 08:28:57,Myrtle Ave & Fleet Pl,4628.07,Pearl St & Hanover Square,4993.02,40.693534017,-73.981841803,40.7047177,-74.00926027,member
AAE714B8DB5183CA,electric_bike,2023-07-19 17:29:59,2023-07-19 18:00:54,31 St & Hoyt Ave N,7018.01,Stanhope St & Fairview Ave,5146.03,40.7711528,-73.9170074,40.70998,-73.91116,member
38C2EFCA2093E309,classic_bike,2023-07-14 02:13:32,2023-07-14 02:47:58,W 26 St & 10 Ave,6382.05,E 47 St & 1 Ave,6498.09,40.749717753,-74.002950346,40.75206862,-73.96784384,casual
577EA38CC01836C2,classic_bike,2023-07-23 14:33:03,2023-07-23 14:43:41,Amsterdam Ave & W 82 St,7360.10,W 54 St & 11 Ave,6955.05,40.78524672,-73.97667321,40.768333,-73.992573,casual
DCB24DDF5D769D6A,classic_bike,2023-07-21 16:04:16,2023-07-21 16:12:20,Lexington Ave & E 29 St,6164.09,E 53 St & Lexington Ave,6617.09,40.742979527,-73.982365966,40.75828065,-73.97069431,member
C6EBA3D282C42908,classic_bike,2023-07-19 19:00:27,2023-07-19 19:10:27,Suffolk St & Stanton St,5445.02,E 11 St & 3 Ave,5788.16,40.72066442,-73.98517977,40.73127,-73.98849,member
49DA28BE7D8608CF,classic_bike,2023-07-09 14:41:33,2023-07-09 14:54:21,Adam Clayton Powell Blvd & W 118 St,7670.09,Amsterdam Ave & W 79 St,7311.02,40.804419398,-73.951547384,40.7829391,-73.9786517,casual
7771E2D6C8AEBD8A,classic_bike,2023-07-09 14:00:39,2023-07-09 14:23:45,W 42 St & 8 Ave,6602.05,5 Ave & E 78 St,7161.08,40.7575699,-73.99098507,40.77632142182271,-73.96427392959595,casual
083334CD20A9C786,classic_bike,2023-07-22 17:58:09,2023-07-22 18:29:23,Central Park West & W 72 St,7141.07,Grand Army Plaza & Central Park S,6839.1,40.77579376683666,-73.9762057363987,40.7643971,-73.97371465,casual
DB8540A6B6278056,classic_bike,2023-07-16 17:11:40,2023-07-16 17:31:43,W 16 St & The High Line,6233.05,Spring St & Hudson St,5653.12,40.743020058,-74.007485509,40.72583996792375,-74.0076532959938,casual
51732C1DEB07ED68,classic_bike,2023-07-03 16:26:01,2023-07-03 16:30:46,Knickerbocker Ave & Hancock St,4663.02,Irving Ave & Palmetto St,4775.01,40.69385,-73.90974,40.698,-73.9127,member
D4AD3891CCC579B3,classic_bike,2023-07-22 22:15:47,2023-07-22 22:42:23,Bayard St & Baxter St,5351.03,Broadway & Battery Pl,4962.01,40.71602118,-73.99974372,40.70463334,-74.01361706,casual
64C85F3E4BAAC521,classic_bike,2023-07-13 11:25:16,2023-07-13 13:14:47,Central Park S & 6 Ave,6876.04,Central Park S & 6 Ave,6876.04,40.76590936,-73.97634151,40.76590936,-73.97634151,casual
58FEB50D77F4912D,classic_bike,2023-07-29 20:44:08,2023-07-29 20:52:47,Broadway & Madison St,4483.1,Lewis Ave & Greene Ave,4543.07,40.688208461,-73.919635057,40.68995,-73.9365,member
02638779B5058ACA,classic_bike,2023-07-26 20:05:14,2023-07-26 20:10:08,Washington Park,4546.05,Park Ave & St Edwards St,4700.06,40.691948056,-73.973772645,40.69608941,-73.97803415,casual
AAF1F8E3B5CF858F,classic_bike,2023-07-05 10:09:20,2023-07-05 10:14:40,Broadway & E 21 St,6098.10,6 Ave & W 33 St,6364.07,40.739936233,-73.989541292,40.74901271,-73.98848395,member
731516050DA0F13D,classic_bike,2023-07-14 17:52:39,2023-07-14 18:01:35,3 St & Prospect Park West,3865.05,Caton Ave & E 7 St,3199.01,40.66815865,-73.973537207,40.647718,-73.973663,member
7D2366AF1A85421E,classic_bike,2023-07-28 21:04:45,2023-07-28 21:19:14,W 42 St & 8 Ave,6602.05,West End Ave & W 60 St,7059.08,40.758115888,-73.990693569,40.77237,-73.99005,casual
3E99E10424F7C726,classic_bike,2023-07-18 05:47:07,2023-07-18 05:50:32,St Marks Pl & 1 Ave,5626.13,E 9 St & Avenue C,5616.01,40.72779126,-73.98564945,40.72521311,-73.97768752,member
F837C65FCD2C6127,classic_bike,2023-07-13 23:33:55,2023-07-13 23:45:39,Myrtle Ave & Marcy Ave,4707.03,Johnson St & Gold St,4668.08,40.695376635,-73.949748397,40.69474881,-73.98362464,casual
539C0D2F25A3205D,classic_bike,2023-07-11 10:30:22,2023-07-11 10:34:09,Lexington Ave & E 127 St,7662.13,E 132 St & Madison Ave,7748.02,40.805726,-73.936322,40.810224,-73.937195,member
A64262BDA533AD99,classic_bike,2023-07-20 18:44:36,2023-07-20 18:44:58,Sands St & Jay St,4821.03,Sands St & Jay St,4821.03,40.700119,-73.9862,40.700119,-73.9862,casual
1ABD864E2B0557F6,classic_bike,2023-07-08 16:44:57,2023-07-08 16:52:45,Crescent St & Broadway,6827.11,21 St & Hoyt Ave S,7126.01,40.763248563,-73.928591847,40.774645,-73.923706,member
1C2933485449359D,classic_bike,2023-07-29 20:31:24,2023-07-29 20:57:53,3 St & Prospect Park West,3865.05,Division Ave & Marcy Ave,5084.03,40.668132,-73.97363831,40.70708701,-73.95796783,member
D2A617C82E0FA7D6,classic_bike,2023-07-03 19:12:02,2023-07-03 19:23:23,Broadway & W 51 St,6779.04,Broadway & W 53 St,6779.05,40.762907147,-73.983012795,40.76344058,-73.98268129,casual
700AC8289E36525B,electric_bike,2023-07-31 16:29:01,2023-07-31 16:29:31,McKibbin St & Bogart St,5059.02,McKibbin St & Bogart St,5059.02,40.706237,-73.933871,40.706237,-73.933871,member
BFD6C0D2D2A2F94F,classic_bike,2023-07-10 14:55:00,2023-07-10 15:09:38,Riverside Dr & W 104 St,7623.13,W 67 St & Broadway,7116.04,40.8013434,-73.9711457439,40.77492513,-73.98266566,member
4C8A500CC80EC535,classic_bike,2023-07-26 20:55:36,2023-07-26 21:27:24,E 85 St & 3 Ave,7212.05,Adam Clayton Powell Blvd & W 141 St,7893.05,40.778026462,-73.954306126,40.819241,-73.941057,member
B556D7C03A59A3CA,classic_bike,2023-07-15 11:00:37,2023-07-15 11:04:18,W 54 St & 11 Ave,6955.05,11 Ave & W 41 St,6726.01,40.768333,-73.992573,40.76030096,-73.99884222,member
15616F31E2F6BE9A,classic_bike,2023-07-21 16:52:32,2023-07-21 16:55:12,W 55 St & 6 Ave,6809.09,Central Park S & 6 Ave,6876.04,40.763189,-73.978434,40.76590936,-73.97634151,member
50CB0379E9035D16,classic_bike,2023-07-09 14:50:19,2023-07-09 14:55:43,Columbus Ave & W 95 St,7520.07,Central Park West & W 85 St,7354.01,40.7919557,-73.968087,40.78476,-73.969862,member
CA91F76C5BBF2BF2,electric_bike,2023-07-04 18:44:42,2023-07-04 19:01:11,Cooper Square & Astor Pl,5712.03,6 Ave & W 33 St,6364.07,40.72951496224949,-73.99075269699097,40.74901271,-73.98848395,casual
BE9D10B4B0F861E2,classic_bike,2023-07-19 19:20:38,2023-07-19 19:33:43,W 25 St & 6 Ave,6215.04,11 Ave & W 41 St,6726.01,40.74395411,-73.99144871,40.76030096,-73.99884222,member
C134E86C2917B657,classic_bike,2023-07-31 17:42:42,2023-07-31 17:53:46,14 St & 7 Ave,3731.11,5 Ave & 41 St,3306.03,40.66378808,-73.983843327,40.649983,-74.005144,casual
EE86D8BD4DC1C339,classic_bike,2023-07-30 16:15:48,2023-07-30 16:24:38,W Broadway & Spring St,5569.06,E 33 St & 5 Ave,6322.01,40.725045085,-74.00139308,40.74765947,-73.98490707,member
75A171C9D10A8175,electric_bike,2023-07-27 20:37:26,2023-07-27 20:49:28,W 4 St & 7 Ave S,5880.02,1 Ave & E 16 St,5779.08,40.73401143,-74.00293877,40.73221853,-73.98165557,member
16D47DD6801CAFBA,classic_bike,2023-07-27 06:20:33,2023-07-27 06:36:11,Henry St & Remsen St,4645.04,West Broadway & Watts St,5569.07,40.693827152,-73.994704843,40.72323,-74.00314,casual
99F5A3A173C81C6E,classic_bike,2023-07-04 11:04:09,2023-07-04 11:11:57,Flatbush Ave & Ocean Ave,3704.04,Carroll St & Washington Ave,3887.03,40.663657,-73.963014,40.6686744,-73.9618148,casual
D686CAFA74B4CCAD,classic_bike,2023-07-15 16:06:24,2023-07-15 16:25:19,5 Ave & E 72 St,7100.07,Central Park S & 6 Ave,6876.04,40.77282817,-73.96685276,40.76590936,-73.97634151,casual
02F4829FB5665E73,classic_bike,2023-07-05 16:05:59,2023-07-05 16:21:47,Riverside Dr & W 91 St,7524.16,E 72 St & Park Ave,6998.08,40.793380499,-73.977058768,40.77118287540658,-73.96409422159195,member
C7963E3CB5C0BB2C,electric_bike,2023-07-02 13:46:14,2023-07-02 13:47:34,E 17 St & Broadway,5980.07,Broadway & E 14 St,5905.12,40.73704984,-73.99009296,40.73454567,-73.99074142,member
5AC6C3739D848ECB,classic_bike,2023-07-27 18:57:21,2023-07-27 19:10:03,E 33 St & 5 Ave,6322.01,Greenwich Ave & 8 Ave,6072.06,40.74765947,-73.98490707,40.7390169121,-74.0026376103,member
EDE15035B52E11D9,classic_bike,2023-07-23 12:52:06,2023-07-23 13:16:15,11 Ave & W 59 St,7059.01,E 58 St & 3 Ave,6762.02,40.770672917,-73.989958405,40.76095756,-73.96724467,casual
74E9BE39EE24EB5F,classic_bike,2023-07-22 19:18:28,2023-07-22 19:19:29,Lexington Ave & E 26 St,6089.08,Lexington Ave & E 24 St,6089.07,40.741459,-73.983293,40.74025878,-73.98409214,member
ED7A5CDFAA0139F1,classic_bike,2023-07-02 10:31:06,2023-07-02 10:45:22,Henry St & Remsen St,4645.04,6 Ave & 9 St,3803.09,40.69400964865994,-73.99465128779411,40.668127,-73.98377641,member
FBA74809625CD5F1,classic_bike,2023-07-20 08:12:32,2023-07-20 08:18:53,W 36 St & 9 Ave,6569.07,W 26 St & 10 Ave,6382.05,40.75462324029105,-73.99516761302948,40.749717753,-74.002950346,member
0522A4B1174D69EF,classic_bike,2023-07-25 12:45:54,2023-07-25 13:09:03,2 Ave & E 72 St,6925.09,Columbus Ave & W 95 St,7520.07,40.768569112,-73.958468199,40.7919557,-73.968087,member
B5565B1543906E5B,classic_bike,2023-07-11 14:03:42,2023-07-11 14:09:59,W 48 St &  Rockefeller Plaza,6626.11,E 47 St & 1 Ave,6498.09,40.75776935448309,-73.97929430007935,40.75206862,-73.96784384,member
D913FB86EBC8123A,classic_bike,2023-07-29 11:30:02,2023-07-29 11:45:15,Washington St & Laight St,5509.02,Washington St & Gansevoort St,6039.06,40.72231,-74.0106,40.739323,-74.008119,casual
459CD4E8A7536405,classic_bike,2023-07-06 19:42:22,2023-07-06 20:08:17,Douglass St & 3 Ave,4217.02,Grand Ave & Bergen St,4190.06,40.6802133,-73.98432695,40.678045,-73.962408,member
B5BC2A3220C84271,classic_bike,2023-07-30 18:37:05,2023-07-30 18:52:31,Broadway & W 25 St,6173.08,W 41 St & 8 Ave,6602.03,40.74286877312112,-73.98918628692627,40.75640548,-73.9900262,casual
1AB523C176BB2643,classic_bike,2023-07-01 16:51:57,2023-07-01 16:59:40,West Broadway & Watts St,5569.07,Rivington St & Chrystie St,5453.01,40.72323,-74.00314,40.72110063,-73.9919254,member
0299BD4F259875C8,classic_bike,2023-07-05 08:58:38,2023-07-05 09:17:36,E 77 St & 1 Ave,7020.02,1 Ave & E 39 St,6303.01,40.77095553869235,-73.95356208096926,40.74714,-73.97113,member
BF732F942AF02106,classic_bike,2023-07-30 16:28:04,2023-07-30 16:34:53,8 Ave & W 52 St,6816.07,W 67 St & Broadway,7116.04,40.76370739,-73.9851615,40.77492513,-73.98266566,member
A19F22894D799D37,classic_bike,2023-07-15 22:11:33,2023-07-15 22:26:19,Eastern Pkwy & Nostrand Ave,3911.05,Greene Ave & Throop Ave,4510.04,40.66967,-73.9503,40.6894932,-73.942061,member
D8A93625F205591E,classic_bike,2023-07-01 18:47:26,2023-07-01 18:53:43,W 29 St & 9 Ave,6416.06,W 43 St & 10 Ave,6756.01,40.7500727,-73.99839279,40.76009437,-73.99461843,member
303B54DDC424EFE2,classic_bike,2023-07-26 16:31:27,2023-07-26 16:39:53,Walker St & Baxter St,5351.07,St James Pl & Oliver St,5238.05,40.717411,-73.999573,40.71307916,-73.99851193,casual
EE5FC64B87973115,classic_bike,2023-07-06 09:21:35,2023-07-06 09:28:13,E 41 St & Madison Ave (SE corner),6432.10,E 53 St & 3 Ave,6617.02,40.752049,-73.979635,40.75763227739443,-73.96930575370789,member
F36CE4B7E65589E2,classic_bike,2023-07-02 13:25:41,2023-07-02 13:33:48,Rivington St & Ridge St,5406.02,Forsyth St & Broome St,5453.05,40.71850211,-73.98329859,40.71893904,-73.99266288,member
0B2EBD98A9531C73,classic_bike,2023-07-05 21:15:19,2023-07-05 22:05:25,E 43 St & Madison Ave,6551.11,Broadway & W 38 St,6560.15,40.75354681867074,-73.97896572947502,40.7529728216068,-73.98734897375107,casual
87317DBA582D453A,classic_bike,2023-07-17 14:42:14,2023-07-17 14:50:48,E 41 St & Madison Ave (SE corner),6432.10,W 29 St & 9 Ave,6416.06,40.752350092,-73.978757143,40.7500727,-73.99839279,member
B4CDA7ABC092EEB8,classic_bike,2023-07-05 16:01:52,2023-07-05 16:06:57,E 11 St & 1 Ave,5746.14,Avenue D & E 10 St,5575.13,40.72953837,-73.98426726,40.72506551015475,-73.97515833377838,member
2D298618C506E538,classic_bike,2023-07-24 21:01:19,2023-07-24 21:11:52,2 Ave & E 29 St,6122.09,E 58 St & 1 Ave (NW Corner),6723.1,40.74172351097472,-73.97809267044067,40.759125,-73.962658,member
059B83A4BFB6F5B8,classic_bike,2023-07-22 23:54:51,2023-07-23 00:08:19,E 63 St & 3 Ave,6830.02,E 95 St & 3 Ave,7365.13,40.763954,-73.9646,40.7849032,-73.950503,casual
8D0CD609771C3036,classic_bike,2023-07-28 20:06:27,2023-07-28 20:26:43,12 Ave & W 40 St,6765.01,E 9 St & Avenue C,5616.01,40.760946274,-74.002881765,40.72521311,-73.97768752,member
0175ACAC72E8FAA7,classic_bike,2023-07-26 13:19:20,2023-07-26 13:23:39,West St & Liberty St,5184.08,Duane St & Hudson St,5359.12,40.711490989,-74.015103698,40.71703,-74.00925,member
B26C417548A08EBE,classic_bike,2023-07-28 17:51:15,2023-07-28 17:53:19,6 Ave & W 34 St,6364.1,W 37 St & Broadway,6441.06,40.74964,-73.98805,40.75227093837409,-73.98770570755005,member
40ED0975D7073001,classic_bike,2023-07-01 18:47:57,2023-07-01 19:13:38,Irving Ave & Harman St,4856.05,Flushing Ave & Vanderbilt Ave,4762.05,40.70108,-73.9179,40.69795031569544,-73.97077560424805,member
C948A0EC47730514,classic_bike,2023-07-19 17:47:12,2023-07-19 17:57:55,W 27 St & 6 Ave,6215.07,Broadway & E 21 St,6098.10,40.74526,-73.99062,40.73988840858996,-73.98958593606949,casual
E0D85124321C07DE,classic_bike,2023-07-28 10:22:06,2023-07-28 10:32:04,E 15 St & 3 Ave,5863.07,MacDougal St & Prince St,5687.04,40.734232,-73.986923,40.72710258,-74.00297088,member
8A988185E7545C65,classic_bike,2023-07-26 23:34:33,2023-07-26 23:49:03,W 31 St & 7 Ave,6331.01,W 43 St & 10 Ave,6756.01,40.749156,-73.9916,40.76009437,-73.99461843,member
00CC375C6937922C,classic_bike,2023-07-27 15:36:54,2023-07-27 15:45:29,Washington Pl & Broadway,5755.01,E 9 St & Avenue C,5616.01,40.72903917,-73.99404649,40.72521311,-73.97768752,member
4E3DAD860876C165,electric_bike,2023-07-01 20:18:10,2023-07-01 20:34:18,Washington St & Barrow St,5847.08,Vesey St & Church St,5216.06,40.73191132323174,-74.008769094944,40.71221958009051,-74.01047229766846,casual
842414CDE0499598,classic_bike,2023-07-06 22:39:44,2023-07-06 23:00:39,Bulova Ave & Brooklyn Queens Expressway W,6766.03,31 St & Ditmars Blvd,7144.02,40.76254642,-73.902632117,40.776168,-73.910485,casual
701530056344E490,classic_bike,2023-07-24 21:02:28,2023-07-24 21:08:20,Willis Ave & E 137 St,7726.02,E 158 St & Melrose Ave,7957.11,40.808403969,-73.923717141,40.822215,-73.914688,member
B01E6E98E2C3E7FD,classic_bike,2023-07-26 15:37:11,2023-07-26 15:42:02,E 10 St & 2 Ave,5746.02,E 9 St & Avenue C,5616.01,40.72970805644994,-73.9865979552269,40.72521311,-73.97768752,member
D3C7313FC85CFAC6,classic_bike,2023-07-12 18:09:44,2023-07-12 18:22:18,W 42 St & 6 Ave,6517.08,Central Park S & 6 Ave,6876.04,40.75492,-73.98455,40.76590936,-73.97634151,member
33B8DA15132DD9DF,classic_bike,2023-07-26 12:43:27,2023-07-26 12:56:45,Greenwich Ave & 8 Ave,6072.06,E 27 St & Park Ave S,6131.13,40.7390169121,-74.0026376103,40.74275179648995,-73.9847157150507,member
68B9C7B94DC71FCF,electric_bike,2023-07-07 15:32:26,2023-07-07 15:33:46,South St & Whitehall St,4846.01,South St & Whitehall St,4846.01,40.70122128,-74.01234218,40.70122128,-74.01234218,casual
27613D2D096E51EB,classic_bike,2023-07-24 09:26:19,2023-07-24 09:29:13,Bushwick Ave & Forrest St,4914.03,McKibbin St & Bogart St,5059.02,40.700879216,-73.936495185,40.706237,-73.933871,casual
82422FE06DFF1C59,classic_bike,2023-07-19 17:35:26,2023-07-19 17:45:27,E 44 St & Lexington Ave,6464.09,W 41 St & 8 Ave,6602.03,40.752643,-73.974996,40.75640548,-73.9900262,member
1AAE6EDC41A681A4,classic_bike,2023-07-17 16:13:32,2023-07-17 16:22:34,5 Ave & E 103 St,7511.19,W 100 St & Manhattan Ave,7538.14,40.7922553,-73.95249933,40.795,-73.9645,member
120AA7B126F933B7,classic_bike,2023-07-30 02:38:53,2023-07-30 02:54:20,W 42 St & 6 Ave,6517.08,E 11 St & 3 Ave,5788.16,40.75492,-73.98455,40.73127,-73.98849,casual
8AA9F729891B0F65,classic_bike,2023-07-24 08:36:02,2023-07-24 08:48:17,Sands St Gate,4812.04,Madison St & Montgomery St,5262.09,40.699551344,-73.979835749,40.713126,-73.984844,member
00C241D969CC533E,classic_bike,2023-07-06 23:37:10,2023-07-06 23:52:21,Scholes St & Manhattan Ave,5108.01,Prospect Pl & Underhill Ave,4116.08,40.708670735,-73.944989204,40.6769694,-73.96579,member
3E9112A27FE638B4,classic_bike,2023-07-24 17:39:56,2023-07-24 17:47:44,Bleecker St & Crosby St,5679.08,Bank St & Hudson St,5922.08,40.726369143,-73.995322466,40.73652889,-74.00618026,member
FC3EACFF4FA8DC06,classic_bike,2023-07-13 15:41:53,2023-07-13 15:51:30,Watts St & Greenwich St,5578.02,1 Ave & E 16 St,5779.08,40.724151611,-74.009544134,40.73221853,-73.98165557,member
93057AC0910C6025,classic_bike,2023-07-14 19:35:32,2023-07-14 19:47:34,Lawrence St & Willoughby St,4596.09,Carlton Ave & Flushing Ave,4732.08,40.69236178,-73.98631746,40.697787,-73.973736,member
E7448C6A69D7831B,classic_bike,2023-07-13 14:57:26,2023-07-13 15:05:14,Lexington Ave & E 24 St,6089.07,E 13 St & 2 Ave,5820.08,40.74025878,-73.98409214,40.73153937464073,-73.9853024482727,member
D932AD4091089F2D,classic_bike,2023-07-26 20:35:15,2023-07-27 01:14:53,Frederick Douglass Blvd & W 145 St,7954.12,Edgecombe Ave & W 150 St,8049.05,40.823073983,-73.941854477,40.826881,-73.941427,casual
EB026F82BCC69D90,classic_bike,2023-07-07 19:37:51,2023-07-07 19:49:29,W 56 St & 10 Ave,6955.01,E 60 St & York Ave,6682.08,40.768395066,-73.988774419,40.759107,-73.959223,member
8FB91D562480554C,classic_bike,2023-07-19 00:24:52,2023-07-19 00:33:03,W 53 St & 10 Ave,6890.01,W 53 St & 10 Ave,6890.01,40.76669671,-73.99061728,40.76669671,-73.99061728,casual
080B1F8B2F26D682,classic_bike,2023-07-21 14:12:19,2023-07-21 14:16:10,West End Ave & W 94 St,7524.09,Amsterdam Ave & W 82 St,7360.10,40.794270396,-73.974044681,40.78524672,-73.97667321,member
A386D9DF2B3E3BCC,classic_bike,2023-07-02 07:12:49,2023-07-02 07:20:52,W 56 St & 10 Ave,6955.01,Central Park West & W 85 St,7354.01,40.768295765,-73.988722205,40.78476,-73.969862,member
EEAF87A727A0560F,classic_bike,2023-07-19 22:50:34,2023-07-19 22:56:14,E 88 St & Park Ave,7293.1,Central Park West & W 76 St,7253.04,40.781433344,-73.955846786,40.77896784,-73.97374737,member
0FDAAD40343911DF,classic_bike,2023-07-03 14:57:56,2023-07-03 15:19:24,E 26 St & 3 Ave,6089.11,Broadway & W 25 St,6173.08,40.740697384,-73.981476545,40.74286877312112,-73.98918628692627,member
7D90F69DC0D1BA3F,electric_bike,2023-07-13 12:48:21,2023-07-13 12:54:56,Wilkins Ave & Crotona Park E,8167.02,3 Ave & E 170 St,8137.06,40.835302,-73.895133,40.834857,-73.903743,member
28FE71A6E9B70C8F,classic_bike,2023-07-12 20:20:45,2023-07-12 20:31:59,Sands St & Jay St,4821.03,Atlantic Ave & Fort Greene Pl,4354.07,40.700119,-73.9862,40.68382604,-73.97632328,casual
D02145A9B6E26417,classic_bike,2023-07-24 18:45:58,2023-07-24 18:54:29,11 Ave & W 41 St,6726.01,W 54 St & 11 Ave,6955.05,40.76030096,-73.99884222,40.768333,-73.992573,member
4EFBC53C79F5E1DA,classic_bike,2023-07-20 14:17:48,2023-07-20 14:23:22,Huron St & Franklin St,5869.04,Bedford Ave & Nassau Ave,5550.05,40.732656717,-73.958288908,40.72311651,-73.95212324,casual
79CCD4B366101C7E,classic_bike,2023-07-17 17:01:42,2023-07-17 17:09:04,President St & 4 Ave,4101.17,Pacific St & Smith St,4446.03,40.676757,-73.983262,40.687880939612775,-73.98939281702042,casual
6AA9D8771EEE5B2C,classic_bike,2023-07-05 08:16:40,2023-07-05 08:24:12,Henry St & Grand St,5294.04,Pearl St & Hanover Square,4993.02,40.714214802,-73.981237054,40.7047177,-74.00926027,member
A072FEC17396BE77,classic_bike,2023-07-05 18:46:12,2023-07-05 19:05:28,W 15 St & 6 Ave,5989.02,W 50 St & 9 Ave,6854.05,40.738380075,-73.996634483,40.76360467795863,-73.98917958140373,member
EF93D92BC2A15B38,classic_bike,2023-07-02 16:34:58,2023-07-02 16:46:04,Cleveland Pl & Spring St,5492.05,1 Ave & E 39 St,6303.01,40.722029686,-73.997262597,40.74714,-73.97113,member
745E67C3F3B53C68,classic_bike,2023-07-30 20:26:22,2023-07-30 20:45:43,W 10 St & Washington St,5847.06,Vesey St & Church St,5216.06,40.73342399437081,-74.00851495563984,40.71221958009051,-74.01047229766846,member
3DAD7908190F28CD,classic_bike,2023-07-11 23:21:55,2023-07-11 23:27:29,Carmine St & 6 Ave,5763.03,Morton St & Washington St,5772.05,40.73038599,-74.00214988,40.73115,-74.00887,member
DA016C5DD9373CCD,classic_bike,2023-07-05 08:00:12,2023-07-05 08:07:44,Broadway & W 58 St,6948.1,W 44 St & 5 Ave,6551.02,40.76695317,-73.98169333,40.75500254,-73.98014437,member
4E76395234E9CA89,classic_bike,2023-07-06 23:23:56,2023-07-06 23:26:12,Berry St & N 8 St,5379.09,Berry St & N 8 St,5379.09,40.7190095,-73.95852515,40.7190095,-73.95852515,casual
064CE970C76A670A,classic_bike,2023-07-12 09:13:32,2023-07-12 09:36:05,Sterling St & Nostrand Ave,3657.06,Menahan St & Central Ave,4672.01,40.663182855,-73.950731993,40.69543,-73.9196,member
5902CA76E6D9DA72,classic_bike,2023-07-28 11:49:14,2023-07-28 11:57:31,Driggs Ave & N Henry St,5542.04,Berry St & N 8 St,5379.09,40.72325,-73.94308,40.7190095,-73.95852515,casual
086CC3A0436DF7AD,classic_bike,2023-07-30 07:31:55,2023-07-30 07:36:18,Rivington St & Ridge St,5406.02,Great Jones St,5636.11,40.718591094,-73.982871175,40.72743423,-73.99379025,member
36DF6EFEFBA4D871,classic_bike,2023-07-21 17:26:54,2023-07-21 17:41:42,Amsterdam Ave & W 82 St,7360.10,Broadway & W 53 St,6779.05,40.785228968,-73.976803899,40.76344058,-73.98268129,member
1183236336C97A47,classic_bike,2023-07-27 18:55:29,2023-07-27 18:58:11,Lewis Ave & Madison St,4425.02,Monroe St & Marcus Garvey Blvd,4467.03,40.686312,-73.935775,40.686722,-73.938988,member
4574B1A64BB5CCE0,electric_bike,2023-07-17 09:13:54,2023-07-17 09:31:08,Murray St & West St,5329.08,10 Ave & W 28 St,6459.04,40.71503,-74.01246,40.75066386,-74.00176802,member
1A553B51920AF7BC,classic_bike,2023-07-12 18:28:55,2023-07-12 19:02:29,Grand Army Plaza & Central Park S,6839.10,W 106 St & Central Park West,7606.01,40.764183283,-73.973915577,40.7981856,-73.9605909006,member
9C634F5CC577A0A5,classic_bike,2023-07-31 17:27:11,2023-07-31 17:36:39,New York Ave & St Marks Ave,4098.06,President St & Nostrand Ave,3839.02,40.67514,-73.94716,40.66811,-73.9505,member
48D094E32183F999,classic_bike,2023-07-21 14:20:57,2023-07-21 14:25:18,Bond St & Bergen St,4404.10,St Marks Pl & 4 Ave,4249.10,40.6849668,-73.98620772,40.68177810928762,-73.97988975048065,member
8DA45A55BCD28088,classic_bike,2023-07-01 14:25:09,2023-07-01 14:30:36,Leonard St & Church St,5359.11,Maiden Ln & Pearl St,5065.10,40.717399716,-74.005506396,40.70706456,-74.00731853,casual
5523514197EADED4,classic_bike,2023-07-18 17:23:48,2023-07-18 17:25:59,9 Ave & W 22 St,6266.06,W 20 St & 7 Ave,6182.02,40.7454973,-74.00197139,40.74238787,-73.99726235,member
B75AFB01A664A2F8,classic_bike,2023-07-28 18:17:08,2023-07-28 19:20:47,Amsterdam Ave & W 167 St,8206.17,Johnson St & Gold St,4668.08,40.839511633,-73.937194347,40.69474881,-73.98362464,casual
FCB7EC3ACA69BF8A,electric_bike,2023-07-21 22:46:14,2023-07-21 22:52:24,W 18 St & 6 Ave,6064.08,W 29 St & 9 Ave,6416.06,40.73971301,-73.99456405,40.7500727,-73.99839279,member
13E1E4AE1EAF5869,electric_bike,2023-07-26 16:37:31,2023-07-26 16:57:30,Calyer St & West St,5676.04,Menahan St & Central Ave,4672.01,40.72693,-73.95863,40.69543,-73.9196,member
801CA68E5280935D,classic_bike,2023-07-08 01:25:28,2023-07-08 02:32:16,E 6 St & Avenue D,5506.14,Spring St & Hudson St,5653.12,40.72228087,-73.97668709,40.72583996792375,-74.0076532959938,casual
BE6F796610FBFCC4,classic_bike,2023-07-21 16:55:26,2023-07-21 17:02:35,Broadway & Moylan Pl,7823.03,Broadway & W 133 St,7903.02,40.8143256,-73.9590255,40.8190344,-73.956156,member
16AD901C001498EF,classic_bike,2023-07-03 11:11:13,2023-07-03 11:14:49,W 43 St & 10 Ave,6756.01,11 Ave & W 41 St,6726.01,40.76009437,-73.99461843,40.76030096,-73.99884222,member
189D40239E7AC766,classic_bike,2023-07-21 16:56:46,2023-07-21 17:09:21,Norman Ave & Leonard St,5666.11,Berry St & N 8 St,5379.09,40.725819,-73.950815,40.7190095,-73.95852515,member
CF462E58B1667B20,classic_bike,2023-07-28 21:45:08,2023-07-28 22:01:58,Tiebout Ave & E Fordham Road,8546.06,Jerome Ave & W 193 St,8619.02,40.861915,-73.894831,40.86659,-73.89794,member
BA4FE84E8BFBBCEB,classic_bike,2023-07-30 10:14:03,2023-07-30 10:55:41,W 16 St & The High Line,6233.05,8 Ave & W 16 St,6072.11,40.74334935,-74.00681753,40.740983,-74.001702,member
187FA02C7339A2FF,classic_bike,2023-07-24 18:01:31,2023-07-24 18:07:46,Carroll St & Columbia St,4348.07,Court St & State St,4488.08,40.682987571,-74.003307939,40.6902375,-73.99203074,member
C7CDFFB503A65F5F,classic_bike,2023-07-25 20:01:30,2023-07-25 20:05:55,Wythe Ave & N 13 St,5558.04,N 5 St & Northside Piers,5458.02,40.722767,-73.957021,40.719876,-73.963865,casual
9EE0D8A1D41F6859,classic_bike,2023-07-22 08:51:46,2023-07-22 08:52:48,W 52 St & 11 Ave,6926.01,W 54 St & 11 Ave,6955.05,40.76727216,-73.99392888,40.768333,-73.992573,member
A5A3401FAA764E69,classic_bike,2023-07-26 22:18:52,2023-07-26 22:19:58,Broadway & W 56 St,6847.02,Broadway & W 53 St,6779.05,40.7652654,-73.98192338,40.76344058,-73.98268129,member
5A354F9820480BE3,classic_bike,2023-07-27 21:24:44,2023-07-27 21:40:29,1 Ave & E 16 St,5779.08,E 77 St & 1 Ave,7020.02,40.732441425,-73.981666207,40.77095553869235,-73.95356208096926,member
8FFA2A83162B0F9F,classic_bike,2023-07-25 08:48:00,2023-07-25 08:55:14,Carlton Ave & Dean St,4199.12,10 St & 7 Ave,3762.08,40.6809741,-73.9710097,40.6662078,-73.98199886,member
4C8B9225FCC0FDAD,classic_bike,2023-07-13 12:21:59,2023-07-13 12:22:59,King St & Varick St,5687.11,King St & Varick St,5687.11,40.727847457,-74.005300164,40.72789701409023,-74.00536268949507,member
9D1CF6AC35DE46FE,classic_bike,2023-07-06 12:07:26,2023-07-06 12:07:52,Delancey St & Eldridge St,5414.07,Forsyth St & Broome St,5453.05,40.719383,-73.991479,40.71893904,-73.99266288,member
0C3E7FA8E1B3342B,classic_bike,2023-07-21 08:55:20,2023-07-21 09:01:55,Greenwich Ave & Charles St,5914.08,Bleecker St & Crosby St,5679.08,40.735238,-74.000271,40.72615604980408,-73.99510189890862,member
899F5B0F254AF69F,classic_bike,2023-07-24 07:16:36,2023-07-24 07:20:10,W 87 St & West End Ave,7484.05,Amsterdam Ave & W 82 St,7360.10,40.789622,-73.97757,40.78524672,-73.97667321,member
29ACE9DCA0BB0512,classic_bike,2023-07-07 18:42:07,2023-07-07 19:02:03,Riverside Dr & W 91 St,7524.16,W 54 St & 11 Ave,6955.05,40.79313480986663,-73.97700369358063,40.768333,-73.992573,member
7A1A7A828C2A5F79,classic_bike,2023-07-11 17:12:28,2023-07-11 17:13:58,W 31 St & 7 Ave,6331.01,6 Ave & W 33 St,6364.07,40.749156,-73.9916,40.74901271,-73.98848395,member
74A3FD92E0793FBE,classic_bike,2023-07-24 08:13:41,2023-07-24 08:20:55,E 10 St & 2 Ave,5746.02,E 33 St & 5 Ave,6322.01,40.729536176,-73.986383319,40.74765947,-73.98490707,member
653B1EC8C3EC0835,classic_bike,2023-07-09 11:24:44,2023-07-09 11:40:37,E 77 St & 1 Ave,7020.02,Grand Army Plaza & Central Park S,6839.1,40.77095553869235,-73.95356208096926,40.7643971,-73.97371465,member
9AD6E80DA775FB3D,classic_bike,2023-07-15 08:40:34,2023-07-15 08:45:40,11 Ave & W 41 St,6726.01,W 36 St & 9 Ave,6569.07,40.76030096,-73.99884222,40.75462324029105,-73.99516761302948,member
D0FCE13E02BBA7F1,classic_bike,2023-07-27 01:13:04,2023-07-27 01:34:11,Hicks St & Montague St,4645.09,Graham Ave & Withers St,5403.04,40.694939375,-73.995910048,40.7169811,-73.94485918,casual
403D02953C5FCEEB,classic_bike,2023-07-19 23:10:33,2023-07-19 23:24:30,E 19 St & 3 Ave,5938.01,W 50 St & 9 Ave,6854.05,40.736267209,-73.984631062,40.76360467795863,-73.98917958140373,member
5DAB9F11C33880DB,classic_bike,2023-07-26 12:46:24,2023-07-26 13:07:28,44 Dr & Jackson Ave,6352.01,Graham Ave & Grand St,5178.06,40.74718234,-73.9432635,40.711863,-73.944024,member
ADB1C16A78FCB4A2,classic_bike,2023-07-25 17:00:48,2023-07-25 17:18:44,E 47 St & Park Ave,6584.12,E 77 St & 1 Ave,7020.02,40.75510267,-73.97498696,40.77095553869235,-73.95356208096926,member
5F562609C82A9465,classic_bike,2023-07-27 21:31:58,2023-07-27 21:33:35,DeKalb Ave & Hudson Ave,4513.06,Bond St & Fulton St,4479.06,40.689888,-73.981013,40.6896218879,-73.9830426872,member
47DE3C03616307D5,electric_bike,2023-07-13 23:06:41,2023-07-13 23:16:13,Bond St & Fulton St,4479.06,Underhill Ave & Pacific St,4231.04,40.6896218879,-73.9830426872,40.6804836,-73.9646795,member
E9A1712B34D2A7EC,classic_bike,2023-07-31 18:58:04,2023-07-31 19:18:53,Centre St & Chambers St,5207.01,Johnson St & Brooklyn Bridge Blvd,4637.07,40.71273266,-74.0046073,40.695,-73.98917,casual
0AB546649F534597,classic_bike,2023-07-15 23:33:13,2023-07-15 23:58:21,Suffolk St & Stanton St,5445.02,Greene Ave & Grandview Ave,5106.04,40.72066474,-73.985336781,40.709697,-73.907856,member
E7F20CFAA2133845,classic_bike,2023-07-31 02:51:54,2023-07-31 02:55:14,E 50 St & Park Ave,6659.10,E 59 St & Madison Ave,6801.01,40.757405281,-73.974558592,40.76350532,-73.97109243,member
A7BF3CE4D089F12D,classic_bike,2023-07-13 08:53:10,2023-07-13 08:55:43,Pike St & Monroe St,5159.04,Madison St & Montgomery St,5262.09,40.711784124,-73.992024422,40.713126,-73.984844,member
B8D760FE64BED92D,classic_bike,2023-07-19 18:50:02,2023-07-19 18:55:56,W 13 St & 7 Ave,6030.04,E 13 St & 2 Ave,5820.08,40.737677455,-73.99960041,40.73153937464073,-73.9853024482727,casual
D41E917685DC211F,classic_bike,2023-07-07 14:02:41,2023-07-07 14:32:14,St James Pl & Oliver St,5238.05,St James Pl & Oliver St,5238.05,40.71307916,-73.99851193,40.71307916,-73.99851193,member
0B9585E6B492F054,classic_bike,2023-07-11 06:44:41,2023-07-11 06:51:42,Gramercy Park N & Gramercy Park E,6013.12,W 29 St & 9 Ave,6416.06,40.73790288,-73.985054493,40.7500727,-73.99839279,member
