ride_id,rideable_type,started_at,ended_at,start_station_name,start_station_id,end_station_name,end_station_id,start_lat,start_lng,end_lat,end_lng,member_casual
C67FA7A0FDA8D500,classic_bike,2023-11-27 10:34:04,2023-11-27 10:47:55,W 89 St & Columbus Ave,7432.09,8 Ave & W 49 St,6747.07,40.788208365,-73.97033608,40.76171227910671,-73.98655101656914,member
225530E388CCB3B5,classic_bike,2023-11-12 12:56:16,2023-11-12 13:08:46,Lenox Ave & W 111 St,7602.05,Central Park West & W 72 St,7141.07,40.798669219,-73.952430248,40.77579376683666,-73.9762057363987,member
CEE28FAAD71DE224,classic_bike,2023-11-19 12:57:03,2023-11-19 13:13:58,West St & Liberty St,5184.08,John St & William St,5065.04,40.71153152,-74.014953732,40.70862144,-74.00722156,casual
B8AE73B77DFD5D43,classic_bike,2023-11-07 18:20:48,2023-11-07 18:26:33,Halsey St & Broadway,4366.01,Bergen St & Mother Gaston Blvd,4055.04,40.685884118,-73.915835738,40.67374,-73.90852,casual
3FF894CF055D47F3,classic_bike,2023-11-21 09:33:40,2023-11-21 09:40:52,E 58 St & 1 Ave (NW Corner),6723.10,W 52 St & 5 Ave,6700.01,40.759022236,-73.963145375,40.75992262,-73.97648516,member
5BC41579652C456F,classic_bike,2023-11-05 14:11:08,2023-11-05 14:17:58,W 82 St & Central Park West,7304.08,W 82 St & Central Park West,7304.08,40.78275,-73.97137,40.78275,-73.97137,casual
35143D8928962E28,classic_bike,2023-11-07 11:40:08,2023-11-07 11:43:54,W 21 St & 6 Ave,6140.05,W 13 St & 5 Ave,5947.04,40.741647243,-73.994139433,40.735445,-73.99431,member
ADFF828DAFE3856D,classic_bike,2023-11-17 08:46:32,2023-11-17 08:46:38,12 Ave & W 40 St,6765.01,12 Ave & W 40 St,6765.01,40.760933161,-74.00286901,40.76087502,-74.00277668,member
14C7428A0CF3BD85,classic_bike,2023-11-17 13:38:38,2023-11-17 13:46:14,23 Ave & 31 St,7082.08,Astoria Park S & Shore Blvd,7159.08,40.77423301703027,-73.91274864321404,40.7767,-73.927631,member
C0229A389FD9C98B,classic_bike,2023-11-20 11:17:23,2023-11-20 11:20:42,31 St & Ditmars Blvd,7144.02,21 St & 21 Ave,7314.03,40.776179433,-73.910581112,40.782465,-73.914527,member
5AC7B876C9D05FE1,classic_bike,2023-11-29 10:42:18,2023-11-29 10:48:29,1 Ave & E 62 St,6753.08,E 68 St & 3 Ave,6896.16,40.7612274,-73.96094022,40.76712840349542,-73.96224617958069,member
C2DCA012B493C9B2,classic_bike,2023-11-16 22:00:12,2023-11-16 22:07:56,Stanton St & Norfolk St,5445.07,Thompson St & Bleecker St,5721.07,40.73121713333333,-73.98529206666667,40.72840059450829,-73.99968780577183,member
82BE7C6B2EDA2F6E,classic_bike,2023-11-08 05:01:09,2023-11-08 05:07:09,Leonard St & Boerum St,5036.06,Montrose Ave & Bushwick Ave,5068.02,40.70583339,-73.94644578,40.70767788,-73.94016171,member
922D2DFA98CADF1C,classic_bike,2023-11-16 18:25:50,2023-11-16 18:28:26,Fort Washington Ave & W 183 St,8399.06,Margaret Corbin Plz & Ft Washington Ave,8532.03,40.852273822,-73.937770009,40.859166,-73.933872,member
A4A96205A5A9AA05,classic_bike,2023-11-30 16:49:13,2023-11-30 17:01:56,Bleecker St & Crosby St,5679.08,1 Ave & E 39 St,6303.01,40.72615604980408,-73.99510189890862,40.74714,-73.97113,member
2D51E815EBD65F63,classic_bike,2023-11-10 13:39:46,2023-11-10 13:48:21,E 89 St & York Ave,7204.08,E 84 St & Park Ave,7243.04,40.777959585,-73.946108103,40.77862688,-73.95772073,member
3171F0745428373C,classic_bike,2023-11-30 12:08:52,2023-11-30 12:09:16,Columbus Ave & W 103 St,7595.17,Columbus Ave & W 103 St,7595.17,40.797063231,-73.964221597,40.7969347,-73.9643412291,member
C3A0C4267B730843,classic_bike,2023-11-25 11:40:49,2023-11-25 11:44:55,6 Ave & 12 St,3803.05,Prospect Park West & 8 St,3722.04,40.666470766,-73.98532331,40.66514681533792,-73.97637605667114,member
D6BA02D6B4364E5D,classic_bike,2023-11-20 08:50:22,2023-11-20 08:53:47,Dock 72 Way & Market St,4804.02,Clermont Ave & Park Ave,4692.01,40.699805498,-73.971374273,40.69573398,-73.97129668,member
9086BDE974CC620D,classic_bike,2023-11-10 15:08:17,2023-11-10 15:12:44,Bulova Ave & Brooklyn Queens Expressway W,6766.03,30 Ave & 70 St,6727.02,40.762507,-73.902534,40.76013,-73.89741,member
FBAB402C2C3268BE,classic_bike,2023-11-06 18:57:04,2023-11-06 19:00:23,Sands St & Jay St,4821.03,Adams St & Prospect St,4821.1,40.700119,-73.9862,40.70076308326151,-73.98869812488556,member
429B9775489D2088,classic_bike,2023-11-27 10:23:03,2023-11-27 10:25:02,E 91 St & Park Ave,7344.05,E 95 St & 3 Ave,7365.13,40.783424377,-73.95558846,40.7849032,-73.950503,member
27BAFD9C0D650179,classic_bike,2023-11-12 16:42:33,2023-11-12 16:53:37,11 Ave & W 41 St,6726.01,8 Ave & W 33 St,6450.12,40.76030096,-73.99884222,40.751551,-73.993934,casual
C839B0B3431A64CB,classic_bike,2023-11-11 10:44:08,2023-11-11 10:49:21,W 144 St & Adam Clayton Powell Blvd,7932.10,W 145 St & Amsterdam Ave,7997.08,40.820877,-73.939249,40.825244,-73.947257,member
3C684E5C1EAA61A0,classic_bike,2023-11-13 17:09:08,2023-11-13 17:23:27,W Broadway & W Houston St,5644.05,E 12 St & 3 Ave,5788.12,40.726378,-74.000472,40.73223272,-73.98889957,member
A9232CEB4E861DA3,classic_bike,2023-11-12 16:52:50,2023-11-12 17:10:40,E 16 St & 5 Ave,6022.04,E 2 St & 2 Ave,5593.02,40.73726186,-73.99238967,40.72502876,-73.99069656,member
3A70FA71E1085F01,classic_bike,2023-11-16 09:06:11,2023-11-16 09:23:46,14 St & 7 Ave,3731.11,Coffey St & Conover St,4137.10,40.663779,-73.98396846,40.677236,-74.015665,casual
FDA943550C77D2F1,classic_bike,2023-11-08 21:07:26,2023-11-08 21:09:08,Lincoln Ave & E 134 St,7712.06,Lincoln Ave & E 138 St,7744.06,40.808484,-73.928803,40.810893,-73.927311,member
7C22AB542BA12C44,classic_bike,2023-11-05 16:55:06,2023-11-05 17:02:22,Perry St & Greenwich Ave,5955.12,Gramercy Park N & Gramercy Park E,6013.12,40.73591423,-74.00118506,40.73795,-73.98509,member
A953ABDE4989A2EE,classic_bike,2023-11-26 17:22:42,2023-11-26 17:27:44,St Nicholas Ave & Manhattan Ave,7723.01,Adam Clayton Powell Blvd & W 115 St,7643.18,40.809725,-73.953149,40.802535,-73.9532423,member
465C3EA13E59A348,classic_bike,2023-11-26 10:42:08,2023-11-26 10:48:57,Carlton Ave & Dean St,4199.12,Carroll St & 6 Ave,4019.06,40.6809741,-73.9710097,40.6740886,-73.9787282,member
2CBD75C8FBE47CD8,classic_bike,2023-11-09 07:50:24,2023-11-09 08:02:32,Broadway & W 29 St,6289.06,W 55 St & 6 Ave,6809.09,40.7462009,-73.98855723,40.763189,-73.978434,casual
1B39559DB98E0F1E,classic_bike,2023-11-09 15:35:17,2023-11-09 15:38:46,Kingston Ave & E New York Ave,3648.08,Empire Blvd & New York Ave,3728.04,40.662165403,-73.942734718,40.66403,-73.94769,member
7C49FCCEEDA53EC3,classic_bike,2023-11-13 18:29:16,2023-11-13 18:50:28,Driggs Ave & N 9 St,5411.08,Calyer St & West St,5676.04,40.718394995,-73.955272913,40.72693,-73.95863,member
5E8A406205F6259C,classic_bike,2023-11-10 17:32:22,2023-11-10 17:38:14,E 7 St & Ave A,5626.07,1 Ave & E 18 St,5854.09,40.72621788,-73.98379855,40.73381219196632,-73.98054420948029,casual
9758F0F265D5303C,classic_bike,2023-11-25 07:30:43,2023-11-25 07:40:01,Greene Ave & Nostrand Ave,4519.02,Broadway & Berry St,5164.05,40.688366771,-73.950921655,40.71036129922581,-73.96530389785767,member
16988F767AC69B70,classic_bike,2023-11-23 02:16:15,2023-11-23 02:24:40,Melrose St & Broadway,4801.04,Myrtle Ave & Grove St,4816.05,40.697481,-73.935877,40.69905,-73.91516,casual
61EA6A671261A745,classic_bike,2023-11-09 17:00:56,2023-11-09 17:13:14,E 56 St & 3 Ave,6691.11,Ave A & E 11 St,5703.13,40.759220839,-73.967680812,40.72854745023944,-73.98175925016403,casual
A6EA526862A166B4,classic_bike,2023-11-07 09:27:37,2023-11-07 09:30:07,Riverside Dr & W 72 St,7288.04,Riverside Blvd & W 67 St,7183.03,40.78057799010334,-73.98562431335449,40.777507027547976,-73.98888587951659,member
0037D1C06D97BC5D,classic_bike,2023-11-15 14:27:02,2023-11-15 14:47:40,E 135 St & St Ann's Ave,7687.05,E 85 St & 3 Ave,7212.05,40.805151463,-73.918946505,40.77801203,-73.95407149,member
354F93D1EF4DF102,classic_bike,2023-11-18 18:37:07,2023-11-18 18:46:59,Ave A & E 11 St,5703.13,Washington Pl & 6 Ave,5838.09,40.728672385,-73.981576324,40.73224119,-74.00026394,member
FD76827021A70A86,classic_bike,2023-11-07 08:35:14,2023-11-07 08:49:22,E 9 St & 5 Ave,5872.10,Vesey St & Church St,5216.06,40.73275887045087,-73.99581670761108,40.71221958009051,-74.01047229766846,member
D3A827E9B6575868,classic_bike,2023-11-06 18:04:49,2023-11-06 18:09:56,E 15 St & 3 Ave,5863.07,Broadway & E 19 St,6098.12,40.734232,-73.986923,40.73866091428551,-73.98987293243407,member
D63D9F42A7FFF5C2,classic_bike,2023-11-02 08:44:00,2023-11-02 09:12:51,Broadway & Kent Ave,5134.09,E 44 St & Lexington Ave,6464.09,40.710880041,-73.968277574,40.752643,-73.974996,member
8E45E1C5FC9E9B5F,classic_bike,2023-11-14 20:52:54,2023-11-14 20:59:23,Woodside Ave & 55 St,6276.02,Woodside Ave & 55 St,6276.02,40.74679,-73.90893,40.74679,-73.90893,member
FF6536481DEB9D99,classic_bike,2023-11-25 17:28:28,2023-11-25 17:52:56,Kosciuszko St & Tompkins Ave,4553.04,Nostrand Ave & Rutland Rd,3585.06,40.69128258,-73.9452416,40.6595,-73.95041,member
9461F4C373A3885B,classic_bike,2023-11-30 11:19:42,2023-11-30 11:25:11,Windsor Pl & Howard Pl,3579.04,Prospect Ave & Vanderbilt St,3426.02,40.659606814,-73.980300307,40.653368,-73.976291,member
C141537B411B93EC,classic_bike,2023-11-18 01:22:09,2023-11-18 01:32:23,Greenwich Ave & 8 Ave,6072.06,Allen St & Stanton St,5484.09,40.739246249,-74.002675414,40.722055,-73.989111,member
8F0D768EDFD96C32,classic_bike,2023-11-19 07:48:22,2023-11-19 07:55:01,1 Ave & E 16 St,5779.08,E 3 St & 1 Ave,5553.03,40.73221853,-73.98165557,40.72467721,-73.98783413,member
2F5260327D581311,classic_bike,2023-11-09 17:44:49,2023-11-09 18:05:35,W 116 St & Amsterdam Ave,7692.11,Columbus Ave & W 72 St,7175.05,40.8067581,-73.9607082,40.7770575,-73.97898475,member
33282F831146D2FC,classic_bike,2023-11-02 18:29:04,2023-11-02 18:34:15,W 33 St & 10 Ave,6492.04,W 44 St & 11 Ave,6756.05,40.753710508,-73.999131203,40.762009,-73.996975,member
55F040C61F2A83F9,classic_bike,2023-11-01 17:26:26,2023-11-01 17:32:31,Broadway & W 25 St,6173.08,E 41 St & Madison Ave (SE corner),6432.10,40.742724061,-73.989182711,40.752049,-73.979635,member
571EDB2D9A8C3966,classic_bike,2023-11-01 10:35:41,2023-11-01 10:43:48,Myrtle Ave & Fleet Pl,4628.07,Pierrepont St & Monroe Pl,4718.08,40.693534,-73.981909,40.69535693320225,-73.99344027042389,member
5C307B6091B642CC,classic_bike,2023-11-15 15:33:09,2023-11-15 15:38:00,E 44 St & Lexington Ave,6464.09,E 51 St & 1 Ave,6532.06,40.752416968,-73.975287199,40.75455731,-73.96592976,member
8F55C645DC0FF22A,classic_bike,2023-11-16 16:51:07,2023-11-16 17:00:44,E 47 St & Park Ave,6584.12,9 Ave & W 45 St,6717.06,40.75510267,-73.97498696,40.76019252,-73.9912551,member
63C047A8F9BFECD8,classic_bike,2023-11-08 22:06:32,2023-11-08 22:22:23,Hudson St & W 13 St,6115.06,W 64 St & Thelonious Monk Circle,7123.04,40.740324616,-74.005256295,40.77515953434235,-73.98918695747852,member
16C1D98DC66F5146,classic_bike,2023-11-03 13:55:11,2023-11-03 13:58:29,Calyer St & West St,5676.04,Meserole Ave & Manhattan Ave,5666.04,40.726913929,-73.958553314,40.72708584,-73.95299117,member
81464B183AB05F8A,classic_bike,2023-11-17 17:09:33,2023-11-17 17:12:49,E 27 St & 1 Ave,6004.06,E 17 St & 2 Ave,5896.01,40.739445,-73.976806,40.73431166276575,-73.98372530937195,member
25BF9ED30108A9D1,classic_bike,2023-11-02 07:18:25,2023-11-02 07:33:07,Broadway & W 160 St,8157.06,Plaza Dr & W 170 St,8213.01,40.835646987,-73.943569541,40.840484,-73.917946,casual
2EE2D32D3F649F15,classic_bike,2023-11-03 16:28:59,2023-11-03 16:42:20,Brook Ave & E 138 St,7707.08,Brook Ave & E 157 St,7935.07,40.807408,-73.91924,40.820713,-73.911759,member
E833541F1DA38FC1,classic_bike,2023-11-21 13:30:20,2023-11-21 13:31:12,W 13 St & 5 Ave,5947.04,W 13 St & 5 Ave,5947.04,40.735282302,-73.994670987,40.735445,-73.99431,member
F03185C3CAA4466D,classic_bike,2023-11-15 08:56:46,2023-11-15 09:12:35,Pearl St & York St,4895.15,W Broadway & Watts St,5569.07,40.701346755,-73.987943411,40.72323,-74.00314,member
4B70154D24E78AE3,classic_bike,2023-11-13 08:34:01,2023-11-13 08:36:10,Goble Pl & Macombs Rd,8269.01,Macombs Rd & W 175 St,8344.04,40.844049931,-73.917188287,40.848177,-73.916082,member
7933DCD8FC635835,classic_bike,2023-11-25 16:21:43,2023-11-25 16:26:39,W 31 St & 7 Ave,6331.01,W 34 St & 11 Ave,6578.01,40.748485923,-73.991672754,40.75594159,-74.0021163,member
410F2B4539DF0643,classic_bike,2023-11-28 08:16:03,2023-11-28 08:33:36,Jackson St & Leonard St,5332.10,McGuinness Blvd & Eagle St,5977.01,40.71638031973561,-73.94821286201477,40.73555,-73.95284,member
A88376A676DB0AEA,classic_bike,2023-11-13 16:29:22,2023-11-13 16:31:26,E 115 St & Madison Ave,7599.02,Lenox Ave & W 115 St,7627.10,40.798923969,-73.944674969,40.8011939,-73.9500739,member
B1EBAE5DCF3FB3E2,classic_bike,2023-11-30 10:21:47,2023-11-30 10:26:30,7 Ave S & Bleecker St,5805.07,E 1 St & Bowery,5636.13,40.732002735,-74.00366962,40.72486122254819,-73.99213135242462,member
00C8681974D37548,classic_bike,2023-11-10 20:52:46,2023-11-10 20:59:51,South End Ave & Albany St,5114.08,Greenwich St & Hubert St,5470.10,40.709786773,-74.016284347,40.721319,-74.010065,member
756B7EEFA457DEAB,classic_bike,2023-11-21 09:21:34,2023-11-21 09:25:14,Eastern Pkwy & Nostrand Ave,3911.05,Eastern Pkwy & Washington Ave,3928.08,40.669605613,-73.949959874,40.6716493,-73.9631145,member
86B7C50D5251E7C0,classic_bike,2023-11-14 18:01:18,2023-11-14 18:08:30,Goulden Ave & Bedford Park Blvd,8738.01,Grand Concourse & E 203 St,8734.04,40.87387,-73.89533,40.87382,-73.88661,member
26C608D68FC5CEDE,classic_bike,2023-11-08 23:55:11,2023-11-09 00:21:47,E 13 St & 2 Ave,5820.08,Monroe St & Tompkins Ave,4434.06,40.731451035,-73.984753013,40.686203,-73.944694,member
3BB8D7C4EE670B1A,classic_bike,2023-11-29 15:06:32,2023-11-29 15:15:07,W 25 St & 8 Ave,6297.08,E 25 St & 2 Ave,6046.02,40.746359348,-73.99728024,40.73912601,-73.97973776,member
9C48B64689A547C7,classic_bike,2023-11-13 14:13:52,2023-11-13 14:18:02,Grand Concourse & E 144 St,7845.06,Lincoln Ave & E 138 St,7744.06,40.816774726,-73.928038359,40.810893,-73.927311,member
BF135C8EF8527D21,classic_bike,2023-11-22 22:03:03,2023-11-22 22:09:14,Melrose St & Broadway,4801.04,Macon St & Lewis Ave,4310.06,40.697490096,-73.935871959,40.68282,-73.93488,casual
5D2667F4C932618A,classic_bike,2023-11-17 06:22:51,2023-11-17 06:30:39,W 46 St & 11 Ave,6795.01,8 Ave & W 52 St,6816.07,40.76341379,-73.99667444,40.76370739,-73.9851615,member
FF21C68AA38CA68A,classic_bike,2023-11-14 09:00:25,2023-11-14 09:12:03,E 14 St & 1 Ave,5779.10,E 47 St & 2 Ave,6498.10,40.73139303364151,-73.98286700248718,40.75323098,-73.97032517,member
8243A441AE3F4E9F,classic_bike,2023-11-08 11:07:07,2023-11-08 11:09:27,Broadway & Roebling St,5125.07,Broadway & Berry St,5164.05,40.70924826276157,-73.96063148975372,40.71036129922581,-73.96530389785767,member
2BCC11866448A873,classic_bike,2023-11-15 13:50:37,2023-11-15 14:04:37,E 53 St & Madison Ave,6659.03,1 Ave & E 68 St,6822.09,40.7597108,-73.97402311,40.76500525,-73.95818491,member
D1DF4BF7AA3A33EA,classic_bike,2023-11-27 17:36:29,2023-11-27 17:41:02,St Nicholas Ave & Manhattan Ave,7723.01,5 Ave & W 126 St,7701.21,40.809660912,-73.953141451,40.80722,-73.9418,member
CF6F3FDE8953DB41,classic_bike,2023-11-02 16:49:06,2023-11-02 16:58:13,Grand St & Elizabeth St,5382.06,W 13 St & 7 Ave,6030.04,40.719042659,-73.996120095,40.73781509,-73.99994661,member
10F8DC2110A52383,classic_bike,2023-11-10 09:11:19,2023-11-10 09:15:47,Norman Ave & Leonard St,5666.11,Milton St & Franklin St,5752.07,40.725800157,-73.950802445,40.72906,-73.95779,member
50F4E363325B0FE7,classic_bike,2023-11-13 09:08:04,2023-11-13 09:33:32,W 56 St & 10 Ave,6955.01,Greenwich St & Rector St,5073.07,40.76842308,-73.988752007,40.70806582380646,-74.0135595202446,member
DC96E9A7F6C7BD99,classic_bike,2023-11-17 09:10:36,2023-11-17 09:12:42,Morningside Dr & Amsterdam Ave,7741.04,St Nicholas Ave & Manhattan Ave,7723.01,40.810341954,-73.95731771,40.809725,-73.953149,member
0F163AE340589489,classic_bike,2023-11-14 18:42:36,2023-11-14 18:54:31,Ash St & Manhattan Ave,6019.04,Union Ave & Jackson St,5300.06,40.738095,-73.954867,40.7160751,-73.952029,casual
C2A0550D122A312A,classic_bike,2023-11-30 16:55:24,2023-11-30 17:00:28,E 97 St & Madison Ave,7393.09,E 91 St & 2 Ave,7286.01,40.787963867,-73.953341007,40.78115276427916,-73.94963040947914,member
3C29324AF5C503FB,classic_bike,2023-11-13 17:41:18,2023-11-13 17:51:11,11 Ave & W 27 St,6425.04,Broadway & E 19 St,6098.12,40.751193881,-74.005780458,40.73866091428551,-73.98987293243407,member
5E353C4CA4BB1B02,classic_bike,2023-11-17 11:54:03,2023-11-17 12:01:30,W 147 St & Adam Clayton Powell Blvd,7971.07,Lenox Ave & W 126 St,7720.03,40.822757363,-73.937384725,40.808442,-73.9452087,member
5FD0D0FBD64B32BB,classic_bike,2023-11-20 17:20:16,2023-11-20 17:24:35,Pearl St & Hanover Square,4993.02,Greenwich St & Rector St,5073.07,40.704969287,-74.009444594,40.70806582380646,-74.0135595202446,member
75EBBE8377B1F2CE,classic_bike,2023-11-04 12:39:39,2023-11-04 12:53:46,Clinton Ave & Myrtle Ave,4651.02,Wythe Ave & N 13 St,5558.04,40.693220019,-73.968918085,40.722767,-73.957021,member
41DD6CF074A7B5C6,classic_bike,2023-11-17 21:25:18,2023-11-17 21:44:45,N 6 St & Bedford Ave,5379.10,Pike St & E Broadway,5270.05,40.717424512,-73.958624244,40.71406667,-73.99293911,member
F257135C0917D059,classic_bike,2023-11-08 08:11:19,2023-11-08 08:34:02,Fulton St & Clermont Ave,4386.05,Wythe Ave & N 13 St,5558.04,40.68415748,-73.96922273,40.722767,-73.957021,member
998DC6306BEF4977,classic_bike,2023-11-02 15:32:10,2023-11-02 15:49:02,5 Ave & E 78 St,7161.08,7 Ave & Central Park South,6912.01,40.77632142182271,-73.96427392959595,40.7667405590595,-73.9790689945221,casual
F589F373E42C8E25,classic_bike,2023-11-13 22:43:48,2023-11-13 22:47:07,W 92 St & Broadway,7502.01,W 87 St & West End Ave,7484.05,40.7921,-73.9739,40.789622,-73.97757,member
EAC905707F79418E,classic_bike,2023-11-19 17:04:19,2023-11-19 17:11:01,River Ter & Warren St,5368.03,Little West St & 1 Pl,5001.08,40.717286944,-74.016082168,40.70569254,-74.01677685,member
3D13F60FF759F04E,classic_bike,2023-11-22 08:02:12,2023-11-22 08:08:28,W 56 St & 8 Ave,6884.03,W 70 St & Amsterdam Ave,7207.08,40.765764594,-73.982995868,40.77748046,-73.98288594,member
28B6EF183EEE72FA,classic_bike,2023-11-09 20:06:50,2023-11-09 20:12:44,Delancey St & Eldridge St,5414.07,4 Ave & E 12 St,5788.15,40.71940124,-73.991553903,40.732647,-73.99011,member
A285506ABB4824AD,classic_bike,2023-11-02 06:28:33,2023-11-02 06:41:17,E 4 St & Ave B,5515.08,8 Ave & W 27 St,6297.07,40.723304868,-73.983067036,40.747968,-73.996637,member
41D03541A20DEFEF,classic_bike,2023-11-23 08:30:02,2023-11-23 08:59:34,Columbus Ave & W 95 St,7520.07,Sunken Meadow Comfort Station,7571.01,40.792020798,-73.968113065,40.79558,-73.91906,casual
15ED19148F2A4193,classic_bike,2023-11-02 18:59:23,2023-11-02 19:19:49,Pinehurst Ave & W 187 St,8458.03,Amsterdam Ave & W 172 St,8242.04,40.855291247,-73.93792963,40.842173,-73.935111,casual
1B36E028F12AE1E7,classic_bike,2023-11-28 17:28:16,2023-11-28 17:30:56,Bedford Ave & Maple St,3625.04,Lincoln Rd & Ocean Ave,3633.08,40.660353541,-73.956818342,40.6605,-73.9626,member
99FD3D1C9850533A,classic_bike,2023-11-02 10:10:44,2023-11-02 10:14:06,Newtown Ave & 23 St,7026.08,31 St & Newtown Ave,6923.20,40.7713615,-73.9246145,40.7675487799971,-73.9209334552288,member
BAF277506181D86F,classic_bike,2023-11-17 09:27:26,2023-11-17 09:35:11,W 33 St & 10 Ave,6492.04,E 30 St & Park Ave S,6206.08,40.752902508,-73.998763561,40.74444921,-73.98303529,member
11277F824761978E,classic_bike,2023-11-06 22:24:12,2023-11-06 22:24:28,E 14 St & Ave B,5736.09,E 14 St & Ave B,5736.09,40.72938685,-73.97772429,40.72938685,-73.97772429,member
5D88C60F18D5ED6A,classic_bike,2023-11-15 21:14:22,2023-11-15 21:19:16,W 67 St & Broadway,7116.04,Amsterdam Ave & W 79 St,7311.02,40.77492513,-73.98266566,40.7829391,-73.9786517,member
1694E006D24DC915,classic_bike,2023-11-14 17:11:38,2023-11-14 17:33:50,Putnam Ave & Ralph Ave,4450.06,Prospect Park West & 8 St,3722.04,40.687150836,-73.923329473,40.66514681533792,-73.97637605667114,member
6F3EF43580DED5BA,electric_bike,2023-11-14 08:39:47,2023-11-14 08:54:26,1 Ave & E 30 St,6079.03,W Broadway & Watts St,5569.07,40.74144387,-73.97536082,40.72323,-74.00314,member
C1D8D1678953D083,classic_bike,2023-11-10 13:10:44,2023-11-10 14:13:58,Grand Army Plaza & Central Park S,6839.10,7 Ave & Central Park South,6912.01,40.764064789,-73.974115252,40.7667405590595,-73.9790689945221,casual
52055BBF4DEF7CE8,classic_bike,2023-11-02 16:17:06,2023-11-02 16:21:18,W 46 St & 11 Ave,6795.01,W 42 St & 8 Ave,6602.05,40.763523817,-73.996884227,40.7575699,-73.99098507,member
79B9DBD111348A3F,classic_bike,2023-11-08 18:23:03,2023-11-08 18:26:54,Halsey St & Tompkins Ave,4319.07,Lewis Ave & Madison St,4425.02,40.682408929,-73.943961859,40.686312,-73.935775,member
2396573F02FC333D,classic_bike,2023-11-20 17:27:45,2023-11-20 17:56:07,Front St & Gold St,4927.04,38 St & Northern Blvd,6486.07,40.702290416,-73.982596159,40.752372,-73.925384,member
7DF3871F1A95ADDE,classic_bike,2023-11-05 01:20:42,2023-11-05 01:27:39,Lafayette St & Jersey St,5561.06,E 3 St & 1 Ave,5553.03,40.72456089,-73.99565293,40.72467721,-73.98783413,casual
21D62C554A5A823E,classic_bike,2023-11-19 15:25:02,2023-11-19 15:34:16,1 St & 6 Ave,3946.07,Lefferts Pl & Franklin Ave,4222.02,40.672860265,-73.979826689,40.680342423,-73.9557689392,member
E41C2F677A3164E1,classic_bike,2023-11-10 18:15:24,2023-11-10 18:34:17,Broadway & W 48 St,6708.04,Center Blvd & 51 Ave,6179.07,40.7601583,-73.984320402,40.74336608027021,-73.95960688591003,member
73340D4A1F604496,classic_bike,2023-11-03 15:07:00,2023-11-03 15:08:20,Washington St & Laight St,5509.02,North Moore St & Greenwich St,5470.12,40.72243464,-74.010506511,40.72019521437465,-74.0103006362915,member
2CEEB3FA47D413AB,classic_bike,2023-11-14 09:47:50,2023-11-14 09:50:54,W 42 St & 8 Ave,6602.05,8 Ave & W 49 St,6747.07,40.7575699,-73.99098507,40.76171227910671,-73.98655101656914,member
FCB55F3772639D90,classic_bike,2023-11-05 16:34:42,2023-11-05 18:28:30,Bus Slip & State St,4889.06,W 22 St & 10 Ave,6306.06,40.701907,-74.013942,40.74691959,-74.00451887,casual
F0F1A0A30E451246,classic_bike,2023-11-25 08:54:13,2023-11-25 09:05:31,West Drive & Prospect Park West,3651.04,Clarkson Ave & Nostrand Ave,3472.03,40.6610633719006,-73.97945255041122,40.6555,-73.94975,member
1C1C777990C3B2C9,classic_bike,2023-11-22 08:51:00,2023-11-22 08:57:37,E 17 St & Broadway,5980.07,Washington Pl & 6 Ave,5838.09,40.73704984,-73.99009296,40.73224119,-74.00026394,member
FFD4EA313F854C9F,classic_bike,2023-11-17 19:01:06,2023-11-17 19:10:37,W 56 St & 8 Ave,6884.03,E 44 St & Lexington Ave,6464.09,40.765884161,-73.982894659,40.752643,-73.974996,member
E1D32793B53A4F40,classic_bike,2023-11-27 13:58:40,2023-11-27 14:33:22,Crescent St & Broadway,6827.11,Albany Ave & Fulton St,4237.02,40.76341331,-73.928708434,40.6800105,-73.938475,member
24567B93C085E6E8,classic_bike,2023-11-03 17:54:37,2023-11-03 18:02:14,Irving Ave & Palmetto St,4775.01,Broadway & Madison St,4483.10,40.698,-73.9127,40.68822,-73.91966,member
D3C3B4F42362F362,classic_bike,2023-11-10 00:45:29,2023-11-10 00:52:52,Washington Ave & Park Ave,4724.03,DeKalb Ave & Hudson Ave,4513.06,40.69610226,-73.96751037,40.689888,-73.981013,member
701DEFF4EECDF93A,classic_bike,2023-11-03 11:59:48,2023-11-03 12:03:31,Willoughby St & Fleet St,4628.05,Carlton Ave & Flushing Ave,4732.08,40.691934824,-73.9811759,40.697787,-73.973736,casual
B5CFE384B11DBEF3,classic_bike,2023-11-01 20:54:39,2023-11-01 21:00:48,Macon St & Nostrand Ave,4214.03,Macon St & Lewis Ave,4310.06,40.6809833854,-73.9500479759,40.68282,-73.93488,member
8F32128ACBA39292,classic_bike,2023-11-22 20:51:45,2023-11-22 21:03:55,Bialystoker Pl & Delancey St,5335.03,S 4 St & Wythe Ave,5204.05,40.716259122,-73.982632995,40.71285887,-73.96590294,member
6368041719AD35DC,classic_bike,2023-11-01 18:19:32,2023-11-01 18:22:37,Eastern Pkwy & Franklin Ave,3919.07,Classon Ave & St Marks Ave,4074.14,40.6707767,-73.9576801,40.676513,-73.959431,member
5D746E986A4CF1A5,classic_bike,2023-11-28 09:01:09,2023-11-28 09:17:13,Market St & Henry St,5270.09,Pearl St & Hanover Square,4993.02,40.71310702305908,-73.99446353316307,40.7047177,-74.00926027,member
FECE903BDBD028A7,classic_bike,2023-11-17 19:16:57,2023-11-17 19:41:00,Madison Ave & E 26 St,6131.12,Broadway & E 19 St,6098.12,40.742474079,-73.986905098,40.73866091428551,-73.98987293243407,member
C090F95B01DEE25C,classic_bike,2023-11-18 21:18:19,2023-11-18 22:25:16,65 St & Roosevelt Ave,6267.08,Broadway & 51 St,6545.07,40.745674372,-73.899110079,40.754164,-73.908906,member
39C4F27CEFBFC784,classic_bike,2023-11-16 09:42:24,2023-11-16 09:47:21,Mercer St & Bleecker St,5679.05,4 Ave & E 12 St,5788.15,40.727064729,-73.996490121,40.732647,-73.99011,member
AB950FA4EFD231DF,classic_bike,2023-11-22 18:47:39,2023-11-22 18:56:21,Crotona Ave & E 183 St,8387.03,E Burnside Ave & Ryer Ave,8397.02,40.851473689,-73.884925723,40.850535,-73.901318,member
493504482E4A2905,classic_bike,2023-11-18 10:37:14,2023-11-18 10:49:40,8 Ave & W 33 St,6450.12,8 Ave & W 49 St,6747.07,40.751551,-73.993934,40.76171227910671,-73.98655101656914,casual
EFD9554A12B7C247,classic_bike,2023-11-21 10:03:15,2023-11-21 10:13:33,Driggs Ave & S 2 St,5235.10,Montrose Ave & Bushwick Ave,5068.02,40.712594271,-73.960631728,40.70767788,-73.94016171,member
22B2851037A336F2,classic_bike,2023-11-11 10:55:33,2023-11-11 11:00:38,71 Ave & Myrtle Ave,4871.02,Wyckoff Ave & Gates Ave,4847.03,40.700824499,-73.898929477,40.699871408829885,-73.91171872615814,member
7B5EF5F555C804E6,classic_bike,2023-11-22 08:16:54,2023-11-22 08:22:14,Orchard St & Grand St,5343.11,W Broadway & Spring St,5569.06,40.717336774,-73.990525365,40.72494672359416,-74.00165855884552,member
42D10BF4F7BFB662,classic_bike,2023-11-03 11:32:43,2023-11-03 11:41:39,W 25 St & 9 Ave,6339.06,Broadway & E 19 St,6098.12,40.74783260583772,-74.0005722643582,40.73866091428551,-73.98987293243407,member
A48412FB4563B2D9,classic_bike,2023-11-25 16:32:35,2023-11-25 16:43:14,E 41 St & Madison Ave (SE corner),6432.10,8 Ave & W 49 St,6747.07,40.752441764,-73.978920102,40.76171227910671,-73.98655101656914,casual
256538F57EB8A5D5,classic_bike,2023-11-19 16:41:03,2023-11-19 16:55:30,Walton Ave & E 171 St,8249.10,Nelson Ave & W 172 St,8290.01,40.84069097,-73.915142059,40.843965,-73.920999,casual
4A88713EB1372C47,classic_bike,2023-11-10 08:53:33,2023-11-10 09:02:25,Lenox Ave & W 130 St,7753.13,12 Ave & W 125 St,7886.02,40.8107922,-73.9430681,40.818299,-73.960405,member
658BD985894B4EA0,classic_bike,2023-11-08 08:18:57,2023-11-08 08:39:56,Kingsland Ave & Nassau Ave,5613.04,E 56 St & 3 Ave,6691.11,40.725732327,-73.941535234,40.75934501,-73.96759673,member
FC53375DB587C804,classic_bike,2023-11-19 16:31:45,2023-11-19 16:31:48,W 35 St & 8 Ave,6526.01,W 35 St & 8 Ave,6526.01,40.752916336,-73.99284029,40.752762088742045,-73.99280458705107,member
E4199D8F060F7AF7,classic_bike,2023-11-04 16:54:33,2023-11-04 17:02:00,3 Ave & E 72 St,7028.04,E 51 St & 2 Ave,6575.03,40.769760132,-73.96037066,40.755293,-73.967641,casual
11D0CEAEDEEFE9EE,classic_bike,2023-11-17 01:17:15,2023-11-17 01:23:39,W 34 St & Hudson Blvd E,6535.04,W 42 St & Dyer Ave,6644.07,40.75516719072139,-74.00059908628464,40.75898481399634,-73.99379968643188,member
6DB8B2809277C051,classic_bike,2023-11-13 15:00:58,2023-11-13 15:15:42,W 12 St & Hudson St,5997.10,W 15 St & 6 Ave,5989.02,40.73752993301071,-74.00558933615685,40.738046142482766,-73.99642959237099,casual
6015E0B57A5DE7D8,classic_bike,2023-11-18 00:47:22,2023-11-18 00:52:16,W 15 St & 6 Ave,5989.02,W 25 St & 8 Ave,6297.08,40.7384516,-73.996886849,40.74649996333341,-73.99732626293645,member
E78F40E0F2338260,classic_bike,2023-11-23 08:26:26,2023-11-23 08:32:49,W 100 St & Broadway,7580.01,Central Park W & W 91 St,7453.01,40.797298431,-73.970238805,40.78866499127884,-73.96680057048798,member
5B44D2E96064730E,classic_bike,2023-11-07 08:04:13,2023-11-07 08:19:26,W 47 St & 6 Ave,6667.04,E 72 St & York Ave,6889.12,40.758328438,-73.982931256,40.76663814,-73.95348296,member
9DDD6E4ECB3005E3,classic_bike,2023-11-10 10:59:56,2023-11-10 11:05:18,Eastern Pkwy & Kingston Ave,3902.06,Schenectady Ave & President St,3822.08,40.66959,-73.94237,40.66732,-73.93398,member
61E61E8A296C89AA,classic_bike,2023-11-16 17:14:03,2023-11-16 17:18:25,Division St & Bowery,5270.08,Centre St & Chambers St,5207.01,40.714193,-73.996732,40.71273266,-74.0046073,member
A52404927B167680,classic_bike,2023-11-21 12:58:24,2023-11-21 13:02:49,Broadway & Roebling St,5125.07,Metropolitan Ave & Bedford Ave,5308.04,40.70924826276157,-73.96063148975372,40.71534825,-73.96024116,member
A3DA136799B5D8E8,classic_bike,2023-11-09 17:39:31,2023-11-09 17:47:57,8 Ave & W 38 St,6526.05,W 22 St & 10 Ave,6306.06,40.75461,-73.99177,40.74691959,-74.00451887,member
4FA4F898EF29A661,classic_bike,2023-11-09 19:56:56,2023-11-09 20:00:22,W 64 St & Thelonious Monk Circle,7123.04,Amsterdam Ave & W 73 St,7260.09,40.774997473,-73.988932967,40.77966809007312,-73.98093044757842,member
F7AA1BBDB25FB987,classic_bike,2023-11-16 15:38:22,2023-11-16 15:45:50,E 33 St & 5 Ave,6322.01,E 41 St & Madison Ave (SE corner),6432.10,40.747762203,-73.984991431,40.752049,-73.979635,member
9F8398937670BC26,classic_bike,2023-11-10 13:07:44,2023-11-10 13:14:51,E 23 St & 1 Ave,5929.01,6 Ave & W 33 St,6364.07,40.736502,-73.97809472,40.74901271,-73.98848395,member
9A7047677B0E549C,classic_bike,2023-11-06 15:27:09,2023-11-06 16:17:32,W 116 St & Broadway,7713.11,12 Ave & W 125 St,7886.02,40.808354735,-73.964186907,40.818299,-73.960405,member
7A510E8DA61EE0DE,classic_bike,2023-11-13 08:21:56,2023-11-13 08:38:29,Hancock St & Malcolm X Blvd,4342.04,DeKalb Ave & Hudson Ave,4513.06,40.684937835,-73.929326534,40.689888,-73.981013,member
C075D09FEEA08C97,classic_bike,2023-11-03 21:46:20,2023-11-03 21:54:15,Lafayette Ave & St James Pl,4494.04,Carlton Ave & Dean St,4199.12,40.68851534,-73.9647628,40.6809741,-73.9710097,casual
384F8819391E5803,classic_bike,2023-11-09 21:12:59,2023-11-09 21:32:29,Lafayette St & E 8 St,5788.13,Thompson St & Bleecker St,5721.07,40.73020660529954,-73.99102628231049,40.72840059450829,-73.99968780577183,member
9955DDEE9EE00B15,classic_bike,2023-11-11 13:38:54,2023-11-11 13:40:33,Riverside Blvd & W 67 St,7183.03,Riverside Blvd & W 67 St,7183.03,40.777507027547976,-73.98888587951659,40.777507027547976,-73.98888587951659,member
694E796BC017E5C1,classic_bike,2023-11-17 13:28:36,2023-11-17 13:42:23,E 6 St & 2 Ave,5669.12,W 27 St & 6 Ave,6215.07,40.72737869323223,-73.98840844631195,40.74526,-73.99062,casual
9B6B0120A443B2B6,classic_bike,2023-11-04 15:04:38,2023-11-04 15:12:00,Milton St & Franklin St,5752.07,Ash St & Manhattan Ave,6019.04,40.72906,-73.95779,40.738095,-73.954867,casual
75D3D646295BD621,classic_bike,2023-11-10 17:30:07,2023-11-10 17:35:57,West St & Liberty St,5184.08,Watts St & Greenwich St,5578.02,40.711622834,-74.014807224,40.72405549,-74.00965965,member
D0F58CB969E43506,classic_bike,2023-11-28 18:46:37,2023-11-28 18:54:34,E 75 St & 3 Ave,6991.12,East End Ave & E 86 St,7113.08,40.77112927,-73.95772297,40.77518615,-73.94446054,member
AB07F5D2876E8272,classic_bike,2023-11-04 08:35:27,2023-11-04 08:44:35,E 43 St & 2 Ave,6422.08,E 17 St & Broadway,5980.07,40.750140071,-73.971023679,40.73704984,-73.99009296,member
E10113455FC4C854,classic_bike,2023-11-02 14:22:22,2023-11-02 15:03:44,W 43 St & 10 Ave,6756.01,Centre St & Chambers St,5207.01,40.76009437,-73.99461843,40.71273266,-74.0046073,casual
DB103F20906DA458,classic_bike,2023-11-11 11:37:14,2023-11-11 11:38:57,E 16 St & 5 Ave,6022.04,W 15 St & 6 Ave,5989.02,40.73726186,-73.99238967,40.738046142482766,-73.99642959237099,member
C6D527D8A2BD2DC8,classic_bike,2023-11-27 16:25:46,2023-11-27 16:41:47,7 Ave & 17 St,3660.07,Clinton St & 4 Place,4119.04,40.660802126,-73.986892462,40.6783563,-74.00014502,casual
138D423CC4B010CB,classic_bike,2023-11-17 16:26:03,2023-11-17 16:44:22,W 35 St & 9 Ave,6569.09,W 84 St & Columbus Ave,7382.04,40.754265785,-73.996199846,40.78499979,-73.97283406,member
B61FA68F6EEF46BF,classic_bike,2023-11-10 15:57:49,2023-11-10 16:09:10,Central Park North & Adam Clayton Powell Blvd,7617.07,Amsterdam Ave & W 79 St,7311.02,40.799606442,-73.955841184,40.7829391,-73.9786517,member
463FE5C437180C9F,classic_bike,2023-11-04 09:00:19,2023-11-04 09:20:22,3 Ave & E 62 St,6762.04,W 42 St & 8 Ave,6602.05,40.763255119,-73.965394855,40.7575699,-73.99098507,member
E1B6660507A7391E,classic_bike,2023-11-10 16:34:16,2023-11-10 17:06:20,Amory Ct & Metropolitan Ave,5217.03,Amory Ct & Metropolitan Ave,5217.03,40.71301,-73.90968,40.71301,-73.90968,member
C82A76CDD2019B55,classic_bike,2023-11-07 21:26:29,2023-11-07 21:39:07,Amsterdam Ave & W 60 St,7023.09,W 20 St & 7 Ave,6182.02,40.771313787,-73.986853242,40.74238787,-73.99726235,member
F72EA60260F38A16,classic_bike,2023-11-30 13:57:42,2023-11-30 14:41:24,Church Ave & McDonald Ave,3090.06,Classon Ave & St Marks Ave,4074.14,40.642809,-73.979239,40.676513,-73.959431,member
AA3907C0AD4B7688,classic_bike,2023-11-16 17:16:52,2023-11-16 17:25:25,W 21 St & 6 Ave,6140.05,E 20 St & 2 Ave,5971.08,40.741748571,-73.994024158,40.73587678,-73.98205027,member
B9093A7C4EE37AB5,classic_bike,2023-11-18 09:48:18,2023-11-18 09:53:54,Hudson Blvd W & W 36 St,6611.07,9 Ave & W 18 St,6190.08,40.756936073,-73.999496698,40.74317449,-74.00366443,casual
F095B8AD2CB5933A,classic_bike,2023-11-17 23:54:08,2023-11-18 00:05:36,E 33 St & 5 Ave,6322.01,W 47 St & 10 Ave,6824.07,40.747944593,-73.984769821,40.76269882,-73.99301222,member
6DB197D0BA2918EF,classic_bike,2023-11-20 20:32:32,2023-11-20 20:37:40,E 16 St & Irving Pl,5938.11,1 Ave & E 18 St,5854.09,40.735616088,-73.988636732,40.73381219196632,-73.98054420948029,member
51571E0AE4841224,classic_bike,2023-11-08 12:15:19,2023-11-08 12:29:27,24 Ave & 26 St,7152.10,35 St & 34 Ave,6679.11,40.774591,-73.918544,40.7580583,-73.9242751,member
FCE4BF29418DFF05,classic_bike,2023-11-02 17:37:09,2023-11-02 17:46:12,E 39 St & 2 Ave,6345.08,E 17 St & Broadway,5980.07,40.748148322,-73.974367499,40.73704984,-73.99009296,member
736CD7602CA0A629,classic_bike,2023-11-01 12:05:38,2023-11-01 12:14:32,E 51 St & Lexington Ave,6659.01,8 Ave & W 52 St,6816.07,40.757009864,-73.972039461,40.76370739,-73.9851615,member
B12BE26CE2CE34C2,classic_bike,2023-11-12 15:15:58,2023-11-12 15:28:53,61 St & 60 Ln,4830.02,Rockaway Ave & Bainbridge St,4285.09,40.70064795,-73.894119978,40.68319988172761,-73.91166642308235,member
60F79686FBD6B65D,classic_bike,2023-11-16 17:40:26,2023-11-16 17:58:19,48 Ave & 41 St,6101.11,64 St & Woodbine St,5057.09,40.739891887,-73.923873186,40.70809,-73.89549,member
274110F3D15A5E92,classic_bike,2023-11-21 12:36:55,2023-11-21 12:44:27,9 Ave & W 45 St,6717.06,W 20 St & 7 Ave,6182.02,40.760444045,-73.991429329,40.74238787,-73.99726235,member
7A850E349E81F395,classic_bike,2023-11-08 14:54:54,2023-11-08 15:02:10,Madison Ave & E 99 St,7443.01,E 78 St & 2 Ave,7057.07,40.789776087,-73.952415109,40.7727966,-73.95577801,member
FE15D768C82A779B,classic_bike,2023-11-05 10:13:31,2023-11-05 11:21:42,35 St & Broadway,6750.16,31 Ave & 30 St,6857.09,40.760339,-73.9222427,40.7647,-73.9240312,member
6324E58C476AFFEF,classic_bike,2023-11-27 07:28:49,2023-11-27 07:33:33,E 2 St & Ave C,5476.03,E 3 St & 1 Ave,5553.03,40.7208736,-73.98085795,40.72467721,-73.98783413,member
9F74F14CEF565D42,classic_bike,2023-11-04 17:01:38,2023-11-04 17:25:07,Dyckman St & Staff St,8655.02,W 180 St & Ft Washington Ave,8358.03,40.868846,-73.931537,40.849972,-73.938423,member
158DB9E82AF85185,classic_bike,2023-11-03 17:15:08,2023-11-03 17:23:38,E 72 St & York Ave,6889.12,E 77 St & 3 Ave,7092.06,40.76663814,-73.95348296,40.77314236,-73.95856158,member
7D4DD7CD06710665,classic_bike,2023-11-19 06:53:01,2023-11-19 06:59:12,W 84 St & Columbus Ave,7382.04,W 56 St & 10 Ave,6955.01,40.785122633,-73.972989917,40.768254,-73.988639,member
FFC55E787545984E,classic_bike,2023-11-02 01:28:24,2023-11-02 01:30:59,E 55 St & 2 Ave,6650.07,3 Ave & E 62 St,6762.04,40.75774157,-73.96620512,40.76312584,-73.96526895,member
EA9ADAB8DD4199EF,classic_bike,2023-11-10 09:29:48,2023-11-10 09:36:29,Lincoln Pl & Classon Ave,3960.01,Cambridge Pl & Gates Ave,4377.04,40.672183752,-73.960846782,40.68488,-73.96304,casual
64F3B3D99F217738,classic_bike,2023-11-01 08:18:24,2023-11-01 08:21:43,Prospect Park West & 8 St,3722.04,6 Ave & 9 St,3803.09,40.664978981,-73.97632885,40.668127,-73.98377641,member
8F9B72840672107E,classic_bike,2023-11-16 09:11:57,2023-11-16 09:15:08,Newtown Ave & 23 St,7026.08,31 St & Newtown Ave,6923.2,40.7713615,-73.9246145,40.7675487799971,-73.9209334552288,member
8201A203302061E0,classic_bike,2023-11-23 18:24:56,2023-11-23 18:35:59,Myrtle Ave & Marcy Ave,4707.03,Union Ave & N 12 St,5411.07,40.695373535,-73.949736834,40.71924,-73.95242,member
1CEB3AE7042C8A61,classic_bike,2023-11-08 15:53:50,2023-11-08 16:06:43,E 76 St & Park Ave,7128.08,E 58 St & 1 Ave (NE Corner),6682.03,40.77390182,-73.962100029,40.75892386377695,-73.96226227283478,member
895EA97DDB04D7A6,classic_bike,2023-11-12 15:21:40,2023-11-12 15:35:04,Pearl St & Hanover Square,4993.02,Greenwich St & Hubert St,5470.10,40.7047177,-74.00926027,40.721319,-74.010065,casual
EDE30C5572C10930,classic_bike,2023-11-03 20:50:51,2023-11-03 21:02:23,Clinton St & Grand St,5303.06,E 25 St & 2 Ave,6046.02,40.71559509,-73.9870295,40.73912601,-73.97973776,member
5D8A19FB68D0506E,classic_bike,2023-11-01 17:06:36,2023-11-01 17:26:51,Cooper Square & Astor Pl,5712.03,E 77 St & 3 Ave,7092.06,40.729720116,-73.990715623,40.77314236,-73.95856158,member
D4A040E4C1E56BA3,classic_bike,2023-11-11 12:03:25,2023-11-11 12:12:37,Sullivan St & Washington Sq,5721.01,E 17 St & 2 Ave,5896.01,40.73047747,-73.99906065,40.73431166276575,-73.98372530937195,member
527D58EE3A98B0D4,classic_bike,2023-11-15 18:03:32,2023-11-15 18:11:08,E 41 St & Madison Ave (SE corner),6432.10,E 58 St & 3 Ave,6762.02,40.752049,-73.979635,40.76095756,-73.96724467,member
1657851BD8BF96CF,electric_bike,2023-11-11 10:40:51,2023-11-11 10:43:29,4 Ave & E 12 St,5788.15,E 17 St & Broadway,5980.07,40.732647,-73.99011,40.73704984,-73.99009296,member
4ABA51FEF7DECDE2,classic_bike,2023-11-18 19:01:27,2023-11-18 19:17:28,W 29 St & 9 Ave,6416.06,Greenwich St & Hubert St,5470.10,40.749979019,-73.998359799,40.721319,-74.010065,member
40913404DF1A4625,classic_bike,2023-11-21 13:01:45,2023-11-21 13:05:32,W 20 St & 7 Ave,6182.02,W 15 St & 6 Ave,5989.02,40.74238787,-73.99726235,40.738046142482766,-73.99642959237099,member
54FD267102EFAB50,classic_bike,2023-11-30 17:42:31,2023-11-30 17:48:01,E 77 St & 1 Ave,7020.02,E 77 St & 3 Ave,7092.06,40.77095553869235,-73.95356208096926,40.77314236,-73.95856158,member
3FE2166B38249D3A,classic_bike,2023-11-16 11:21:25,2023-11-16 11:33:40,W 63 St & Broadway,7052.01,E 51 St & 1 Ave,6532.06,40.771640897,-73.982576489,40.75455731,-73.96592976,member
39362528CDEF6311,classic_bike,2023-11-20 18:02:53,2023-11-20 18:06:08,Hudson St & Reade St,5359.10,Centre St & Chambers St,5207.01,40.71625008,-74.0091059,40.71273266,-74.0046073,member
214086E573EB1A7B,classic_bike,2023-11-09 06:14:41,2023-11-09 06:20:07,E 72 St & York Ave,6889.12,E 77 St & 3 Ave,7092.06,40.766417742,-73.953443408,40.77314236,-73.95856158,member
757B2D314F55C5F6,classic_bike,2023-11-22 07:51:16,2023-11-22 08:10:31,Kingsland Ave & Nassau Ave,5613.04,E 6 St & Ave D,5506.14,40.725753427,-73.941614866,40.72228087,-73.97668709,member
BE6B3C8527D06F28,classic_bike,2023-11-02 23:45:31,2023-11-02 23:54:17,E 15 St & 3 Ave,5863.07,W 22 St & 10 Ave,6306.06,40.734300733,-73.98734951,40.74691959,-74.00451887,member
D03BFCA5CF295601,classic_bike,2023-11-10 23:35:47,2023-11-10 23:48:59,Hudson St & Reade St,5359.10,St Marks Pl & 2 Ave,5669.1,40.716459036,-74.009067893,40.7284186,-73.98713956,casual
8BE18584B8D2D068,classic_bike,2023-11-20 09:58:09,2023-11-20 10:16:21,Scholes St & Manhattan Ave,5108.01,E 5 St & Cooper Sq,5712.12,40.708643436,-73.944932818,40.72769,-73.990993,member
9BF74B5477CAF96C,classic_bike,2023-11-02 16:46:40,2023-11-02 16:56:47,E 72 St & York Ave,6889.12,E 85 St & 3 Ave,7212.05,40.76663814,-73.95348296,40.77801203,-73.95407149,member
F43862FEF25130BE,classic_bike,2023-11-01 23:03:07,2023-11-01 23:13:01,Pike St & Monroe St,5159.04,W 13 St & 7 Ave,6030.04,40.711778045,-73.991976261,40.73781509,-73.99994661,member
61F5E763FFEABCAB,classic_bike,2023-11-19 02:43:52,2023-11-19 02:59:44,6 Ave & W 45 St,6593.15,Bank St & Washington St,5964.01,40.757052302,-73.982478738,40.7361967,-74.00859207,member
12D8241AEC05F7C9,classic_bike,2023-11-05 16:24:10,2023-11-05 16:33:06,E 1 St & Bowery,5636.13,Grand St & Samuel Dickstein Plaza,5335.07,40.724809766,-73.992203116,40.71511871996496,-73.98417055606842,member
B993FE7E5D835DBD,classic_bike,2023-11-28 08:18:30,2023-11-28 08:28:45,Grand Concourse & E 144 St,7845.06,E 156 St & Brook Ave,7896.11,40.816580415,-73.928304791,40.819823,-73.912411,member
F19736751447C7B8,classic_bike,2023-11-30 15:35:06,2023-11-30 15:44:21,36 St & 3 Ave,3460.02,Windsor Pl & 8 Ave,3620.02,40.655807614,-74.006838799,40.660906,-73.983074,member
0AF1369F283B507A,classic_bike,2023-11-13 19:34:09,2023-11-13 19:37:59,Lexington Ave & E 29 St,6164.09,Broadway & E 19 St,6098.12,40.743026137,-73.982240081,40.73866091428551,-73.98987293243407,member
D74A6B9EB218ECD0,classic_bike,2023-11-22 06:49:04,2023-11-22 06:53:05,W Fordham Rd & Loring Pl N,8590.01,Jerome Ave & W 195 St,8653.09,40.862900734,-73.907157063,40.86874,-73.89657,member
7C455F269274F63B,classic_bike,2023-11-26 00:29:22,2023-11-26 00:46:25,St Marks Pl & 2 Ave,5669.10,Maiden Ln & Pearl St,5065.1,40.728512883,-73.98734045,40.70706456,-74.00731853,casual
27F474436FADC8DB,classic_bike,2023-11-23 22:18:16,2023-11-23 22:45:05,Nassau St & Navy St,4812.02,Hicks St & Montague St,4645.09,40.698353767,-73.980748892,40.69512845,-73.99595065,member
D623BA3E7BBD7C92,classic_bike,2023-11-07 06:42:41,2023-11-07 06:53:59,1 Ave & E 6 St,5626.15,W 29 St & 9 Ave,6416.06,40.726195693,-73.986272931,40.7500727,-73.99839279,member
25557E74C60E2BB3,classic_bike,2023-11-12 15:54:16,2023-11-12 16:04:24,9 Ave & W 39 St,6644.08,W 27 St & 6 Ave,6215.07,40.756403523272496,-73.99410143494606,40.74526,-73.99062,member
17CC3A9D13B153D6,electric_bike,2023-11-07 14:47:09,2023-11-07 14:50:36,Lafayette St & Grand St,5422.09,6 Ave & Broome St,5610.09,40.72028,-73.99879,40.72431,-74.00473,member
E5E4E2BB9D526708,classic_bike,2023-11-09 08:07:13,2023-11-09 08:29:54,Adam Clayton Powell Blvd & W 123 St,7704.04,Columbus Ave & W 72 St,7175.05,40.8078316,-73.949373,40.7770575,-73.97898475,member
CFCE8C5929140894,classic_bike,2023-11-13 14:50:47,2023-11-13 14:57:31,E 91 St & 2 Ave,7286.01,East End Ave & E 86 St,7113.08,40.78115276427916,-73.94963040947914,40.77518615,-73.94446054,member
13A2614202F7841D,electric_bike,2023-11-09 08:08:49,2023-11-09 08:11:43,Willow Ave & E 133 St,7626.02,St Mary's St & Jackson Ave,7737.06,40.800933,-73.913863,40.808891,-73.91081,member
49886FB0334CF9C6,classic_bike,2023-11-15 06:59:01,2023-11-15 07:05:27,West Thames St,5114.06,Duane St & Hudson St,5359.12,40.708458304,-74.017274499,40.71703,-74.00925,member
93FCCE7223FA0EBB,classic_bike,2023-11-16 18:13:45,2023-11-16 18:16:24,3 St & 7 Ave,3905.15,Carroll St & 6 Ave,4019.06,40.6703837,-73.97839676,40.6740886,-73.9787282,member
8A8994E697D7D5B1,classic_bike,2023-11-18 20:06:08,2023-11-18 20:17:04,10 Ave & W 14 St,6157.04,Vesey Pl & River Terrace,5297.02,40.741701007,-74.008351684,40.7153379,-74.01658354,casual
FDFEEF9AF65147F3,classic_bike,2023-11-02 14:34:14,2023-11-02 14:38:49,Broadway & E 14 St,5905.12,E 14 St & 1 Ave,5779.10,40.73454567,-73.99074142,40.73139303364151,-73.98286700248718,member
89EF20242B28B925,classic_bike,2023-11-15 11:42:50,2023-11-15 11:44:53,Delancey St & Eldridge St,5414.07,Stanton St & Chrystie St,5523.02,40.719383,-73.991479,40.72229346,-73.99147535,member
53C43BFAAA87687E,classic_bike,2023-11-13 13:04:55,2023-11-13 13:15:04,Amsterdam Ave & W 73 St,7260.09,E 59 St & Madison Ave,6801.01,40.779490709,-73.981107831,40.76350532,-73.97109243,member
DB2DCBEB862588DD,classic_bike,2023-11-09 19:18:35,2023-11-09 19:34:54,E 9 St & Ave C,5616.01,Grand St & Havemeyer St,5267.08,40.725271106,-73.977626801,40.71286844,-73.95698119,member
0B2B676653829817,classic_bike,2023-11-16 08:38:25,2023-11-16 08:44:29,Sterling St & Bedford Ave,3665.06,Pacific St & Nostrand Ave,4140.03,40.662708521,-73.956825256,40.6776,-73.94963,member
9C0D9826AF0A752D,classic_bike,2023-11-17 15:02:00,2023-11-17 15:06:37,Little West St & 1 Pl,5001.08,Vesey St & Church St,5216.06,40.705655098,-74.016677737,40.71221958009051,-74.01047229766846,member
ABBD747EB406D0C2,classic_bike,2023-11-21 10:42:25,2023-11-21 10:56:31,Carroll St & Smith St,4225.14,Sigourney St & Columbia St,3940.04,40.6806463,-73.99481678,40.67267243410948,-74.0087952464819,casual
66DBEE7E778F2523,electric_bike,2023-11-02 05:30:09,2023-11-02 06:02:02,65 Pl & Woodside Ave,6149.02,Metropolitan Ave & 65 Ln,5160.01,40.74334,-73.89903,40.71225,-73.89111,member
FE0E1592863A6828,classic_bike,2023-11-13 00:30:24,2023-11-13 00:32:55,Canal St & Rutgers St,5303.08,St James Pl & Oliver St,5238.05,40.714290023,-73.989956975,40.71307916,-73.99851193,member
1672F76351C60569,classic_bike,2023-11-10 19:17:36,2023-11-10 19:36:50,New York Ave & Montgomery St,3728.05,N 10 St & Berry St,5450.01,40.664965749,-73.948093772,40.720253,-73.957082,casual
41DE974869B2C189,classic_bike,2023-11-10 19:36:36,2023-11-10 19:41:38,Willoughby Ave & Tompkins Ave,4665.02,Myrtle Ave & Lewis Ave,4729.01,40.69425403,-73.94626915,40.69681963,-73.93756926,member
2288CD8EFA891A01,classic_bike,2023-11-09 19:55:21,2023-11-09 20:10:29,W 22 St & 10 Ave,6306.06,Vesey Pl & River Terrace,5297.02,40.746840119,-74.004378796,40.7153379,-74.01658354,member
44F294ED5500CDCE,classic_bike,2023-11-24 10:18:29,2023-11-24 10:25:46,Great Jones St,5636.11,E 17 St & Broadway,5980.07,40.72743423,-73.99379025,40.73704984,-73.99009296,member
0D9AE5966E76548D,classic_bike,2023-11-17 09:02:49,2023-11-17 09:06:31,Albany Ave & Park Pl,3975.02,Pacific St & Rochester Ave,4113.01,40.673028231,-73.938921332,40.67639,-73.92748,member
8DE963AB51EE77EE,classic_bike,2023-11-14 07:38:13,2023-11-14 07:48:54,Anthony Ave & E Tremont Ave,8356.04,Cauldwell Ave & E 158 St,7913.15,40.848835468,-73.903216362,40.81989,-73.908351,member
ED7BCC96D0ADDF6F,classic_bike,2023-11-07 21:23:26,2023-11-07 21:41:08,Broadway & W 29 St,6289.06,Ave A & E 11 St,5703.13,40.7462009,-73.98855723,40.72854745023944,-73.98175925016403,member
593A3074279F1E81,classic_bike,2023-11-17 08:50:46,2023-11-17 08:57:56,W 64 St & Thelonious Monk Circle,7123.04,E 59 St & Madison Ave,6801.01,40.775038362,-73.989099264,40.76350532,-73.97109243,member
67B4FB222AAC786D,classic_bike,2023-11-05 09:46:24,2023-11-05 09:50:36,8 Ave & W 27 St,6297.07,8 Ave & W 38 St,6526.05,40.747968,-73.996637,40.75461,-73.99177,member
D50C233132545F87,classic_bike,2023-11-05 00:33:23,2023-11-05 00:40:52,E 17 St & Broadway,5980.07,6 Ave & W 33 St,6364.07,40.737047791,-73.990051508,40.74901271,-73.98848395,member
6726E87B015165B8,classic_bike,2023-11-27 08:51:27,2023-11-27 08:57:55,Fulton St & Adams St,4637.06,Kane St & Clinton St,4455.11,40.69241829257847,-73.98949474096298,40.6861758,-73.99645295,member
FCD63B3238B759B8,classic_bike,2023-11-01 16:53:54,2023-11-01 17:04:51,W 51 St & 6 Ave,6740.10,W 87 St & West End Ave,7484.05,40.76055932,-73.979640603,40.789622,-73.97757,member
C9391A38EDB6270D,classic_bike,2023-11-22 18:57:54,2023-11-22 18:59:42,Broadway & E 21 St,6098.10,Madison Ave & E 26 St,6131.12,40.73988840858996,-73.98958593606949,40.742684734875695,-73.98671329021454,member
69D9E3907B76CBFC,classic_bike,2023-11-18 18:26:58,2023-11-18 18:27:24,Morningside Dr & Amsterdam Ave,7741.04,Morningside Dr & Amsterdam Ave,7741.04,40.810269475,-73.957407117,40.81028506306003,-73.95736455917358,member
C2411997BAC35ABD,classic_bike,2023-11-26 12:38:15,2023-11-26 12:48:56,E 53 St & Lexington Ave,6617.09,1 Ave & E 68 St,6822.09,40.75828065,-73.97069431,40.76500525,-73.95818491,member
0DEABB28A38D423E,classic_bike,2023-11-10 20:17:19,2023-11-10 20:18:15,E 2 St & 2 Ave,5593.02,E 2 St & 2 Ave,5593.02,40.725111961,-73.991111636,40.72502876,-73.99069656,member
3382167461446E44,classic_bike,2023-11-22 16:43:47,2023-11-22 16:57:24,Broadway & W 58 St,6948.10,E 47 St & 2 Ave,6498.10,40.76695317,-73.98169333,40.75323098,-73.97032517,member
F1E2ACDA2556EE9C,classic_bike,2023-11-11 12:12:12,2023-11-11 12:32:33,8 Ave & W 33 St,6450.12,W 15 St & 6 Ave,5989.02,40.751551,-73.993934,40.738046142482766,-73.99642959237099,member
92C0237F0E3C9416,classic_bike,2023-11-15 08:00:57,2023-11-15 08:02:58,W 87 St & West End Ave,7484.05,W 92 St & Broadway,7502.01,40.789807677,-73.977995157,40.7921,-73.9739,member
FA372138F5B1F6AF,classic_bike,2023-11-19 15:34:49,2023-11-19 16:47:30,W 82 St & Central Park West,7304.08,W 74 St & Columbus Ave,7230.1,40.782904506,-73.971547127,40.7785669,-73.97754961,casual
829B50AB5198EFA2,classic_bike,2023-11-27 09:21:18,2023-11-27 09:36:19,E 54 St & 1 Ave,6608.09,8 Ave & W 49 St,6747.07,40.756265,-73.964179,40.76171227910671,-73.98655101656914,member
A03B9BCB297E3027,classic_bike,2023-11-08 16:34:00,2023-11-08 16:38:40,W 52 St & 11 Ave,6926.01,12 Ave & W 40 St,6765.01,40.76727216,-73.99392888,40.76087502,-74.00277668,member
E1DAE7255C3952EC,classic_bike,2023-11-14 15:24:39,2023-11-14 15:31:14,75 St & Roosevelt Ave,6332.09,41 Ave & 77 St,6290.06,40.746643901,-73.890428782,40.74557,-73.8882,member
A92851002BAAA2F0,classic_bike,2023-11-13 17:00:14,2023-11-13 17:05:48,North Moore St & Greenwich St,5470.12,Lispenard St & Broadway,5391.06,40.72019521437465,-74.0103006362915,40.71939226,-74.00247214,member
D788A45CF6CCE95D,classic_bike,2023-11-16 14:52:32,2023-11-16 14:57:52,Cooper Square & Astor Pl,5712.03,E 15 St & 3 Ave,5863.07,40.72951496224949,-73.99075269699097,40.734232,-73.986923,member
E1D22502ACAB373D,classic_bike,2023-11-09 13:57:31,2023-11-09 14:02:55,Waterbury St & Stagg St,5099.02,Withers St & Kingsland Ave,5362.08,40.71019,-73.93734,40.71773,-73.94051,member
148344BA399F82C9,classic_bike,2023-11-30 05:41:18,2023-11-30 05:46:20,E 72 St & York Ave,6889.12,E 85 St & 3 Ave,7212.05,40.766745567,-73.953552842,40.77801203,-73.95407149,member
D4E9D033D662A769,classic_bike,2023-11-13 19:17:02,2023-11-13 19:27:52,W 11 St & 6 Ave,5914.03,Gramercy Park N & Gramercy Park E,6013.12,40.73532427,-73.99800419,40.73795,-73.98509,member
41DD7BDFF4C1FCA5,classic_bike,2023-11-13 11:00:04,2023-11-13 11:06:28,W 35 St & 8 Ave,6526.01,W 42 St & Dyer Ave,6644.07,40.752762088742045,-73.99280458705107,40.75898481399634,-73.99379968643188,member
9B1C5A1BED296C7B,classic_bike,2023-11-11 21:38:34,2023-11-11 22:02:33,E 11 St & 3 Ave,5788.16,43 Ave & 42 St,6251.06,40.731296062,-73.988617301,40.74534682580983,-73.9219419658184,member
DE609F6FB48AE55C,classic_bike,2023-11-06 14:53:06,2023-11-06 14:53:17,12 Ave & W 40 St,6765.01,12 Ave & W 40 St,6765.01,40.76087502,-74.00277668,40.76087502,-74.00277668,member
FA156311A1749534,classic_bike,2023-11-27 06:59:03,2023-11-27 07:03:51,E 25 St & 2 Ave,6046.02,E 15 St & 3 Ave,5863.07,40.73912601,-73.97973776,40.734232,-73.986923,member
DF70DF7228E85736,classic_bike,2023-11-06 15:38:48,2023-11-06 15:42:43,8 Ave & W 27 St,6297.07,9 Ave & W 18 St,6190.08,40.747850776,-73.996209979,40.74317449,-74.00366443,casual
450651E443193015,classic_bike,2023-11-07 09:15:52,2023-11-07 09:17:42,Grand St & Havemeyer St,5267.08,Metropolitan Ave & Bedford Ave,5308.04,40.712860823,-73.957042456,40.71534825,-73.96024116,member
1CC65076E2ACE238,classic_bike,2023-11-16 11:02:26,2023-11-16 11:12:05,E 7 St & Ave C,5545.01,E 25 St & 2 Ave,6046.02,40.72412944090093,-73.97901266813278,40.73912601,-73.97973776,member
44413A61B5253C3E,classic_bike,2023-11-22 18:29:57,2023-11-22 18:30:41,Grand Concourse & E 166 St,8092.06,Sherman Ave & E 166 St,8072.06,40.832056284,-73.919904351,40.83130549267296,-73.91744792461395,member
61E414D9839F00D7,classic_bike,2023-11-28 12:17:43,2023-11-28 12:31:57,E 48 St & 3 Ave,6541.03,University Pl & E 14 St,5905.14,40.754481554,-73.972612977,40.734814,-73.992085,member
A6C508FF56098AB5,classic_bike,2023-11-04 07:33:55,2023-11-04 07:50:50,Eldert St & Bushwick Ave,4399.03,Nassau Ave & Newell St,5623.03,40.686485291,-73.913224697,40.724812564400175,-73.94752621650696,member
026D79D1D857EADA,classic_bike,2023-11-02 09:49:31,2023-11-02 10:01:08,Broadway & W 51 St,6779.04,Madison Ave & E 26 St,6131.12,40.76228826,-73.98336183,40.742684734875695,-73.98671329021454,member
EA1398986A0CBF71,classic_bike,2023-11-02 12:48:03,2023-11-02 12:53:36,Columbus Ave & W 95 St,7520.07,Columbus Ave & W 72 St,7175.05,40.792061329,-73.968155622,40.7770575,-73.97898475,member
6A11489B03442238,classic_bike,2023-11-16 16:36:57,2023-11-16 16:46:22,E 47 St & Park Ave,6584.12,E 20 St & Park Ave,6055.08,40.75528276,-73.975478053,40.73827428,-73.98751968,member
3C65C065774AFB16,classic_bike,2023-11-18 12:46:03,2023-11-18 12:50:59,W 56 St & 8 Ave,6884.03,W 64 St & Thelonious Monk Circle,7123.04,40.765274286,-73.984043479,40.77515953434235,-73.98918695747852,member
DEE976B8E41B0C92,classic_bike,2023-11-16 08:49:32,2023-11-16 09:19:12,Broadway & E 19 St,6098.12,Greenwich St & Perry St,5922.04,40.73866091428551,-73.98987293243407,40.73498,-74.00697,member
46F08A3BFE14B65F,classic_bike,2023-11-02 13:07:22,2023-11-02 13:27:50,10 Ave & W 14 St,6157.04,Washington St & Laight St,5509.02,40.741781235,-74.008440018,40.72231,-74.0106,casual
49B2238EFA9FC9CF,classic_bike,2023-11-28 08:32:04,2023-11-28 08:36:41,W 21 St & 6 Ave,6140.05,8 Ave & W 27 St,6297.07,40.74173969,-73.99415556,40.747968,-73.996637,member
71E87E218C4C4BD5,classic_bike,2023-11-30 18:49:49,2023-11-30 18:55:52,Metropolitan Ave & Bedford Ave,5308.04,Norman Ave & Leonard St,5666.11,40.715372086,-73.960216045,40.725819,-73.950815,member
8B162F9A06FFCC7E,classic_bike,2023-11-01 08:29:08,2023-11-01 08:35:47,W 27 St & 6 Ave,6215.07,W 43 St & 6 Ave,6593.14,40.745308518,-73.990399241,40.75527307,-73.98316936,member
72671E1B67E030D7,classic_bike,2023-11-04 20:27:43,2023-11-04 20:30:44,W 89 St & Columbus Ave,7432.09,W 84 St & Columbus Ave,7382.04,40.788350582,-73.970460176,40.78499979,-73.97283406,member
B6BB78AE992F675C,classic_bike,2023-11-20 15:24:01,2023-11-20 15:31:02,Grand Concourse & E 175 St,8303.06,Grand Concourse & E 164 St,8057.02,40.846247315,-73.909341455,40.829608,-73.921461,member
DE094F3967CF330D,classic_bike,2023-11-20 09:55:14,2023-11-20 10:06:51,Lexington Ave & E 24 St,6089.07,Bleecker St & Crosby St,5679.08,40.740225911,-73.984264731,40.72615604980408,-73.99510189890862,member
BC43D88DF34E2B30,classic_bike,2023-11-01 00:28:51,2023-11-01 01:03:05,Sullivan St & Washington Sq,5721.01,Greenwich St & W Houston St,5730.08,40.73047747,-73.99906065,40.728846,-74.008591,casual
C6D97DCF3FF3D76C,classic_bike,2023-11-12 11:05:06,2023-11-12 11:21:30,E 68 St & Madison Ave,6932.15,W 76 St & Columbus Ave,7281.09,40.7691572,-73.96703464,40.7801839724239,-73.97728532552719,casual
8CA1F2C8E6B85807,classic_bike,2023-11-30 08:23:40,2023-11-30 08:30:18,Ave D & E 12 St,5575.08,Broadway & E 14 St,5905.12,40.725893497,-73.974123359,40.73454567,-73.99074142,member
E187B1AE4BC53D97,classic_bike,2023-11-03 08:06:17,2023-11-03 08:19:13,E 88 St & 1 Ave,7235.13,E 44 St & Lexington Ave,6464.09,40.77830565,-73.948633909,40.752643,-73.974996,casual
4CF2C5E904C2C5A9,electric_bike,2023-11-14 05:26:17,2023-11-14 05:47:40,W 67 St & Broadway,7116.04,Vesey Pl & River Terrace,5297.02,40.77492513,-73.98266566,40.7153379,-74.01658354,member
4C93694E2427FC62,classic_bike,2023-11-09 15:00:34,2023-11-09 15:13:16,3 St & 7 Ave,3905.15,23 St & 3 Ave,3707.01,40.670331001,-73.978353739,40.662611,-73.998623,member
4F447E873B35C1FE,classic_bike,2023-11-08 10:49:35,2023-11-08 11:11:47,Central Park S & 6 Ave,6876.04,Central Park North & Adam Clayton Powell Blvd,7617.07,40.76590936,-73.97634151,40.799484,-73.955613,casual
DC3BEDF89811D0B9,classic_bike,2023-11-23 16:35:31,2023-11-23 17:00:56,E 44 St & Lexington Ave,6464.09,Broadway & Berry St,5164.05,40.752349496,-73.974458456,40.71036129922581,-73.96530389785767,casual
E7C38C4B5B83F61C,classic_bike,2023-11-01 10:34:53,2023-11-01 10:58:16,Grand Ave & Bergen St,4190.06,E 6 St & Ave B,5584.04,40.67782402,-73.96220541,40.72453734,-73.98185424,member
37568AF7B8DF2C99,classic_bike,2023-11-09 08:20:53,2023-11-09 08:34:14,1 Pl & Clinton St,4193.14,Old Fulton St,4903.08,40.6809591,-73.99905709,40.70277159,-73.99383605,member
4966E842562759F8,classic_bike,2023-11-06 19:34:37,2023-11-06 19:53:51,Riverside Blvd & W 67 St,7183.03,E 44 St & Lexington Ave,6464.09,40.777845621,-73.988795757,40.752643,-73.974996,casual
67A88BC7B4C56EFE,classic_bike,2023-11-09 19:48:12,2023-11-09 20:02:16,Main St & Plymouth St,4936.21,Spruce St & Nassau St,5137.10,40.703550458,-73.990509152,40.71146364,-74.00552427,member
EE33F6D9AC0E995E,classic_bike,2023-11-07 06:59:50,2023-11-07 07:09:42,8 St & Astoria Blvd,7068.07,44 Dr & Jackson Ave,6352.01,40.772549391,-73.932734251,40.74718234,-73.9432635,member
F41B7611211775FF,classic_bike,2023-11-07 05:35:46,2023-11-07 05:36:59,River Ter & Warren St,5368.03,Vesey Pl & River Terrace,5297.02,40.71759894980997,-74.01587963104248,40.7153379,-74.01658354,member
3C88EF71093EA62F,classic_bike,2023-11-03 15:43:59,2023-11-03 15:55:22,Lexington Ave & E 24 St,6089.07,E 2 St & 2 Ave,5593.02,40.74025878,-73.98409214,40.72502876,-73.99069656,member
DCD9D4EBDEFE1F27,classic_bike,2023-11-25 17:52:45,2023-11-25 18:11:16,Macombs Rd & W 175 St,8344.04,Adam Clayton Powell Blvd & W 115 St,7643.18,40.848210812,-73.916092396,40.802535,-73.9532423,member
1A5B4FD6E8C80933,classic_bike,2023-11-10 06:33:02,2023-11-10 06:53:39,E 20 St & Park Ave,6055.08,N 12 St & Bedford Ave,5450.04,40.73813796,-73.987558603,40.72079821,-73.95484712,casual
1F835F071744640C,classic_bike,2023-11-18 08:37:57,2023-11-18 08:44:08,E 12 St & 3 Ave,5788.12,Stanton St & Chrystie St,5523.02,40.732340813,-73.988484859,40.72229346,-73.99147535,member
93B0499E97D8321F,classic_bike,2023-11-11 15:52:20,2023-11-11 16:07:13,Pacific St & Smith St,4446.03,Carroll St & 6 Ave,4019.06,40.687880939612775,-73.98939281702042,40.6740886,-73.9787282,member
A0780DDFB9E4F46D,classic_bike,2023-11-02 14:16:36,2023-11-02 14:21:21,W 116 St & Broadway,7713.11,Broadway & W 133 St,7903.02,40.808138967,-73.964047074,40.8190344,-73.956156,member
B417011BB9AC2D76,classic_bike,2023-11-04 11:00:15,2023-11-04 11:04:08,8 Ave & W 33 St,6450.12,W 42 St & 8 Ave,6602.05,40.751551,-73.993934,40.7575699,-73.99098507,member
2B3EA17E8D29593E,classic_bike,2023-11-04 20:18:07,2023-11-04 20:25:00,Hope St & Union Ave,5187.03,Montrose Ave & Bushwick Ave,5068.02,40.711704493,-73.951413274,40.70767788,-73.94016171,casual
C57FD28E112158BF,classic_bike,2023-11-19 15:41:38,2023-11-19 15:46:44,E 1 St & Bowery,5636.13,E 15 St & 3 Ave,5863.07,40.72486122254819,-73.99213135242462,40.734232,-73.986923,member
0099D0FA566048FD,classic_bike,2023-11-15 19:04:59,2023-11-15 19:07:33,Canal St & Rutgers St,5303.08,Grand St & Samuel Dickstein Plaza,5335.07,40.714311481,-73.989826202,40.71511871996496,-73.98417055606842,member
D4325DB310235DAA,classic_bike,2023-11-01 08:45:38,2023-11-01 08:45:48,Pike St & E Broadway,5270.05,Pike St & E Broadway,5270.05,40.71406667,-73.99293911,40.71406667,-73.99293911,member
A4C022EAE9E9B6F1,classic_bike,2023-11-01 15:52:44,2023-11-01 15:56:34,W 67 St & Broadway,7116.04,Amsterdam Ave & W 73 St,7260.09,40.77492513,-73.98266566,40.77966809007312,-73.98093044757842,member
1629B08A64A1C10A,classic_bike,2023-11-16 13:57:26,2023-11-16 14:15:44,Berkeley Pl & 6 Ave,4134.06,Berkeley Pl & 6 Ave,4134.06,40.6765304,-73.97846879,40.6765304,-73.97846879,member
B4CD0B190AC886EA,classic_bike,2023-11-11 19:05:02,2023-11-11 19:11:59,Mott St & Prince St,5561.04,Broadway & E 14 St,5905.12,40.72317958,-73.99480012,40.73454567,-73.99074142,member
62D37F76FD8A333E,electric_bike,2023-11-02 23:14:32,2023-11-02 23:17:24,Columbus Ave & W 72 St,7175.05,Columbus Ave & W 72 St,7175.05,40.7770575,-73.97898475,40.7770575,-73.97898475,casual
50E0E95ABF1F59EB,classic_bike,2023-11-30 17:43:42,2023-11-30 18:06:14,Christopher St & Greenwich St,5847.01,8 Ave & W 52 St,6816.07,40.73291553,-74.00711384,40.76370739,-73.9851615,member
FA7414B737EFB61F,classic_bike,2023-11-07 16:41:36,2023-11-07 17:14:18,E 47 St & Park Ave,6584.12,Liberty St & Broadway,5105.01,40.75510267,-73.97498696,40.70905623,-74.01043382,member
74ABA524D28A7605,classic_bike,2023-11-01 12:43:26,2023-11-01 13:05:46,Ocean Pkwy & Church Ave,3125.09,Bond St & Bergen St,4404.10,40.644553423,-73.974565744,40.6849668,-73.98620772,casual
D9B89C9F2D81C24C,classic_bike,2023-11-09 19:39:36,2023-11-09 19:46:34,Grand St & Greene St,5500.02,Watts St & Greenwich St,5578.02,40.72170005235607,-74.00238141417502,40.72405549,-74.00965965,member
6BFC76F8660F37F0,classic_bike,2023-11-22 16:39:36,2023-11-22 16:41:18,W 190 St & St Nicholas Ave,8453.14,W 186 St & St Nicholas Ave,8416.1,40.854839325,-73.929430366,40.852253,-73.931308,member
1CADEFB472DFAF4C,classic_bike,2023-11-13 20:04:06,2023-11-13 20:11:41,Lexington Ave & E 24 St,6089.07,W 22 St & 10 Ave,6306.06,40.74025878,-73.98409214,40.74691959,-74.00451887,member
F97A2F396C599EB6,classic_bike,2023-11-10 12:22:59,2023-11-10 12:39:22,Forsyth St & Broome St,5453.05,1 Ave & E 39 St,6303.01,40.719433427,-73.992409229,40.74714,-73.97113,casual
0DD78C660B3FA1AB,classic_bike,2023-11-02 18:01:10,2023-11-02 18:22:32,W 34 St & 11 Ave,6578.01,Warren St & W Broadway,5288.09,40.75594159,-74.0021163,40.71473993,-74.00910627,casual
5B8B9F2910C7CF56,classic_bike,2023-11-10 08:57:07,2023-11-10 09:24:26,1 Ave & E 16 St,5779.08,8 Ave & W 52 St,6816.07,40.73221853,-73.98165557,40.76370739,-73.9851615,member
BAB7DF5008A0A408,classic_bike,2023-11-04 08:28:38,2023-11-04 08:55:15,Norman Ave & Leonard St,5666.11,E 6 St & Ave D,5506.14,40.725819,-73.950815,40.72228087,-73.97668709,member
D7AA5D17B62FDEB5,classic_bike,2023-11-06 13:32:46,2023-11-06 13:36:07,53 St & Flushing Ave,5257.01,Page Pl & Grand Ave,5409.02,40.71435,-73.91405,40.71798,-73.91818,member
01A4ADFCCE45BCE4,classic_bike,2023-11-03 09:16:37,2023-11-03 09:36:18,Seaman Ave & Beak St,8650.11,Walton Ave & E 183 St,8514.05,40.867827177,-73.926154971,40.858472,-73.90266,member
A66617BD6DEA19A8,classic_bike,2023-11-07 09:04:34,2023-11-07 09:11:19,E 85 St & York Ave,7146.04,E 72 St & York Ave,6889.12,40.77536905,-73.94803392,40.76663814,-73.95348296,member
8E3DEDB1C3901E2D,classic_bike,2023-11-04 13:52:27,2023-11-04 14:09:58,Ave A & E 11 St,5703.13,Greenwich St & Hubert St,5470.10,40.72854745023944,-73.98175925016403,40.721319,-74.010065,member
352264E965E016FF,classic_bike,2023-11-28 18:57:49,2023-11-28 19:10:32,E 26 St & 3 Ave,6089.11,Broadway & E 14 St,5905.12,40.74069317733043,-73.98160636425018,40.73454567,-73.99074142,member
C8178202F234A6D5,classic_bike,2023-11-08 16:55:29,2023-11-08 17:11:40,12 Ave & W 40 St,6765.01,W 87 St & West End Ave,7484.05,40.760895967,-74.002812028,40.789622,-73.97757,member
0C3AB3F9CB0AC46E,classic_bike,2023-11-18 16:52:28,2023-11-18 17:13:44,7 Ave & 22 St,3515.01,7 Ave & 22 St,3515.01,40.657946229,-73.989683151,40.658029,-73.989605,casual
6732CE149E0E7517,classic_bike,2023-11-18 12:27:34,2023-11-18 12:33:45,W 87 St & Amsterdam Ave,7458.03,Riverside Dr & W 78 St,7340.06,40.788447261,-73.974699736,40.78414472,-73.98362492,casual
B54CCEF6774CD6D3,classic_bike,2023-11-20 06:04:12,2023-11-20 06:08:58,W 106 St & Central Park West,7606.01,St Nicholas Ave & Manhattan Ave,7723.01,40.7981856,-73.9605909006,40.809725,-73.953149,member
7D99640E5D4A44F6,classic_bike,2023-11-19 02:27:33,2023-11-19 02:32:09,E 30 St & Park Ave S,6206.08,W 25 St & 8 Ave,6297.08,40.744459987,-73.982967257,40.74649996333341,-73.99732626293645,member
DF4938B5DD3E11C7,classic_bike,2023-11-20 14:07:06,2023-11-20 14:12:23,W 89 St & Columbus Ave,7432.09,W 84 St & Columbus Ave,7382.04,40.7882213,-73.97041561,40.78499979,-73.97283406,member
DB1BCFBA9BEC66D0,classic_bike,2023-11-06 20:41:52,2023-11-06 21:02:34,Willoughby Ave & Hall St,4611.03,Metropolitan Ave & Stewart Ave,5273.01,40.692024827,-73.965347052,40.71401,-73.92793,member
8649E8C8C8010379,classic_bike,2023-11-20 21:49:48,2023-11-20 21:58:02,W 52 St & 5 Ave,6700.01,1 Ave & E 68 St,6822.09,40.760002136,-73.976736665,40.76500525,-73.95818491,member
E2AD2B334ECA6BDE,classic_bike,2023-11-16 10:45:46,2023-11-16 10:50:30,3 Ave & E 100 St,7414.17,E 91 St & 2 Ave,7286.01,40.7877214,-73.94728331,40.78115276427916,-73.94963040947914,member
16B10A02D63C819E,classic_bike,2023-11-08 14:24:00,2023-11-08 15:04:48,Monroe St & Tompkins Ave,4434.06,Ditmars Blvd & 94 St,6978.04,40.686205268,-73.944719434,40.7702,-73.87587,member
F2144A8327F1E9AB,classic_bike,2023-11-28 07:19:20,2023-11-28 07:23:43,Warren St & W Broadway,5288.09,Warren St & W Broadway,5288.09,40.71473993,-74.00910627,40.71473993,-74.00910627,member
8AAD9538643885A0,classic_bike,2023-11-18 13:31:51,2023-11-18 13:36:09,Greenwich St & W Houston St,5730.08,6 Ave & Broome St,5610.09,40.728718281,-74.008519769,40.72431,-74.00473,member
5BA589BC3F9CC5DD,classic_bike,2023-11-04 13:52:20,2023-11-04 14:03:11,E 2 St & Ave B,5515.02,University Pl & E 8 St,5755.14,40.72217444,-73.98368779,40.73143724085228,-73.99490341544151,casual
BBD13779A7F21A5D,classic_bike,2023-11-21 18:15:00,2023-11-21 18:27:55,W 50 St & 10 Ave,6890.06,E 30 St & Park Ave S,6206.08,40.764722109,-73.99210465,40.74444921,-73.98303529,member
5F6528CA4B2CA5B2,classic_bike,2023-11-11 10:31:24,2023-11-11 10:44:15,Grand Army Plaza & Central Park S,6839.10,8 Ave & W 33 St,6450.12,40.763880968,-73.974030614,40.751551,-73.993934,casual
12C1A25F762FD797,classic_bike,2023-11-27 10:55:02,2023-11-27 11:21:28,Clinton Ave & Flushing Ave,4762.04,W 25 St & 8 Ave,6297.08,40.698022127,-73.969856977,40.74649996333341,-73.99732626293645,member
0CAF8CD0808E023D,classic_bike,2023-11-11 14:10:46,2023-11-11 14:24:04,Goble Pl & Macombs Rd,8269.01,Sheridan Ave & E 168 St,8160.03,40.844075,-73.917256,40.835334,-73.9154,member
40FBA47E285C1B30,classic_bike,2023-11-03 14:31:31,2023-11-03 14:38:50,Amsterdam Ave & W 79 St,7311.02,Riverside Blvd & W 67 St,7183.03,40.7829391,-73.9786517,40.777507027547976,-73.98888587951659,member
49B63A91978C0601,classic_bike,2023-11-16 13:47:38,2023-11-16 14:10:15,Crescent St & 30 Ave,6958.06,35 St & 23 Ave,7047.07,40.768692,-73.9249574,40.77301508291382,-73.91119033098221,member
0AE4C5FA4695AA7A,classic_bike,2023-11-07 12:46:48,2023-11-07 12:52:02,57 St & 4 Ave,3093.07,58 St & Pier 4,3220.01,40.642622,-74.016866,40.646475,-74.026081,member
610A0D4B50F61954,classic_bike,2023-11-10 10:30:10,2023-11-10 10:33:54,34 Ave & 38 St,6638.01,49 St & 31 Ave,6662.01,40.756843567,-73.921380758,40.758057,-73.909831,member
258D9A1F714C0E80,classic_bike,2023-11-23 15:46:48,2023-11-23 15:49:05,Union Ave & N 12 St,5411.07,Union Ave & N 12 St,5411.07,40.71924,-73.95242,40.71924,-73.95242,member
AA658AF5E0AD17F3,classic_bike,2023-11-06 11:38:14,2023-11-06 11:50:48,W 13 St & 5 Ave,5947.04,Pike St & E Broadway,5270.05,40.735271573,-73.994626999,40.71406667,-73.99293911,member
5A33DFADD6F87CA2,classic_bike,2023-11-02 07:47:54,2023-11-02 08:24:30,Lispenard St & Broadway,5391.06,Lispenard St & Broadway,5391.06,40.719304919,-74.002239585,40.71939226,-74.00247214,member
F015ED50B1EB2905,classic_bike,2023-11-18 16:32:13,2023-11-18 16:33:37,Manhattan Ave & Devoe St,5219.05,Manhattan Ave & Devoe St,5219.05,40.713532,-73.9459867,40.713532,-73.9459867,member
7D4A2BB1412436DB,classic_bike,2023-11-04 11:52:17,2023-11-04 12:00:25,Broadway & W 48 St,6708.04,3 Ave & E 62 St,6762.04,40.76006484,-73.984836459,40.76312584,-73.96526895,casual
4F60EF3F9A32500C,classic_bike,2023-11-03 15:09:56,2023-11-03 15:13:06,W 56 St & 10 Ave,6955.01,8 Ave & W 52 St,6816.07,40.768443584,-73.988791347,40.76370739,-73.9851615,member
184A69D1AB4A998B,classic_bike,2023-11-16 21:03:20,2023-11-16 21:16:12,W 22 St & 10 Ave,6306.06,4 Ave & E 12 St,5788.15,40.746771216,-74.004300475,40.732647,-73.99011,member
D26B17983CB7E466,classic_bike,2023-11-11 11:37:28,2023-11-11 11:43:25,S 4 St & Rodney St,5156.05,Union Ave & N 12 St,5411.07,40.70934,-73.95608,40.71924,-73.95242,member
9CEA84C0BE104BE1,classic_bike,2023-11-18 10:01:44,2023-11-18 10:46:26,Sands St Gate,4812.04,DeKalb Ave & Hudson Ave,4513.06,40.699569,-73.979827,40.689888,-73.981013,member
C11333484E1732FF,classic_bike,2023-11-03 11:45:30,2023-11-03 12:16:41,W 42 St & 6 Ave,6517.08,W 42 St & 6 Ave,6517.08,40.75492,-73.98455,40.75492,-73.98455,casual
BD1344BFF501B541,classic_bike,2023-11-08 15:44:41,2023-11-08 16:16:14,Central Park North & Adam Clayton Powell Blvd,7617.07,1 Ave & E 44 St,6379.03,40.799484,-73.955613,40.75001986,-73.96905301,member
66F03C34021C9DC0,classic_bike,2023-11-07 20:57:56,2023-11-07 21:28:17,Pike St & E Broadway,5270.05,Monroe St & Marcus Garvey Blvd,4467.03,40.71406667,-73.99293911,40.686722,-73.938988,member
6873BF2085155448,classic_bike,2023-11-03 17:50:35,2023-11-03 17:56:37,E 1 St & 1 Ave,5593.01,E 6 St & Ave D,5506.14,40.72335597960796,-73.98864984512329,40.72228087,-73.97668709,member
0841B693B305BEC9,classic_bike,2023-11-02 23:02:30,2023-11-02 23:14:26,W 49 St & 8 Ave,6747.06,E 77 St & 3 Ave,7092.06,40.76239264,-73.988155127,40.77314236,-73.95856158,member
8237A1D792466011,classic_bike,2023-11-08 17:57:35,2023-11-08 18:16:18,Lafayette St & Grand St,5422.09,John St & William St,5065.04,40.72028,-73.99879,40.70862144,-74.00722156,member
E59A01C37790EA4D,classic_bike,2023-11-20 08:29:40,2023-11-20 08:39:27,Albany St & Greenwich St,5145.02,Bleecker St & Crosby St,5679.08,40.709515691,-74.013439417,40.72615604980408,-73.99510189890862,member
D0CDAB86D4C0BD7F,classic_bike,2023-11-02 09:07:21,2023-11-02 09:13:20,Meserole Ave & Manhattan Ave,5666.04,N 5 St & Wythe Ave,5419.04,40.72708584,-73.95299117,40.718389,-73.961501,casual
564ACB2BD5AA28F9,classic_bike,2023-11-05 12:54:57,2023-11-05 13:21:06,Henry St & Middagh St,4861.05,Coffey St & Ferris St,4137.14,40.7003,-73.991581,40.67818387977647,-74.0170168876648,casual
36F1488DC8DFA92A,classic_bike,2023-11-01 15:43:47,2023-11-01 15:47:17,E 2 St & Ave A,5553.10,Ave A & E 11 St,5703.13,40.723336816,-73.986156583,40.72854745023944,-73.98175925016403,member
ECCB005A8435FDFB,classic_bike,2023-11-14 13:32:39,2023-11-14 13:48:53,South Railroad Ave & Broadway,6090.03,100 St & Lewis Ave,6105.02,40.741,-73.88027,40.73988,-73.86012,casual
72F30FCE4AD47F29,classic_bike,2023-11-02 22:17:22,2023-11-02 22:26:55,E 15 St & 3 Ave,5863.07,E 56 St & 3 Ave,6691.11,40.734134912,-73.986901879,40.75934501,-73.96759673,member
FCAFD76E221411C0,classic_bike,2023-11-07 20:42:23,2023-11-07 20:44:25,Fort Hamilton Pkwy & E 2 St,3280.04,Fort Hamilton Pkwy & E 5 St,3240.15,40.648005,-73.979342,40.649037,-73.97673,member
C8D5E06959CF3974,classic_bike,2023-11-13 12:27:19,2023-11-13 12:37:55,MacDougal St & Prince St,5687.04,St James Pl & Oliver St,5238.05,40.72710258,-74.00297088,40.71307916,-73.99851193,member
6525D84EBC48ED41,classic_bike,2023-11-03 23:05:45,2023-11-03 23:15:43,W 25 St & 8 Ave,6297.08,8 Ave & W 49 St,6747.07,40.74649996333341,-73.99732626293645,40.76171227910671,-73.98655101656914,casual
FD2A29F70C105948,classic_bike,2023-11-19 17:19:25,2023-11-19 17:29:07,E 63 St & 3 Ave,6830.02,E 44 St & Lexington Ave,6464.09,40.763954,-73.9646,40.752643,-73.974996,member
3C7DCB05BDC09391,classic_bike,2023-11-05 09:23:14,2023-11-05 09:26:36,Irving Ave & DeKalb Ave,4898.02,Knickerbocker Ave & George St,4979.07,40.7027,-73.92095,40.704425,-73.92836,member
9F45DC6581A39399,classic_bike,2023-11-17 11:59:43,2023-11-17 12:08:14,E 20 St & 2 Ave,5971.08,E 30 St & Park Ave S,6206.08,40.73587678,-73.98205027,40.74444921,-73.98303529,member
A3E709249800C42B,classic_bike,2023-11-10 09:12:31,2023-11-10 09:18:59,Amsterdam Ave & W 60 St,7023.09,5 Ave & E 72 St,7100.07,40.771192312,-73.98697614700001,40.77282817,-73.96685276,member
1B2BD9B3FE118C6B,classic_bike,2023-11-22 13:55:13,2023-11-22 14:02:37,W 100 St & Broadway,7580.01,Amsterdam Ave & W 82 St,7360.10,40.797486544,-73.970464587,40.78524672,-73.97667321,member
28B4A5ACED33E5BD,classic_bike,2023-11-28 18:26:36,2023-11-28 18:41:13,Morris Ave & McClellan St,8107.10,Prospect Ave & E 151 St,7830.03,40.831547141,-73.914971948,40.814232,-73.903927,casual
BFCB1D5803B94FAA,classic_bike,2023-11-26 00:26:38,2023-11-26 00:46:39,Great Jones St,5636.11,E 58 St & 1 Ave (NE Corner),6682.03,40.727507472,-73.993908167,40.75892386377695,-73.96226227283478,casual
DFF279213AF8DCF9,classic_bike,2023-11-18 09:34:38,2023-11-18 09:55:23,Rutland Rd & Brooklyn Ave,3576.1,Union Ave & Jackson St,5300.06,40.659720063,-73.9450984,40.7160751,-73.952029,member
08D54D0D411F7C8C,classic_bike,2023-11-12 10:31:48,2023-11-12 10:37:05,Stanton St & Norfolk St,5445.07,4 Ave & E 12 St,5788.15,40.720785141,-73.986338735,40.732647,-73.99011,member
514DACDC83075A8B,classic_bike,2023-11-05 16:40:39,2023-11-05 16:52:28,9 Ave & W 18 St,6190.08,Thompson St & Bleecker St,5721.07,40.743057847,-74.003807783,40.72840059450829,-73.99968780577183,member
338079FF1FAD30B3,classic_bike,2023-11-26 22:50:37,2023-11-26 22:54:30,Amsterdam Ave & W 60 St,7023.09,Amsterdam Ave & W 79 St,7311.02,40.77115643,-73.98698473,40.7829391,-73.9786517,member
DC9F6A8B67137099,classic_bike,2023-11-02 14:38:25,2023-11-02 14:47:57,W 13 St & 5 Ave,5947.04,Stanton St & Chrystie St,5523.02,40.735445,-73.99431,40.72229346,-73.99147535,member
813E20C843264F85,classic_bike,2023-11-20 00:01:05,2023-11-20 00:06:07,Wythe Ave & N 13 St,5558.04,Meserole Ave & Manhattan Ave,5666.04,40.722561479,-73.957224369,40.72708584,-73.95299117,member
325CAAFD17DD94D5,classic_bike,2023-11-05 15:06:20,2023-11-05 15:08:00,Kent Ave & Grand St,5388.01,S 2 St & Kent Ave,5276.04,40.81360565,-73.95647025,40.714731,-73.966612,member
D72DF9A09B591EB9,classic_bike,2023-11-27 16:17:09,2023-11-27 16:34:40,Cauldwell Ave & E 158 St,7913.15,Amsterdam Ave & W 172 St,8242.04,40.819815874,-73.908374429,40.842173,-73.935111,casual
800BE0A2E702D5BC,classic_bike,2023-11-29 07:53:15,2023-11-29 08:22:49,Leonard St & Church St,5359.11,E 56 St & Madison Ave,6732.01,40.717246175,-74.005504131,40.761573,-73.972628,member
B3E82DE5E083C89D,classic_bike,2023-11-02 08:42:31,2023-11-02 08:54:14,1 Ave & E 30 St,6079.03,W 35 St & 8 Ave,6526.01,40.741545796,-73.975364208,40.752762088742045,-73.99280458705107,member
D68020FAEC3312BB,classic_bike,2023-11-01 13:28:28,2023-11-01 13:33:42,Lincoln Ave & E 138 St,7744.06,E 147 St & Bergen Ave,7840.11,40.810893,-73.927311,40.814673,-73.91839,member
BABA101E8D754890,classic_bike,2023-11-20 19:39:39,2023-11-20 19:52:05,E 89 St & York Ave,7204.08,E 89 St & York Ave,7204.08,40.777965546,-73.945967436,40.7779453,-73.946041,member
64E83D05B3DFA4C8,classic_bike,2023-11-22 16:45:57,2023-11-22 17:07:44,E 39 St & Lexington Ave,6389.09,Henry St & Middagh St,4861.05,40.749394655,-73.976912022,40.7003,-73.991581,member
0A23E860CF5CCE5D,classic_bike,2023-11-08 19:22:20,2023-11-08 19:48:40,11 Ave & W 41 St,6726.01,Myrtle Ave & Fleet Pl,4628.07,40.760409713,-73.998762488,40.693534,-73.981909,member
41F5E409EC341960,classic_bike,2023-11-06 17:46:15,2023-11-06 17:54:42,E 16 St & 5 Ave,6022.04,E 6 St & 2 Ave,5669.12,40.73726186,-73.99238967,40.72737869323223,-73.98840844631195,member
9AF1F7960E4C6017,classic_bike,2023-11-27 20:54:10,2023-11-27 20:57:05,Washington Square E,5755.09,Broadway & E 14 St,5905.12,40.73049393,-73.9957214,40.73454567,-73.99074142,member
3CE1BC5FA779E397,classic_bike,2023-11-23 14:47:51,2023-11-23 14:49:26,Lenox Ave & W 117 St,7655.22,Adam Clayton Powell Blvd & W 115 St,7643.18,40.802465439,-73.94920814,40.802535,-73.9532423,member
F56D64C9841C3B41,classic_bike,2023-11-27 17:05:43,2023-11-27 17:15:30,7 Ave & Central Park South,6912.01,E 78 St & 2 Ave,7057.07,40.766619205,-73.979565382,40.7727966,-73.95577801,member
062625BFC82D971E,electric_bike,2023-11-17 08:12:48,2023-11-17 08:15:03,Franklin St & W Broadway,5430.08,W Broadway & Watts St,5569.07,40.71911552,-74.00666661,40.72323,-74.00314,member
0ED35649F729EE99,classic_bike,2023-11-09 16:03:35,2023-11-09 16:13:18,W 44 St & 5 Ave,6551.02,9 Ave & W 18 St,6190.08,40.76667736666667,-73.97879373333333,40.74317449,-74.00366443,member
CC56BA8920AAE8F1,classic_bike,2023-11-30 10:48:38,2023-11-30 10:51:29,Kent Ave & Grand St,5388.01,S 4 St & Wythe Ave,5204.05,40.716425,-73.96594,40.71285887,-73.96590294,member
D7789B2AACA71AAC,classic_bike,2023-11-03 21:46:14,2023-11-03 21:56:15,Plaza Dr & W 170 St,8213.01,E 147 St & Bergen Ave,7840.11,40.837748516666665,-73.91752695,40.814673,-73.91839,member
506F1DE8C9DDAE01,classic_bike,2023-11-16 12:33:48,2023-11-16 12:40:35,E 48 St & 5 Ave,6626.01,1 Ave & E 39 St,6303.01,40.75714457,-73.977756619,40.74714,-73.97113,member
9F3335030B766FEE,classic_bike,2023-11-05 18:46:22,2023-11-05 18:55:51,Prospect Pl & 6 Ave,4166.08,Brooklyn Ave & Dean St,4131.03,40.679337859,-73.975208521,40.67669,-73.94437,member
87A6A48BF5CE9FB7,classic_bike,2023-11-20 08:55:48,2023-11-20 09:05:51,MacDougal St & Prince St,5687.04,Vesey Pl & River Terrace,5297.02,40.72710258,-74.00297088,40.7153379,-74.01658354,member
3618514412160897,classic_bike,2023-11-13 21:19:45,2023-11-13 21:23:30,E 43 St & 2 Ave,6422.08,FDR Drive & E 35 St,6230.04,40.750398874,-73.971048117,40.744219,-73.97121214,member
79A8A80E1BEFD757,classic_bike,2023-11-08 16:01:24,2023-11-08 16:34:53,W 33 St & 10 Ave,6492.04,E 117 St & 1 Ave,7579.11,40.753593445,-73.999374628,40.79656826080296,-73.93459528684616,member
7144BCD75B1A1A74,classic_bike,2023-11-26 17:16:41,2023-11-26 17:51:24,W 64 St & Thelonious Monk Circle,7123.04,Allen St & Stanton St,5484.09,40.774991751,-73.988726854,40.722055,-73.989111,member
10BD5D35C02835A0,classic_bike,2023-11-01 07:51:40,2023-11-01 07:53:32,E 51 St & Lexington Ave,6659.01,W 52 St & 5 Ave,6700.01,40.757778883,-73.97188437,40.75992262,-73.97648516,member
20B9B6A53185EFDF,classic_bike,2023-11-07 20:15:11,2023-11-07 21:01:43,Broadway & W 56 St,6847.02,W 47 St & 6 Ave,6667.04,40.7652654,-73.98192338,40.758397,-73.98255,casual
B35A650A9A6AAC0E,classic_bike,2023-11-07 11:24:54,2023-11-07 11:35:58,7 Ave S & Bleecker St,5805.07,W 35 St & 8 Ave,6526.01,40.731735468,-74.003925681,40.752762088742045,-73.99280458705107,member
A0A100EF43CB91FA,classic_bike,2023-11-23 12:51:41,2023-11-23 12:55:41,E 10 St & 2 Ave,5746.02,E 6 St & Ave B,5584.04,40.72970805644994,-73.9865979552269,40.72453734,-73.98185424,member
BF687F451B1E7945,classic_bike,2023-11-03 20:46:18,2023-11-03 21:03:17,Vernon Blvd & 50 Ave,6170.02,W 56 St & 6 Ave,6809.07,40.742515564,-73.954164028,40.76340613,-73.97722479,member
17E9B6269B024272,classic_bike,2023-11-30 09:10:56,2023-11-30 09:22:49,Lafayette St & Grand St,5422.09,Vesey Pl & River Terrace,5297.02,40.72028,-73.99879,40.7153379,-74.01658354,member
73D864EBB5AD3222,classic_bike,2023-11-08 08:05:02,2023-11-08 08:18:39,E 81 St & 1 Ave,7121.13,E 59 St & Madison Ave,6801.01,40.77377781072322,-73.95197331905365,40.76350532,-73.97109243,member
A37A57A408235751,classic_bike,2023-11-27 22:17:14,2023-11-27 22:21:00,E 7 St & Ave A,5626.07,1 Ave & E 18 St,5854.09,40.726120949,-73.983888507,40.73381219196632,-73.98054420948029,member
A2696BA2AA389E6D,classic_bike,2023-11-06 17:29:50,2023-11-06 17:33:18,Broadway & E 21 St,6098.10,W 27 St & 6 Ave,6215.07,40.73988840858996,-73.98958593606949,40.74526,-73.99062,member
1AA3DA48510C7232,classic_bike,2023-11-09 09:10:28,2023-11-09 09:21:42,W 74 St & Columbus Ave,7230.10,Broadway & W 48 St,6708.04,40.7785669,-73.97754961,40.76017739537783,-73.98486793041229,member
CF3D6D18B2017DF3,classic_bike,2023-11-19 08:01:15,2023-11-19 08:02:03,Vesey St & Church St,5216.06,Vesey St & Church St,5216.06,40.71221958009051,-74.01047229766846,40.71221958009051,-74.01047229766846,member
D9FC2854F0C90924,classic_bike,2023-11-06 07:12:37,2023-11-06 07:45:10,Amsterdam Ave & W 73 St,7260.09,Greenwich St & W Houston St,5730.08,40.77966809007312,-73.98093044757842,40.728846,-74.008591,member
D73F3443246FD6E1,classic_bike,2023-11-01 06:23:13,2023-11-01 06:32:20,Central Park West & W 72 St,7141.07,W 55 St & 6 Ave,6809.09,40.77579376683666,-73.9762057363987,40.763189,-73.978434,member
F597A2F64201B48C,classic_bike,2023-11-16 06:14:57,2023-11-16 06:19:47,St Nicholas Ave & W 126 St,7756.10,Lenox Ave & W 140 St,7872.03,40.811452866,-73.951982856,40.817245,-73.938787,member
1E6E92031E32DAB3,classic_bike,2023-11-24 10:02:52,2023-11-24 10:14:06,West St & Liberty St,5184.08,W Broadway & Watts St,5569.07,40.711444,-74.014847,40.72323,-74.00314,member
1F733F609D24AB2B,classic_bike,2023-11-03 08:15:10,2023-11-03 08:22:35,E 89 St & York Ave,7204.08,E 78 St & 2 Ave,7057.07,40.7779453,-73.946041,40.7727966,-73.95577801,member
E44DC95238BD2987,classic_bike,2023-11-09 10:08:09,2023-11-09 10:42:27,Rivington St & Chrystie St,5453.01,N 10 St & Berry St,5450.01,40.72110063,-73.9919254,40.720253,-73.957082,casual
AEDA6CACE9CA6F0C,classic_bike,2023-11-01 12:32:51,2023-11-01 12:37:12,University Pl & E 8 St,5755.14,E 15 St & 3 Ave,5863.07,40.73143724085228,-73.99490341544151,40.734232,-73.986923,member
5C39102C1FA7D5F5,classic_bike,2023-11-08 17:43:12,2023-11-08 17:55:30,8 Ave & W 31 St,6450.05,W 64 St & Thelonious Monk Circle,7123.04,40.750476122,-73.994762301,40.77515953434235,-73.98918695747852,member
2D2FEFE9AA4751E8,classic_bike,2023-11-20 10:49:54,2023-11-20 10:55:45,Greenwich St & Hubert St,5470.10,Vesey St & Church St,5216.06,40.721166968,-74.00987184,40.71221958009051,-74.01047229766846,member
80D7FC3C887DD7A6,classic_bike,2023-11-24 13:14:25,2023-11-24 13:43:35,Lafayette St & Jersey St,5561.06,Henry St & Atlantic Ave,4531.05,40.72456089,-73.99565293,40.69089272,-73.99612349,member
71992800D1559C1B,classic_bike,2023-11-01 07:45:43,2023-11-01 07:49:51,Vesey Pl & River Terrace,5297.02,Greenwich St & Hubert St,5470.10,40.71526587,-74.016291738,40.721319,-74.010065,member
336D884F501B5FF6,classic_bike,2023-11-03 08:24:43,2023-11-03 08:35:35,Jerome Ave & Ogden Ave,8081.01,E 163 St & Union Ave,7970.05,40.829849005,-73.931038737,40.822545,-73.901824,member
66968577B7707BC2,classic_bike,2023-11-02 15:26:17,2023-11-02 15:39:09,4 Ave & 17 St,3739.06,45 St & 4 Ave,3275.03,40.665507,-73.993037,40.649145,-74.009486,member
7D2A756C73D37CE2,classic_bike,2023-11-05 08:27:55,2023-11-05 08:32:36,Riverside Dr & W 91 St,7524.16,Riverside Blvd & W 67 St,7183.03,40.793348312,-73.977035642,40.777507027547976,-73.98888587951659,member
4D3BF772E7126702,classic_bike,2023-11-08 07:18:56,2023-11-08 07:20:32,W 13 St & 5 Ave,5947.04,W 13 St & 7 Ave,6030.04,40.735687256,-73.994792819,40.73781509,-73.99994661,member
D83481DF6528608A,classic_bike,2023-11-13 14:48:47,2023-11-13 14:55:31,Sterling Pl & New York Ave,3984.02,Eastern Pkwy & Rochester Ave,3853.02,40.672455311,-73.947646022,40.66846,-73.9282,member
00E757300ECD4243,classic_bike,2023-11-13 08:04:48,2023-11-13 08:29:25,Lafayette Ave & St James Pl,4494.04,E 20 St & Park Ave,6055.08,40.688693643,-73.964764118,40.73827428,-73.98751968,member
564E7C6A5A826191,classic_bike,2023-11-16 17:37:59,2023-11-16 17:49:49,Grand Concourse & E 175 St,8303.06,Goulden Ave & Bedford Park Blvd,8738.01,40.846254468,-73.909355164,40.87387,-73.89533,member
85737957C3761814,classic_bike,2023-11-12 14:14:02,2023-11-12 14:56:41,5 Ave & 67 St,2782.02,Pike St & Monroe St,5159.04,40.635900497,-74.019816875,40.71173107,-73.99193043,member
22A2DCF8EA6A5F1C,classic_bike,2023-11-18 19:05:43,2023-11-18 19:21:08,8 Ave & W 31 St,6450.05,1 Ave & E 18 St,5854.09,40.7505853470215,-73.9946848154068,40.73381219196632,-73.98054420948029,member
BDA165A3CBE15E9A,classic_bike,2023-11-10 18:16:50,2023-11-10 18:25:35,Perry St & Bleecker St,5922.07,4 Ave & E 12 St,5788.15,40.735330224,-74.004729152,40.732647,-73.99011,member
17189E6BA1E5D31C,classic_bike,2023-11-06 18:56:58,2023-11-06 19:06:31,Jay St & York St,4895.09,Schermerhorn St & Hoyt St,4479.1,40.70140317257725,-73.98672670125961,40.6886263,-73.9851911,member
E9E621162BF19511,classic_bike,2023-11-04 09:33:25,2023-11-04 09:47:29,E 51 St & 2 Ave,6575.03,Washington Pl & Broadway,5755.01,40.755403399,-73.967623115,40.72903917,-73.99404649,member
BA7232E363A688FB,classic_bike,2023-11-07 14:44:27,2023-11-07 14:58:55,W 42 St & 6 Ave,6517.08,W 13 St & 5 Ave,5947.04,40.755073309,-73.984407187,40.735445,-73.99431,member
1D0151460C6CFC8C,classic_bike,2023-11-15 16:00:50,2023-11-15 16:07:44,W 42 St & 6 Ave,6517.08,W 35 St & 8 Ave,6526.01,40.755127668,-73.984786987,40.752762088742045,-73.99280458705107,member
147BBA04A799F526,classic_bike,2023-11-03 16:48:56,2023-11-03 16:51:43,Bergen St & Flatbush Ave,4281.08,7 Ave & Park Pl,4125.07,40.680944723477296,-73.97567331790923,40.6776147,-73.97324283,member
2220139FD9DE4025,classic_bike,2023-11-09 16:23:50,2023-11-09 16:56:52,W 31 St & 7 Ave,6331.01,E 81 St & York Ave,7084.12,40.749156,-73.9916,40.7728384,-73.94989233,member
903AB957017136BE,classic_bike,2023-11-23 07:53:02,2023-11-23 07:58:12,Amsterdam Ave & W 172 St,8242.04,Amsterdam Ave & W 189 St,8432.11,40.84218657,-73.935093284,40.85318758861975,-73.92715752124786,member
13CFBD4CD7537C36,classic_bike,2023-11-11 10:27:14,2023-11-11 10:38:21,E 4 St & Ave B,5515.08,1 Ave & E 39 St,6303.01,40.723319769,-73.983056068,40.74714,-73.97113,member
25FA0A0E108753A9,classic_bike,2023-11-04 20:49:48,2023-11-04 21:06:12,5 Ave & E 30 St,6248.08,E 56 St & 3 Ave,6691.11,40.745787978,-73.986229181,40.75934501,-73.96759673,casual
EB1EC5692D819766,classic_bike,2023-11-25 10:10:26,2023-11-25 10:20:19,31 Ave & 34 St,6819.15,27 St & Hunter St,6310.06,40.763146758,-73.920862079,40.7485,-73.941275,member
899D584A4E0CAA24,classic_bike,2023-11-13 13:29:01,2023-11-13 14:06:21,E 5 St & Ave C,5545.04,Central Park W & W 91 St,7453.01,40.72297585,-73.979964972,40.78866499127884,-73.96680057048798,member
8FFCAC01FF16E0FC,classic_bike,2023-11-17 09:22:39,2023-11-17 09:30:53,Douglass St & 3 Ave,4217.02,10 St & 5 Ave,3842.08,40.6802133,-73.98432695,40.6686273,-73.98700053,member
780858E4591E37CA,classic_bike,2023-11-09 07:49:54,2023-11-09 07:55:16,E 20 St & FDR Dr,5886.13,St Marks Pl & 2 Ave,5669.10,40.733208626522426,-73.9756813647,40.7284186,-73.98713956,member
C89C32EA6310179E,classic_bike,2023-11-21 06:56:33,2023-11-21 07:04:32,West St & Liberty St,5184.08,Greenwich St & Perry St,5922.04,40.711636424,-74.014862776,40.73498,-74.00697,member
6E561C91736AA8C9,classic_bike,2023-11-30 17:52:24,2023-11-30 18:23:01,Spruce St & Nassau St,5137.10,W 76 St & Columbus Ave,7281.09,40.711133242,-74.006122589,40.7801839724239,-73.97728532552719,casual
BE425A6C6DD8DA23,classic_bike,2023-11-29 17:51:48,2023-11-29 18:01:45,W 104 St & Amsterdam Ave,7610.13,Adam Clayton Powell Blvd & W 115 St,7643.18,40.79904139288298,-73.96649479866028,40.802535,-73.9532423,member
D7046FA8DD3D228B,classic_bike,2023-11-15 18:06:52,2023-11-15 18:13:03,Nassau Ave & Newell St,5623.03,N 7 St & Driggs Ave,5340.01,40.724851608,-73.947684884,40.716967,-73.956388,casual
A3F12648A3A94D20,classic_bike,2023-11-10 15:01:18,2023-11-10 15:13:34,Bank St & Hudson St,5922.08,8 Ave & W 38 St,6526.05,40.73652889,-74.00618026,40.75461,-73.99177,casual
052447264D885663,classic_bike,2023-11-30 11:50:01,2023-11-30 11:55:37,Concord St & Bridge St,4781.03,Clinton Ave & Flushing Ave,4762.04,40.69766564,-73.98476437,40.69794,-73.96986848,member
E13CEA68120D01AE,classic_bike,2023-11-16 19:10:41,2023-11-16 19:19:11,Amsterdam Ave & W 82 St,7360.10,W 76 St & Columbus Ave,7281.09,40.785214424,-73.976738691,40.7801839724239,-73.97728532552719,member
1595DFA6394F8C1E,electric_bike,2023-11-18 10:10:31,2023-11-18 10:36:37,E 19 St & 3 Ave,5938.01,W 52 St & 6 Ave,6740.01,40.73624527,-73.98473765,40.76132983124814,-73.97982001304626,casual
1C3E480C7EB6A327,classic_bike,2023-11-20 14:26:05,2023-11-20 14:31:50,3 St & Prospect Park West,3865.05,Bergen St & Flatbush Ave,4281.08,40.668163538,-73.97352016,40.680944723477296,-73.97567331790923,member
39D91A49D99ED03D,classic_bike,2023-11-13 19:58:33,2023-11-13 20:05:44,Hope St & Union Ave,5187.03,White St & Johnson Ave,5099.03,40.711741209,-73.951512814,40.707174,-73.93581,member
509B9AB072BA1FBE,classic_bike,2023-11-20 16:36:59,2023-11-20 16:45:57,W 33 St & 10 Ave,6492.04,University Pl & E 8 St,5755.14,40.753524542,-73.99958086,40.73143724085228,-73.99490341544151,member
0A99C1C8AC497AC8,classic_bike,2023-11-06 12:00:28,2023-11-06 12:14:05,E 13 St & 2 Ave,5820.08,Broadway & E 19 St,6098.12,40.731406689,-73.985218883,40.73866091428551,-73.98987293243407,member
A6AAEF80AA765D20,classic_bike,2023-11-24 14:40:51,2023-11-24 15:28:42,Mercer St & Spring St,5532.01,University Pl & E 14 St,5905.14,40.723574162,-73.999357939,40.734814,-73.992085,member
072DFE4249FDB4FC,classic_bike,2023-11-01 04:44:34,2023-11-01 04:57:07,W 56 St & 8 Ave,6884.03,E 84 St & Park Ave,7243.04,40.765841246,-73.982974648,40.77862688,-73.95772073,member
8202C91A1154CF84,electric_bike,2023-11-06 16:51:43,2023-11-06 17:07:03,Bridge St & York St,4853.06,Vesey St & Church St,5216.06,40.70133448066992,-73.98471236228943,40.71221958009051,-74.01047229766846,member
AA26782EA811B48E,classic_bike,2023-11-12 17:51:44,2023-11-12 18:08:56,Bridge St & York St,4853.06,E 10 St & Ave A,5659.05,40.70133448066992,-73.98471236228943,40.72740794,-73.98142006,member
68EC7C5FDEBA08E4,classic_bike,2023-11-17 20:00:45,2023-11-17 20:16:30,6 Ave & W 45 St,6593.15,E 95 St & 3 Ave,7365.13,40.756717086,-73.982192039,40.7849032,-73.950503,member
EE2793B3E4AC53B8,classic_bike,2023-11-14 13:11:47,2023-11-14 13:18:08,9 Ave & W 18 St,6190.08,Broadway & E 14 St,5905.12,40.743011236,-74.003707409,40.73454567,-73.99074142,member
5536F834250BDD41,classic_bike,2023-11-24 11:46:25,2023-11-24 12:11:42,North Moore St & Greenwich St,5470.12,E 41 St & Madison Ave (SE corner),6432.10,40.72019521437465,-74.0103006362915,40.752049,-73.979635,member
DCF6C7F63D0F228A,classic_bike,2023-11-30 14:15:16,2023-11-30 15:00:56,W 34 St & 11 Ave,6578.01,E 95 St & 3 Ave,7365.13,40.756313682,-74.002762914,40.7849032,-73.950503,member
319A386CABE4BB6E,classic_bike,2023-11-27 06:21:57,2023-11-27 06:26:21,Lewis Ave & Greene Ave,4543.07,Broadway & Kosciuszko St,4608.01,40.68995,-73.9365,40.69329,-73.92852,member
21F7740C37FBD38C,classic_bike,2023-11-24 12:48:33,2023-11-24 12:54:04,E 138 St & Cypress Ave,7669.10,Sunken Meadow Comfort Station,7571.01,40.805585504,-73.914861798,40.79558,-73.91906,member
CB6F99A227020DAB,classic_bike,2023-11-03 14:14:16,2023-11-03 14:17:44,W 50 St & 10 Ave,6890.06,8 Ave & W 49 St,6747.07,40.76473420006519,-73.99194359779358,40.76171227910671,-73.98655101656914,member
01B3B60C607B7A03,classic_bike,2023-11-02 15:43:22,2023-11-02 15:54:47,5 Ave & E 30 St,6248.08,8 Ave & W 38 St,6526.05,40.7459849,-73.98629487,40.75461,-73.99177,casual
DD8C391539DBEA76,classic_bike,2023-11-30 13:31:48,2023-11-30 13:36:08,W 59 St & 10 Ave,7023.04,Broadway & W 58 St,6948.10,40.771026254,-73.988378882,40.76695317,-73.98169333,member
CB1DAEAC8DEC849A,classic_bike,2023-11-23 12:01:51,2023-11-23 12:11:25,Bedford Ave & S 9 St,5093.01,Clinton Ave & Flushing Ave,4762.04,40.70853074,-73.96408963,40.69794,-73.96986848,member
D33D7F9722ED4293,classic_bike,2023-11-02 21:08:23,2023-11-02 21:09:59,E 55 St & 2 Ave,6650.07,E 51 St & 2 Ave,6575.03,40.757872343,-73.96619153,40.755293,-73.967641,member
2C1CE778F45C5BF5,classic_bike,2023-11-08 18:15:39,2023-11-08 18:31:52,Ashland Pl & Dekalb Ave,4513.09,Lispenard St & Broadway,5391.06,40.690126657,-73.978764653,40.71939226,-74.00247214,member
AEBABADAF28AB7F3,classic_bike,2023-11-17 12:15:09,2023-11-17 12:18:21,Lexington Ave & E 24 St,6089.07,4 Ave & E 12 St,5788.15,40.740412712,-73.984128475,40.732647,-73.99011,member
4EE4E44959B4DE73,classic_bike,2023-11-05 15:40:35,2023-11-05 15:59:46,Marcus Garvey Blvd & Macon St,4278.03,Bedford Ave & Beverley Rd,3140.09,40.682570338,-73.937986612,40.64491,-73.95487,member
73BD824FF6CD4B57,classic_bike,2023-11-03 20:33:51,2023-11-03 20:37:07,Ave A & E 11 St,5703.13,1 Ave & E 18 St,5854.09,40.728821039,-73.981651306,40.73381219196632,-73.98054420948029,member
C5C7256F4C6F740D,classic_bike,2023-11-26 12:14:05,2023-11-26 12:30:27,Lincoln Rd & Ocean Ave,3633.08,DeKalb Ave & Hudson Ave,4513.06,40.6605,-73.9626,40.689888,-73.981013,member
BCDD9218772DF6D1,classic_bike,2023-11-18 23:36:58,2023-11-18 23:48:24,Division Ave & Hooper St,5045.05,Meserole Ave & Manhattan Ave,5666.04,40.706954002,-73.954333663,40.72708584,-73.95299117,member
64D3712B1D716BE1,classic_bike,2023-11-17 13:57:07,2023-11-17 14:32:12,12 Ave & W 125 St,7886.02,W 181 St & Riverside Dr,8381.04,40.818299,-73.960405,40.85168,-73.94186,casual
FEF368997D0B295B,classic_bike,2023-11-17 08:03:23,2023-11-17 08:36:01,Marcy Ave & Lafayette Ave,4476.03,E 41 St & Madison Ave (SE corner),6432.10,40.690143704,-73.947916389,40.752049,-73.979635,member
306190E463119985,classic_bike,2023-11-11 09:40:41,2023-11-11 10:12:59,W 144 St & Adam Clayton Powell Blvd,7932.10,Edgecombe Ave & W 150 St,8049.05,40.820817232,-73.939099789,40.826881,-73.941427,member
9BE5269636CCDA0D,classic_bike,2023-11-26 02:54:51,2023-11-26 03:10:35,Sullivan Pl & Bedford Ave,3736.04,Union St & 4 Ave,4175.15,40.6642406,-73.9574686,40.6772744,-73.98282002,member
77748F68EDD149F1,classic_bike,2023-11-02 15:28:40,2023-11-02 15:37:52,Grand Army Plaza & Central Park S,6839.10,W 20 St & 5 Ave,6098.02,40.764249325,-73.973996282,40.73972989238724,-73.99103969335556,member
06A8526500BE6A76,classic_bike,2023-11-10 15:06:09,2023-11-10 15:14:37,1 Ave & E 44 St,6379.03,3 Ave & E 62 St,6762.04,40.749756455,-73.969331384,40.76312584,-73.96526895,member
EF201838C220D248,classic_bike,2023-11-06 18:06:36,2023-11-06 18:13:24,14 St & 7 Ave,3731.11,Prospect Ave & Vanderbilt St,3426.02,40.663809419,-73.984016061,40.653368,-73.976291,member
1822C65DD5F7B0EC,classic_bike,2023-11-28 09:11:41,2023-11-28 09:12:29,Broadway & W 53 St,6779.05,Broadway & W 56 St,6847.02,40.76344058,-73.98268129,40.7652654,-73.98192338,member
0985841B14D9C0D5,classic_bike,2023-11-04 15:20:05,2023-11-04 15:20:56,Amsterdam Ave & W 73 St,7260.09,Amsterdam Ave & W 73 St,7260.09,40.77966809007312,-73.98093044757842,40.77966809007312,-73.98093044757842,member
0B3903AC81662D92,classic_bike,2023-11-01 17:26:03,2023-11-01 17:31:49,W 51 St & 6 Ave,6740.10,8 Ave & W 33 St,6450.12,40.760904312,-73.980548263,40.751551,-73.993934,member
98DA7D52DC8D0D98,classic_bike,2023-11-26 09:30:19,2023-11-26 09:45:24,46 St & 25 Ave,6907.03,44 Dr & Jackson Ave,6352.01,40.76586616,-73.906789422,40.74718234,-73.9432635,member
ABEBB798740CBC82,classic_bike,2023-11-16 10:31:21,2023-11-16 10:31:24,W 27 St & 6 Ave,6215.07,W 27 St & 6 Ave,6215.07,40.74526,-73.99062,40.74526,-73.99062,member
DB0DBB6637BA30A3,classic_bike,2023-11-05 15:50:49,2023-11-05 16:00:34,Broadway & E 19 St,6098.12,Broadway & E 14 St,5905.12,40.73866091428551,-73.98987293243407,40.73454567,-73.99074142,member
EDDB5DD7A317566C,classic_bike,2023-11-15 08:50:28,2023-11-15 08:53:11,W 27 St & 7 Ave,6247.06,W 29 St & 9 Ave,6416.06,40.746647,-73.993915,40.7500727,-73.99839279,member
1459FE865C55A1CC,classic_bike,2023-11-14 18:16:15,2023-11-14 18:31:25,W 43 St & 10 Ave,6756.01,W 52 St & 5 Ave,6700.01,40.760097265,-73.994488001,40.75992262,-73.97648516,casual
6E77D5E7EC084A47,classic_bike,2023-11-11 00:32:52,2023-11-11 00:35:55,Fulton St & Adams St,4637.06,Hicks St & Montague St,4645.09,40.69241829257847,-73.98949474096298,40.69512845,-73.99595065,member
26BDDB9C74F91740,classic_bike,2023-11-19 12:10:42,2023-11-19 12:32:46,8 Ave & W 16 St,6072.11,W 64 St & Thelonious Monk Circle,7123.04,40.740983,-74.001702,40.77515953434235,-73.98918695747852,member
555DECAFC767F44E,classic_bike,2023-11-21 12:17:56,2023-11-21 12:25:33,1 Ave & E 30 St,6079.03,E 41 St & Madison Ave (SE corner),6432.10,40.741439342,-73.975296974,40.752049,-73.979635,member
13330B152B62D6DA,classic_bike,2023-11-07 15:42:07,2023-11-07 15:45:57,E 91 St & 2 Ave,7286.01,E 78 St & 2 Ave,7057.07,40.781303167,-73.950119853,40.7727966,-73.95577801,member
59DFF24121C65688,classic_bike,2023-11-28 18:37:56,2023-11-28 18:48:25,W 54 St & 11 Ave,6955.05,E 68 St & 3 Ave,6896.16,40.768381834,-73.992591143,40.76712840349542,-73.96224617958069,member
219430F127A1DC7C,classic_bike,2023-11-30 09:52:50,2023-11-30 10:05:12,Ralph Ave & Fulton St,4220.02,Central Ave & Weirfield St,4591.04,40.679410458,-73.92192328,40.69055,-73.91181,member
6EA599B15E4843D8,classic_bike,2023-11-22 18:41:54,2023-11-22 18:48:49,21 Ave & 80 St,7060.02,20 Ave & 38 St,7196.04,40.770865798,-73.889892578,40.777112,-73.902382,member
AC020723130BD279,classic_bike,2023-11-12 16:59:24,2023-11-12 17:06:40,West End Ave & W 60 St,7059.08,Amsterdam Ave & W 73 St,7260.09,40.772438169,-73.989770651,40.77966809007312,-73.98093044757842,member
2C87A2416BF8EF84,classic_bike,2023-11-30 18:21:24,2023-11-30 18:32:35,6 Ave & W 33 St,6364.07,E 6 St & 2 Ave,5669.12,40.74887085,-73.988640785,40.72737869323223,-73.98840844631195,member
03F2A610EF4FFCDD,classic_bike,2023-11-05 22:34:08,2023-11-05 22:51:30,Broadway & Roebling St,5125.07,Dean St & Franklin Ave,4107.13,40.709245443,-73.960635662,40.67759206937376,-73.955637216568,casual
DF8F4F801937F265,classic_bike,2023-11-07 14:09:45,2023-11-07 14:15:51,5 Ave & E 78 St,7161.08,5 Ave & E 72 St,7100.07,40.77632142182271,-73.96427392959595,40.77282817,-73.96685276,casual
194D7B55E537EB98,classic_bike,2023-11-14 18:31:12,2023-11-14 18:35:19,North Moore St & Greenwich St,5470.12,Vesey Pl & River Terrace,5297.02,40.72019521437465,-74.0103006362915,40.7153379,-74.01658354,member
D4805F288BDC933E,classic_bike,2023-11-07 11:59:26,2023-11-07 12:05:46,Great Jones St,5636.11,Ave A & E 11 St,5703.13,40.727489114,-73.993816614,40.72854745023944,-73.98175925016403,member
EF9347CCED031241,classic_bike,2023-11-29 08:22:59,2023-11-29 08:28:03,E 48 St & 3 Ave,6541.03,8 Ave & W 49 St,6747.07,40.755036354,-73.972019792,40.76171227910671,-73.98655101656914,member
E62A58A7EC983A84,classic_bike,2023-11-23 15:24:50,2023-11-23 15:27:06,W 50 St & 10 Ave,6890.06,8 Ave & W 49 St,6747.07,40.764916778,-73.992043138,40.76171227910671,-73.98655101656914,member
21C0739B3A53545F,classic_bike,2023-11-06 15:19:36,2023-11-06 15:21:11,W 87 St & Amsterdam Ave,7458.03,W 87 St & West End Ave,7484.05,40.78839,-73.9747,40.789622,-73.97757,member
BA1F8785E65E1A7B,classic_bike,2023-11-25 12:51:21,2023-11-25 12:57:08,Westchester Ave & Jackson Ave,7853.01,Barry St & Tiffany St,7844.05,40.816017509,-73.908173919,40.816126,-73.891559,member
A34DC91AB85D2085,classic_bike,2023-11-20 16:14:50,2023-11-20 16:33:40,Main St & Plymouth St,4936.21,Monroe St & Bedford Ave,4368.05,40.70348084,-73.990368962,40.6851443,-73.95380904,member
4753AEF9C0A18ABB,classic_bike,2023-11-23 09:08:09,2023-11-23 09:18:21,10 Ave & W 28 St,6459.04,W 70 St & Amsterdam Ave,7207.08,40.750527501,-74.001905918,40.77748046,-73.98288594,member
BDF510E83CE5676F,classic_bike,2023-11-06 16:28:28,2023-11-06 16:30:51,Nassau Ave & Newell St,5623.03,Norman Ave & Leonard St,5666.11,40.724705219,-73.947767258,40.725819,-73.950815,member
AD08296CEB756196,classic_bike,2023-11-02 14:14:13,2023-11-02 14:26:19,Pierrepont St & Monroe Pl,4718.08,Canal St & Rutgers St,5303.08,40.695410132,-73.993615985,40.71427487,-73.98990025,member
60A035EF16E8CBA3,classic_bike,2023-11-26 20:45:31,2023-11-26 20:47:50,Parkside Ave & Ocean Ave,3448.02,Lincoln Rd & Ocean Ave,3633.08,40.65485,-73.96217,40.6605,-73.9626,member
90E7A2FBDC1448E1,classic_bike,2023-11-09 22:27:48,2023-11-09 22:29:42,Lenox Ave & W 117 St,7655.22,Adam Clayton Powell Blvd & W 115 St,7643.18,40.802429795,-73.949101806,40.802535,-73.9532423,member
751491FFE7E5C33F,electric_bike,2023-11-13 18:19:15,2023-11-13 18:22:12,23 Ave & 31 St,7082.08,21 St & 23 Ave,7210.07,40.77423301703027,-73.91274864321404,40.778557,-73.919046,member
DEA0D9F3C2C2D0BD,classic_bike,2023-11-04 12:46:18,2023-11-04 12:55:46,W 20 St & 10 Ave,6306.01,Broadway & E 14 St,5905.12,40.745492101,-74.005001664,40.73454567,-73.99074142,member
97A54D0A4B92729A,classic_bike,2023-11-22 10:27:23,2023-11-22 10:30:04,W 20 St & 10 Ave,6306.01,W 20 St & 7 Ave,6182.02,40.745667696,-74.004983664,40.74238787,-73.99726235,member
