ride_id,rideable_type,started_at,ended_at,start_station_name,start_station_id,end_station_name,end_station_id,start_lat,start_lng,end_lat,end_lng,member_casual
A2199480ED68310C,classic_bike,2023-02-17 17:23:20,2023-02-17 17:34:18,W 30 St & 10 Ave,6459.07,West St & Chambers St,5329.03,40.752777934,-74.003322363,40.71754834,-74.01322069,member
EBCFB673DB407C69,classic_bike,2023-02-06 19:29:47,2023-02-06 19:41:14,E 41 St & Madison Ave (SE corner),6432.10,Ave A & E 14 St,5779.11,40.752049,-73.979635,40.73031071000895,-73.98047178983688,member
6A6A5E0A108D8B42,classic_bike,2023-02-13 06:49:55,2023-02-13 06:52:21,Crescent St & Ditmars Blvd,7233.05,31 St & 23 Ave,7144.01,40.7787185,-73.9145645,40.7747878,-73.9125551,member
C8C2375B8AF3775A,classic_bike,2023-02-14 09:15:21,2023-02-14 09:30:42,William St & Pine St,5065.12,10 Ave & W 28 St,6459.04,40.707089424,-74.008961201,40.75066386,-74.00176802,member
C84762F6008561F6,classic_bike,2023-02-03 17:04:41,2023-02-03 17:10:47,E 7 St & Avenue A,5626.07,Cooper Square & Astor Pl,5712.03,40.72621788,-73.98379855,40.72951496224949,-73.99075269699097,member
ABD5DE451C4DF189,classic_bike,2023-02-11 17:36:49,2023-02-11 17:38:53,W 147 St & Adam Clayton Powell Blvd,7971.07,Adam Clayton Powell Blvd & W 141 St,7893.05,40.82258451,-73.937430859,40.819241,-73.941057,member
276737F77E5B895E,classic_bike,2023-02-23 13:50:04,2023-02-23 14:06:26,E 11 St & Avenue B,5659.11,Mercer St & Bleecker St,5679.05,40.72746420692392,-73.97950418293476,40.72706363348306,-73.99662137031554,member
4E69170E0F6D333C,classic_bike,2023-02-15 15:40:38,2023-02-15 15:47:10,E 44 St & Lexington Ave,6464.09,E 54 St & 1 Ave,6608.09,40.752643,-73.974996,40.756265,-73.964179,member
6EA966590458ACE2,classic_bike,2023-02-15 14:06:24,2023-02-15 14:12:51,Willoughby St & Fleet St,4628.05,Flushing Ave & Vanderbilt Ave,4762.05,40.69196566,-73.9813018,40.69795031569544,-73.97077560424805,member
2FC322A99F9F54CE,electric_bike,2023-02-01 08:50:08,2023-02-01 08:54:58,Broadway & W 38 St,6560.15,Madison Ave & E 26 St,6131.12,40.7529728216068,-73.98734897375107,40.742684734875695,-73.98671329021454,member
7894A34BE00F8894,classic_bike,2023-02-16 19:00:41,2023-02-16 19:06:20,9 Ave & W 22 St,6266.06,7 Ave S & Bleecker St,5805.07,40.7454973,-74.00197139,40.73213896287381,-74.00363802909851,member
36157B5D2D4E6936,classic_bike,2023-02-09 19:11:37,2023-02-09 19:14:32,W 20 St & 10 Ave,6306.01,W 26 St & 10 Ave,6382.05,40.745686,-74.005141,40.749717753,-74.002950346,casual
CF10C6405AA5CE1B,classic_bike,2023-02-06 16:13:52,2023-02-06 16:18:12,W 21 St & 6 Ave,6140.05,9 Ave & W 22 St,6266.06,40.74173969,-73.99415556,40.7454973,-74.00197139,member
B38EB480C572CED2,classic_bike,2023-02-02 11:17:20,2023-02-02 11:38:25,Front St & Gold St,4927.04,Myrtle Ave & Lewis Ave,4729.01,40.702347159,-73.982471347,40.69681963,-73.93756926,casual
CD4A41933BE865EF,classic_bike,2023-02-17 08:29:53,2023-02-17 08:37:45,N 15 St & Wythe Ave,5520.09,S 4 St & Wythe Ave,5204.05,40.724092484,-73.955752134,40.71285887,-73.96590294,member
94FCE1CEBEFC1D6B,electric_bike,2023-02-16 14:12:50,2023-02-16 14:24:24,W 12 St & Hudson St,5997.10,Broadway & W 48 St,6708.04,40.73752993301071,-74.00558933615685,40.76017739537783,-73.98486793041229,member
8E8A59FAA5F9E201,classic_bike,2023-02-14 11:51:09,2023-02-14 11:52:01,E 1 St & 1 Ave,5593.01,E 3 St & 1 Ave,5553.03,40.72335597960796,-73.98864984512329,40.72467721,-73.98783413,member
60EAF7A943771708,classic_bike,2023-02-08 15:26:26,2023-02-08 15:34:19,E 97 St & 3 Ave,7365.08,E 81 St & York Ave,7084.12,40.7859201,-73.94860294,40.7728384,-73.94989233,member
3DB26DB39F07AF9F,classic_bike,2023-02-28 19:57:25,2023-02-28 20:03:24,Ave D & E 8 St,5506.1,E 6 St & Avenue D,5506.14,40.72368361,-73.97574813,40.72228087,-73.97668709,member
4225C6795117E64A,electric_bike,2023-02-07 17:53:35,2023-02-07 18:04:31,Cleveland Pl & Spring St,5492.05,Old Slip & South St,4993.13,40.722103786686034,-73.99724900722504,40.70336686695866,-74.007867872715,member
80B57D0F132735B7,classic_bike,2023-02-05 17:22:11,2023-02-05 17:33:50,W 104 St & Amsterdam Ave,7610.13,E 89 St & York Ave,7204.08,40.79896903,-73.96649754,40.7779453,-73.946041,member
990EA37A47C558C4,electric_bike,2023-02-23 09:30:29,2023-02-23 09:37:02,W 25 St & 6 Ave,6215.04,W 22 St & 10 Ave,6306.06,40.74395411,-73.99144871,40.74691959,-74.00451887,member
94E2FA4C9F667EDD,classic_bike,2023-02-08 21:23:14,2023-02-08 21:31:44,W 54 St & 9 Ave,6920.03,E 76 St & Park Ave,7128.08,40.765812755,-73.986881375,40.773763,-73.96222088,member
130DD00861CDE810,electric_bike,2023-02-16 22:15:54,2023-02-16 22:33:29,Broadway & Roebling St,5125.07,Hancock St & Bedford Ave,4255.05,40.70924826276157,-73.96063148975372,40.68216564,-73.95399026,member
33A37F47DA8A8C13,electric_bike,2023-02-12 16:17:11,2023-02-12 16:36:08,Lexington Ave & E 24 St,6089.07,E 40 St & Park Ave,6432.11,40.74025878,-73.98409214,40.750756,-73.978326,member
74E46532ABEAAE85,classic_bike,2023-02-24 10:47:19,2023-02-24 10:54:19,3 St & 3 Ave,4028.03,Clinton St & 4 Place,4119.04,40.674905419,-73.987440228,40.6783563,-74.00014502,member
88635D6C5DF03B24,classic_bike,2023-02-08 18:47:17,2023-02-08 18:55:56,Rutgers St & Henry St,5230.02,Cherry St,5181.04,40.71332151208186,-73.99009689688683,40.71219906,-73.97948148,member
AE52168CA7D22D60,classic_bike,2023-02-25 19:05:26,2023-02-25 19:11:36,Wythe Ave & Metropolitan Ave,5348.02,Broadway & Roebling St,5125.07,40.716887,-73.963198,40.70924826276157,-73.96063148975372,member
16F776BACFA1CDE8,electric_bike,2023-02-23 09:19:57,2023-02-23 09:29:15,E 89 St & 3 Ave,7265.1,W 95 St & Broadway,7541.01,40.7806284,-73.9521667,40.7937704,-73.971888,member
D020B05BF525200D,electric_bike,2023-02-07 07:40:07,2023-02-07 07:49:28,E 80 St & 2 Ave,7121.02,E 55 St & 2 Ave,6650.07,40.77391390238118,-73.9543953537941,40.75797322,-73.96603308,member
2EDE022C5A7E009F,classic_bike,2023-02-24 17:53:53,2023-02-24 17:57:33,Fulton St & Adams St,4637.06,Congress St & Clinton St,4455.10,40.692545891,-73.989505649,40.68825516598005,-73.99545192718506,member
4869B262B57311FA,classic_bike,2023-02-26 17:39:40,2023-02-26 17:43:07,Flushing Ave & Vanderbilt Ave,4762.05,Clinton Ave & Myrtle Ave,4651.02,40.697999001,-73.970660329,40.693261,-73.968896,member
F94AFFEA5DF19E0A,classic_bike,2023-02-24 12:32:05,2023-02-24 12:43:51,Plaza St West & Flatbush Ave,4010.13,Union St & Bedford Ave,3879.04,40.674854517,-73.971263647,40.6691783,-73.9554162,member
B8B170AF16ABDF82,electric_bike,2023-02-09 16:04:26,2023-02-09 16:10:34,8 Ave & W 38 St,6526.05,W 56 St & 8 Ave,6884.03,40.75461,-73.99177,40.765959181657976,-73.98313522338867,member
CBEEF13E4E23B016,classic_bike,2023-02-13 11:39:40,2023-02-13 11:43:30,1 Ave & E 68 St,6822.09,E 55 St & 2 Ave,6650.07,40.765128374,-73.958049774,40.75797322,-73.96603308,casual
DBA9B17088CC96C0,classic_bike,2023-02-04 21:33:58,2023-02-04 21:37:52,DeKalb Ave & Hudson Ave,4513.06,Adelphi St & Myrtle Ave,4620.02,40.68987596,-73.981148362,40.69308257,-73.97178913,member
266D3E85C468E6CC,classic_bike,2023-02-10 10:03:32,2023-02-10 10:14:34,E 56 St & 3 Ave,6691.11,E 40 St & Park Ave,6432.11,40.75934501,-73.96759673,40.750756,-73.978326,member
19B20FDA427B9246,classic_bike,2023-02-03 14:51:58,2023-02-03 15:15:56,West St & Liberty St,5184.08,E 40 St & Park Ave,6432.11,40.711434841,-74.014811039,40.750756,-73.978326,member
040669216EA9CF8C,electric_bike,2023-02-28 16:35:52,2023-02-28 16:39:07,60 St & 37 Ave,6383.02,65 St & Broadway,6417.11,40.74958,-73.90256,40.7493722738996,-73.89738768339157,member
2AD5D559F77E0E65,electric_bike,2023-02-07 08:07:34,2023-02-07 08:13:07,E 78 St & 2 Ave,7057.07,E 88 St & Park Ave,7293.10,40.7727966,-73.95577801,40.781410700190015,-73.95595908164978,member
698CD8DE59482AC0,classic_bike,2023-02-22 17:12:36,2023-02-22 17:23:33,King St & Varick St,5687.11,Orchard St & Grand St,5343.11,40.727894068,-74.004964471,40.717318403855785,-73.99067759513855,member
46B4712F8EA7D787,classic_bike,2023-02-26 17:38:56,2023-02-26 17:49:47,E 5 St & Avenue C,5545.04,Washington Pl & 6 Ave,5838.09,40.72299208,-73.97995466,40.73224119,-74.00026394,member
AD6B0D40CCDE8BC9,classic_bike,2023-02-12 12:45:10,2023-02-12 12:49:14,Emerson Pl & Myrtle Ave,4683.02,Willoughby Ave & Walworth St,4634.02,40.69363137,-73.96223558,40.69331716,-73.95381995,casual
18D59931E7723169,classic_bike,2023-02-12 00:56:18,2023-02-12 00:56:27,Lenox Ave & W 133 St,7790.04,Lenox Ave & W 133 St,7790.04,40.813080549,-73.941897154,40.81296,-73.941878,member
F6DAB6E04E4B27BE,classic_bike,2023-02-18 08:19:52,2023-02-18 08:22:26,Lewis Ave & Kosciuszko St,4617.01,Myrtle Ave & Lewis Ave,4729.01,40.69242847,-73.937052131,40.69681963,-73.93756926,member
4E8B7FAA02FD522D,classic_bike,2023-02-21 17:21:54,2023-02-21 17:28:33,Clark St & Henry St,4789.03,Atlantic Ave & Furman St,4614.04,40.69760127,-73.99344559,40.69165183,-73.9999786,member
F2D51779F4A320A3,classic_bike,2023-02-04 14:16:38,2023-02-04 14:20:05,W 146 St & Broadway,8018.09,Amsterdam Ave & W 156 St,8104.10,40.827081323,-73.949754238,40.832081,-73.942386,casual
162545BE21043ED4,classic_bike,2023-02-24 13:26:24,2023-02-24 13:31:41,W 63 St & Broadway,7052.01,W 54 St & 11 Ave,6955.05,40.771651983,-73.98282063,40.768333,-73.992573,member
8BE5216A4F247853,classic_bike,2023-02-22 12:48:48,2023-02-22 12:57:40,Hudson St & W 13 St,6115.06,Greenwich St & W Houston St,5730.08,40.740405321,-74.005223393,40.728846,-74.008591,member
B86047D3B6274A8B,electric_bike,2023-02-09 17:12:02,2023-02-09 17:20:35,5 Ave & E 29 St,6248.06,W 55 St & 6 Ave,6809.09,40.7451677,-73.98683077,40.763189,-73.978434,member
A87A8951B2C8A8CD,electric_bike,2023-02-11 13:06:33,2023-02-11 13:06:49,Greenwich Ave & 8 Ave,6072.06,Greenwich Ave & 8 Ave,6072.06,40.7390169121,-74.0026376103,40.7390169121,-74.0026376103,member
5AD5AD2814A3300E,classic_bike,2023-02-08 21:39:09,2023-02-08 21:47:27,E 81 St & 3 Ave,7154.07,W 74 St & Columbus Ave,7230.1,40.775697351,-73.956577301,40.7785669,-73.97754961,member
6A9874454044F89E,classic_bike,2023-02-06 13:02:03,2023-02-06 13:03:22,E 32 St & Park Ave,6280.12,E 35 St & Madison Ave,6398.08,40.745410562,-73.98208773100001,40.74848023448579,-73.98255586624146,member
9284DFC7E457C2F6,classic_bike,2023-02-16 20:12:02,2023-02-16 20:35:40,E 47 St & Park Ave,6584.12,Lenox Ave & W 133 St,7790.04,40.755164742,-73.97487247,40.81296,-73.941878,member
BDBD6DD34A2B72C1,classic_bike,2023-02-23 08:39:38,2023-02-23 08:52:45,Greenwich St & W Houston St,5730.08,Hudson St & Reade St,5359.10,40.728604198,-74.008534074,40.71625008,-74.0091059,member
1F9DEB444C30C50F,classic_bike,2023-02-15 18:27:27,2023-02-15 18:31:27,Vesey St & Church St,5216.06,Water St &  Fletcher St,5024.1,40.71221958009051,-74.01047229766846,40.706410755236135,-74.00559738278389,member
47407B17925B1C4F,classic_bike,2023-02-25 01:48:00,2023-02-25 02:07:25,Boerum St & Broadway,5004.02,Carmine St & 6 Ave,5763.03,40.705400586,-73.949815631,40.73038599,-74.00214988,member
0407F4B6D6D567AC,classic_bike,2023-02-24 14:10:10,2023-02-24 14:19:20,W 100 St & Manhattan Ave,7538.14,E 103 St & Lexington Ave,7463.09,40.795,-73.9645,40.7903051,-73.94755757,member
039B2B11635CC629,classic_bike,2023-02-11 22:47:14,2023-02-11 22:48:31,Greenpoint Ave & Manhattan Ave,5785.05,Greenpoint Ave & Manhattan Ave,5785.05,40.730207801,-73.953904152,40.73026,-73.95394,member
852D9A340D52133E,classic_bike,2023-02-09 06:01:26,2023-02-09 06:08:18,W 41 St & 8 Ave,6602.03,E 48 St & 3 Ave,6541.03,40.75640548,-73.9900262,40.7546011026,-73.971878855,member
395C87ABAC3B275C,classic_bike,2023-02-20 11:49:51,2023-02-20 11:56:10,45 Rd & 11 St,6319.01,34th Ave & Vernon Blvd,6873.01,40.747113466,-73.949905872,40.76535380385866,-73.93986314535141,member
631A336226D2E298,electric_bike,2023-02-01 18:36:50,2023-02-01 18:41:46,E 16 St & 5 Ave,6022.04,Washington Pl & 6 Ave,5838.09,40.73726186,-73.99238967,40.73224119,-74.00026394,member
CC077D0860FC034A,classic_bike,2023-02-27 13:13:30,2023-02-27 13:22:52,Spruce St & Gold St,5137.13,Madison St & Clinton St,5190.07,40.7103231,-74.0043228,40.71269042,-73.98776323,member
889FF29F47B78874,electric_bike,2023-02-20 08:53:32,2023-02-20 09:03:50,4 Ave & E 12 St,5788.15,E 39 St & Lexington Ave,6389.09,40.732647,-73.99011,40.7494985460252,-73.97729203113158,member
6FF3F581A5C5F422,classic_bike,2023-02-10 18:39:33,2023-02-10 18:54:23,10 Ave & W 14 St,6157.04,Greenwich St & Hubert St,5470.10,40.74198159994023,-74.00831580162048,40.721319,-74.010065,casual
123678A014A0D9E4,classic_bike,2023-02-10 15:47:09,2023-02-10 15:57:41,W 56 St & 6 Ave,6809.07,W 44 St & 5 Ave,6551.02,40.763447642,-73.977473855,40.75500254,-73.98014437,member
BD78E56083F7B879,classic_bike,2023-02-13 17:01:41,2023-02-13 17:12:08,Mount Eden Pkwy & Eastburn Ave,8245.03,Park Ave & E 162 St,8016.07,40.842675,-73.908544,40.825716,-73.915585,member
4E2490CBD9B58643,classic_bike,2023-02-24 13:24:15,2023-02-24 13:25:32,Pitt St & Stanton St,5406.04,E 2 St & Avenue C,5476.03,40.71926081,-73.98178024,40.7208736,-73.98085795,member
AB541ABFBB0AD524,classic_bike,2023-02-14 11:32:44,2023-02-14 11:33:27,Weeks Ave & E 175 St,8340.05,Weeks Ave & E 175 St,8340.05,40.846874833,-73.907345533,40.846879,-73.907342,member
07D86F4F1867C61E,classic_bike,2023-02-22 17:13:06,2023-02-22 17:26:40,DeKalb Ave & S Portland Ave,4546.04,Prospect Pl & Underhill Ave,4116.08,40.68981035,-73.97493121,40.6769694,-73.96579,member
4CF55800F3D5E314,classic_bike,2023-02-06 20:49:20,2023-02-06 21:08:11,Nagle Ave & Ellwood St,8528.05,St Nicholas Ave & W 150 St,8013.07,40.86012,-73.928489,40.827212,-73.942722,member
A441BE80DF14C34D,classic_bike,2023-02-13 10:55:26,2023-02-13 11:12:53,Broadway & W 160 St,8157.06,West End Ave & W 94 St,7524.09,40.835723758,-73.943451405,40.7941654,-73.974124,member
17680FFA944AAEDE,classic_bike,2023-02-09 14:47:49,2023-02-09 15:07:58,2 Ave & E 29 St,6122.09,E 26 St & 3 Ave,6089.11,40.74172351097472,-73.97809267044067,40.74069317733043,-73.98160636425018,member
C0CFFE8D46EE139C,electric_bike,2023-02-28 22:57:50,2023-02-28 23:03:16,Mott St & Prince St,5561.04,E 17 St & Broadway,5980.07,40.72317958,-73.99480012,40.73704984,-73.99009296,member
AE8DF5B411518874,classic_bike,2023-02-08 17:13:00,2023-02-08 17:39:27,S 4 St & Wythe Ave,5204.05,W 40 St & 5 Ave,6474.02,40.713021278,-73.965959191,40.752269,-73.982079,casual
9574EF92425A1F1A,classic_bike,2023-02-20 16:29:27,2023-02-20 16:31:20,University Pl & E 14 St,5905.14,W 13 St & 5 Ave,5947.04,40.734814,-73.992085,40.735445,-73.99431,member
CFE9BBF2D6579FE0,electric_bike,2023-02-16 17:48:00,2023-02-16 17:57:54,Broadway & Berry St,5164.05,Clinton Ave & Myrtle Ave,4651.02,40.71036129922581,-73.96530389785767,40.693261,-73.968896,member
35DF0953CB6D61A7,classic_bike,2023-02-03 07:50:48,2023-02-03 07:53:23,W 26 St & 8 Ave,6297.02,W 22 St & 8 Ave,6224.03,40.74734825,-73.99723551,40.74475148,-73.99915362,member
BE8907C86CF5C1AE,classic_bike,2023-02-12 11:02:44,2023-02-12 11:07:11,Flushing Ave & Vanderbilt Ave,4762.05,Jay St & York St,4895.09,40.697958589,-73.970790863,40.70140317257725,-73.98672670125961,member
D057FE569FE333F0,classic_bike,2023-02-09 21:16:07,2023-02-09 21:34:36,E 58 St & 1 Ave (NE Corner),6682.03,E 40 St & Park Ave,6432.11,40.75892386377695,-73.96226227283478,40.750756,-73.978326,member
A4B1444044BA2A78,classic_bike,2023-02-02 07:39:11,2023-02-02 07:48:31,21 Ave & Crescent St,7284.01,34 St & 35 Ave,6605.08,40.78033042,-73.911998034,40.7569332,-73.9262231,member
25D4E37439943BC9,classic_bike,2023-02-10 10:59:43,2023-02-10 11:06:08,W 15 St & 6 Ave,5989.02,W 22 St & 8 Ave,6224.03,40.738046142482766,-73.99642959237099,40.74475148,-73.99915362,member
0BB1DD7FB3C09A52,classic_bike,2023-02-20 12:57:00,2023-02-20 12:59:24,50 St & Barnett Ave,6435.03,48 St & 37 Ave,6435.02,40.749888062,-73.91358304,40.751555,-73.915026,member
8F240A3DF0FB2864,classic_bike,2023-02-15 08:25:52,2023-02-15 08:29:22,S 4 St & Rodney St,5156.05,Metropolitan Ave & Bedford Ave,5308.04,40.709390283,-73.956261992,40.71534825,-73.96024116,member
FA4E56FB8B136C85,classic_bike,2023-02-02 08:42:41,2023-02-02 08:42:45,Christopher St & Greenwich St,5847.01,Christopher St & Greenwich St,5847.01,40.73291553,-74.00711384,40.73291553,-74.00711384,member
65F25302CEC10A62,electric_bike,2023-02-23 07:23:56,2023-02-23 07:34:20,Willis Ave & E 137 St,7726.02,Frederick Douglass Blvd & W 129 St,7795.09,40.808384,-73.923604,40.8125511,-73.9492286,member
24B49628ECEBFEC4,classic_bike,2023-02-01 14:56:18,2023-02-01 15:14:05,E 47 St & Park Ave,6584.12,Norfolk St & Broome St,5374.01,40.75498724,-73.975014567,40.7172274,-73.98802084,member
91DBE1FDAC38D6B2,electric_bike,2023-02-01 07:18:50,2023-02-01 07:23:17,8 Ave & W 49 St,6747.07,W 56 St & 6 Ave,6809.07,40.76171227910671,-73.98655101656914,40.76340613,-73.97722479,member
75EAFAE9ACDAD0EE,classic_bike,2023-02-27 16:31:31,2023-02-27 16:38:52,1 Ave & E 78 St,7020.09,E 106 St & 2 Ave,7482.15,40.771546602,-73.953355908,40.790586067792006,-73.94195795059204,member
45BB8FEEA43B20F4,classic_bike,2023-02-11 00:20:28,2023-02-11 00:23:04,E 27 St & Park Ave S,6131.13,Gramercy Park N & Gramercy Park E,6013.12,40.74275179648995,-73.9847157150507,40.73795,-73.98509,member
9ADB2F9552C91020,classic_bike,2023-02-06 16:07:05,2023-02-06 16:12:03,Lafayette Ave & Classon Ave,4452.01,Monroe St & Bedford Ave,4368.05,40.68900443,-73.96023854,40.6851443,-73.95380904,member
770895D3286FA15C,classic_bike,2023-02-04 23:04:46,2023-02-04 23:16:51,W 30 St & 10 Ave,6459.07,Riverside Blvd & W 67 St,7183.03,40.752694,-74.002353,40.777507027547976,-73.98888587951659,member
71F9ECC050C2140F,classic_bike,2023-02-09 12:57:15,2023-02-09 13:02:31,E 5 St & Avenue C,5545.04,Ave D & E 8 St,5506.1,40.72299208,-73.97995466,40.72368361,-73.97574813,member
35B19275D8B54CA2,electric_bike,2023-02-15 19:37:09,2023-02-15 19:55:37,Milton St & Franklin St,5752.07,1 Ave & E 68 St,6822.09,40.72906,-73.95779,40.76500525,-73.95818491,member
C05DC22652DFE8E9,classic_bike,2023-02-21 21:52:03,2023-02-21 21:55:39,Plaza St West & Flatbush Ave,4010.13,Union St & 4 Ave,4175.15,40.67497015,-73.971128345,40.6772744,-73.98282002,member
00F0B303AE2027EA,classic_bike,2023-02-20 17:35:38,2023-02-20 17:56:12,Clinton St & Grand St,5303.06,Forsyth St & Canal St,5270.07,40.71559509,-73.9870295,40.7158155,-73.99422366,member
0F8F9E15445DB237,classic_bike,2023-02-14 15:54:17,2023-02-14 16:06:25,Duane St & Hudson St,5359.12,Washington Square E,5755.09,40.717147589,-74.009518743,40.73049393,-73.9957214,member
64C0EA63DD9526DA,classic_bike,2023-02-09 08:16:49,2023-02-09 08:19:52,Jackson Ave & 46 Rd,6203.02,21 St & 43 Ave,6395.01,40.74524768,-73.94733276,40.75052534,-73.94594845,member
1457EDE910A63740,classic_bike,2023-02-20 11:36:50,2023-02-20 11:42:39,Broadway & Berry St,5164.05,Berry St & N 8 St,5379.09,40.710396051,-73.965382695,40.7190095,-73.95852515,member
CC9FD6621A0D0D1E,electric_bike,2023-02-26 17:04:51,2023-02-26 17:15:21,Bergen St & Smith St,4446.01,5 Ave & 3 St,3987.06,40.6867443,-73.99063168,40.6728155,-73.98352355,member
53A4A32C13847334,electric_bike,2023-02-25 13:50:24,2023-02-25 13:55:31,University Pl & E 14 St,5905.14,Carmine St & 6 Ave,5763.03,40.734814,-73.992085,40.73038599,-74.00214988,member
41621E4EE746134C,classic_bike,2023-02-20 21:31:30,2023-02-20 22:02:07,Bainbridge Ave & E 196 St,8615.01,Bainbridge Ave & Bedford Park Blvd,8682.06,40.866435885,-73.890327573,40.87002,-73.88565,member
D84A9665E5D11DA5,classic_bike,2023-02-23 21:25:00,2023-02-23 21:43:33,Adelphi St & Myrtle Ave,4620.02,Waterbury St & Stagg St,5099.02,40.693059564,-73.971954703,40.71019,-73.93734,member
08BA66E1AB137DC7,electric_bike,2023-02-07 19:39:20,2023-02-07 19:46:19,9 Ave & W 39 St,6644.08,W 51 St & 6 Ave,6740.1,40.756403523272496,-73.99410143494606,40.7606597,-73.98042047,member
DE1A6522B054603A,classic_bike,2023-02-28 13:47:44,2023-02-28 13:50:15,W 47 St & 9 Ave,6786.02,8 Ave & W 49 St,6747.07,40.76153045158114,-73.99007007479668,40.76171227910671,-73.98655101656914,member
84671BB619080312,classic_bike,2023-02-06 14:14:04,2023-02-06 14:25:20,Woodward Ave & Harman St,5074.08,Irving Ave & Jefferson St,5051.02,40.70793,-73.91092,40.70538,-73.92535,casual
53FFFA5FCD5305DA,classic_bike,2023-02-10 22:08:12,2023-02-10 22:13:35,Broadway & W 58 St,6948.10,8 Ave & W 49 St,6747.07,40.76695317,-73.98169333,40.76171227910671,-73.98655101656914,member
4F7E69834C95BB55,classic_bike,2023-02-18 23:02:38,2023-02-18 23:05:54,Court St & Nelson St,4077.07,Smith St & 3 St,4151.01,40.6763947,-73.99869893,40.6787242,-73.99599099,member
39F49E48DC3013EC,classic_bike,2023-02-18 22:08:47,2023-02-18 22:13:57,6 Ave & W 33 St,6364.07,W 41 St & 8 Ave,6602.03,40.748912454,-73.988615274,40.75640548,-73.9900262,member
99101B4A2562E4AF,electric_bike,2023-02-12 11:32:59,2023-02-12 11:51:39,Sands St & Jay St,4821.03,Greenwich St & W Houston St,5730.08,40.700119,-73.9862,40.728846,-74.008591,casual
3651F5A9E26DCBE0,classic_bike,2023-02-09 20:26:24,2023-02-09 20:38:31,1 Ave & E 39 St,6303.01,31 St & Northern Blvd,6495.17,40.775604367,-73.912732959,40.75186951421875,-73.93349289894103,member
8599309983875D4D,electric_bike,2023-02-10 00:20:08,2023-02-10 00:43:17,W 26 St & 8 Ave,6297.02,Broadway & Berry St,5164.05,40.74734825,-73.99723551,40.71036129922581,-73.96530389785767,member
258E74246386F3B7,classic_bike,2023-02-05 13:59:15,2023-02-05 14:19:48,Columbus Ave & W 72 St,7175.05,E 58 St & 1 Ave (NE Corner),6682.03,40.7770575,-73.97898475,40.75892386377695,-73.96226227283478,member
DBEE9726FE75D327,classic_bike,2023-02-25 00:04:00,2023-02-25 00:35:41,Metropolitan Ave & Meeker Ave,5300.05,E 9 St & Avenue C,5616.01,40.71413311,-73.95234386,40.72521311,-73.97768752,member
69AFB5E1570284C7,electric_bike,2023-02-14 15:22:13,2023-02-14 15:40:00,Willoughby St & Fleet St,4628.05,Degraw St & Hoyt St,4258.07,40.69196566,-73.9813018,40.68199044270703,-73.99079024791718,member
731539E3A44959BD,classic_bike,2023-02-03 18:28:10,2023-02-03 18:43:26,7 St & 3 Ave,3996.01,Lexington Ave & Classon Ave,4452.03,40.67260298150126,-73.98983001708984,40.68676793,-73.95928168,member
BBBB3A4EB3204DC8,classic_bike,2023-02-08 18:03:07,2023-02-08 18:05:04,E 128 St & Madison Ave,7735.23,Lexington Ave & E 127 St,7662.13,40.80756,-73.939182,40.805726,-73.936322,member
55A93E50B5062A0D,classic_bike,2023-02-22 14:15:01,2023-02-22 14:43:32,W 74 St & Columbus Ave,7230.1,E 85 St & 3 Ave,7212.05,40.778697968,-73.977650642,40.77801203,-73.95407149,member
7B001780A4310ACA,electric_bike,2023-02-28 21:27:47,2023-02-28 21:35:17,8 Ave & W 31 St,6450.05,E 40 St & Park Ave,6432.11,40.7505853470215,-73.9946848154068,40.750756,-73.978326,member
4EFF9D7A0E3BC29D,classic_bike,2023-02-12 15:47:35,2023-02-12 15:50:39,Canal St & Rutgers St,5303.08,Market St & Henry St,5270.09,40.71427487,-73.98990025,40.71310702305908,-73.99446353316307,member
DD6FD784544A203F,classic_bike,2023-02-01 08:42:48,2023-02-01 08:50:25,5 Ave & E 93 St,7372.10,W 111 St & 5 Ave,7587.16,40.7857851,-73.957481,40.79752078124756,-73.9489397406578,member
719E6ABB2147AED6,classic_bike,2023-02-16 15:39:18,2023-02-16 15:44:53,Lafayette Ave & Ft Greene Pl,4470.09,Douglass St & 3 Ave,4217.02,40.68700231292619,-73.97664964199066,40.6802133,-73.98432695,member
11882B0E799875C3,classic_bike,2023-02-11 13:18:56,2023-02-11 13:24:14,Marcy Ave & Lafayette Ave,4476.03,Monroe St & Tompkins Ave,4434.06,40.6900815,-73.947915,40.686203,-73.944694,member
F29A8E1F0D7F5BCA,classic_bike,2023-02-13 16:39:52,2023-02-13 16:45:34,6 Ave & Broome St,5610.09,7 Ave S & Bleecker St,5805.07,40.724565864,-74.004610538,40.73213896287381,-74.00363802909851,member
48FE1B0189EB0D60,electric_bike,2023-02-01 17:43:13,2023-02-01 17:47:27,Allen St & Rivington St,5414.06,Market St & Henry St,5270.09,40.72019576,-73.98997825,40.71310702305908,-73.99446353316307,member
0AA1FE4CA653A743,classic_bike,2023-02-21 11:57:17,2023-02-21 12:12:59,E 53 St & Lexington Ave,6617.09,E 53 St & Lexington Ave,6617.09,40.758469582,-73.970692754,40.75828065,-73.97069431,casual
3792EC1A7162D851,classic_bike,2023-02-21 19:36:41,2023-02-21 20:00:25,W 84 St & Columbus Ave,7382.04,W 56 St & 8 Ave,6884.03,40.785092831,-73.972867489,40.765959181657976,-73.98313522338867,member
1DFD509F12F39EC3,classic_bike,2023-02-07 15:41:30,2023-02-07 15:55:54,6 Ave & Broome St,5610.09,Vesey Pl & River Terrace,5297.02,40.72431,-74.00473,40.7153379,-74.01658354,casual
6A46142C5A7FDDE5,classic_bike,2023-02-20 17:29:55,2023-02-20 17:36:04,E 56 St & 3 Ave,6691.11,E 44 St & 2 Ave,6422.09,40.75934501,-73.96759673,40.75118387463277,-73.97138714790344,member
A749C89107B52FAB,classic_bike,2023-02-23 06:38:10,2023-02-23 06:52:23,Lafayette St & E 8 St,5788.13,W 54 St & 11 Ave,6955.05,40.730310559,-73.991092205,40.768333,-73.992573,member
199937F274B38956,classic_bike,2023-02-27 13:28:25,2023-02-27 13:29:49,E 5 St & Avenue C,5545.04,E 9 St & Avenue C,5616.01,40.72299208,-73.97995466,40.72521311,-73.97768752,member
077B1937BBBA7DFF,classic_bike,2023-02-20 18:16:30,2023-02-20 18:23:27,E 55 St & 2 Ave,6650.07,W 56 St & 8 Ave,6884.03,40.758062243,-73.965890527,40.765959181657976,-73.98313522338867,member
C9C007C759EE157A,classic_bike,2023-02-10 11:15:36,2023-02-10 11:21:23,Broadway & E 19 St,6098.12,LaGuardia Pl & W 3 St,5721.14,40.73866091428551,-73.98987293243407,40.72917025,-73.99810231,member
065B9EF8FBB27137,classic_bike,2023-02-17 18:47:15,2023-02-17 18:54:07,W 42 St & 8 Ave,6602.05,9 Ave & W 22 St,6266.06,40.7575699,-73.99098507,40.7454973,-74.00197139,member
0EFE49FB619CF205,classic_bike,2023-02-12 19:11:23,2023-02-12 19:35:31,DeKalb Ave & Hudson Ave,4513.06,E 3 St & 1 Ave,5553.03,40.689721465,-73.981002331,40.72467721,-73.98783413,member
037918F4AAAE576B,classic_bike,2023-02-13 07:47:38,2023-02-13 07:58:06,Parade Pl & Crooke Ave,3376.02,4 Ave & 9 St,3955.05,40.651911378,-73.965340972,40.6705135,-73.98876585,member
3A009ACF646AD04F,classic_bike,2023-02-20 16:08:05,2023-02-20 16:10:45,Central Ave & Starr Street,4792.03,Stockholm St & Wilson Ave,4824.03,40.700003,-73.92834,40.699304,-73.923044,member
FD955A36B3893799,classic_bike,2023-02-16 09:29:57,2023-02-16 09:29:58,Edgecombe Ave & W 141 St,7915.11,Edgecombe Ave & W 141 St,7915.11,40.820681,-73.945144,40.820681,-73.945144,member
AFE622201BE17C62,classic_bike,2023-02-15 18:10:18,2023-02-15 18:21:55,Prospect Pl & 6 Ave,4166.08,Prospect Park West & 8 St,3722.04,40.6793307,-73.97519523,40.66514681533792,-73.97637605667114,member
DD51AC4D83A21E70,electric_bike,2023-02-17 12:22:20,2023-02-17 12:24:28,E 35 St & Madison Ave,6398.08,E 41 St & Madison Ave (SE corner),6432.1,40.74848023448579,-73.98255586624146,40.752049,-73.979635,member
6A393EC0F4A4DAE8,classic_bike,2023-02-14 19:24:39,2023-02-14 19:34:27,1 Ave & E 18 St,5854.09,E 58 St & 1 Ave (NW Corner),6723.1,40.734135509,-73.980313659,40.759125,-73.962658,member
4A8D3173753FC107,classic_bike,2023-02-18 15:22:48,2023-02-18 15:25:47,E 2 St & Avenue C,5476.03,E 2 St & Avenue A,5553.10,40.7208736,-73.98085795,40.72307749068673,-73.98583620786667,member
C1E8FB16CCC3FF05,electric_bike,2023-02-21 18:42:00,2023-02-21 18:45:12,11 Ave & W 41 St,6726.01,W 30 St & 10 Ave,6459.07,40.76030096,-73.99884222,40.752694,-74.002353,member
789B323AD77D2970,classic_bike,2023-02-04 20:06:00,2023-02-04 20:07:27,W 42 St & 6 Ave,6517.08,Broadway & W 41 St,6560.01,40.75492,-73.98455,40.75513557,-73.98658032,member
F8AD811BA0E23AB1,classic_bike,2023-02-07 18:01:01,2023-02-07 18:06:01,North Moore St & Greenwich St,5470.12,Vesey Pl & River Terrace,5297.02,40.72019521437465,-74.0103006362915,40.7153379,-74.01658354,member
F0A6768C4C34FD97,classic_bike,2023-02-05 17:06:49,2023-02-05 17:22:51,Grand St & Samuel Dickstein Plaza,5335.07,W 22 St & 10 Ave,6306.06,40.714934349,-73.983659506,40.74691959,-74.00451887,member
99BFFA46010B1022,electric_bike,2023-02-08 17:43:22,2023-02-08 17:47:28,Broadway & W 61 St,7014.12,Amsterdam Ave & W 66 St,7149.05,40.77003010255044,-73.9819684624672,40.7746671,-73.98470567,member
C5BD820D309C7D42,classic_bike,2023-02-10 16:35:14,2023-02-10 17:02:29,Sands St & Jay St,4821.03,Putnam Ave & Throop Ave,4392.04,40.700119,-73.9862,40.6851532,-73.94111,member
E4078A1274B72AFB,electric_bike,2023-02-11 07:37:56,2023-02-11 07:48:46,W 50 St & 9 Ave,6854.05,Broadway & W 25 St,6173.08,40.76360467795863,-73.98917958140373,40.74286877312112,-73.98918628692627,casual
58F6E6FBA565C195,classic_bike,2023-02-09 07:51:14,2023-02-09 07:53:04,University Pl & E 14 St,5905.14,E 17 St & Broadway,5980.07,40.734814,-73.992085,40.73704984,-73.99009296,member
884C78798C433785,classic_bike,2023-02-07 22:33:47,2023-02-07 22:35:25,W 53 St & 10 Ave,6890.01,W 56 St & 10 Ave,6955.01,40.76669671,-73.99061728,40.768254,-73.988639,member
B5FA7B9DD04354BD,classic_bike,2023-02-19 17:49:12,2023-02-19 17:52:21,7 Ave & Park Pl,4125.07,Carroll St & 5 Ave,4060.09,40.677586317,-73.973222971,40.6751622,-73.9814832,member
13ED6EB5DD5403A7,classic_bike,2023-02-08 06:52:36,2023-02-08 07:03:24,W 107 St & Columbus Ave,7619.05,Edgecombe Ave & W 141 St,7915.11,40.799695969,-73.961902618,40.820681,-73.945144,member
CE14416E6B6731EB,electric_bike,2023-02-23 21:32:27,2023-02-23 21:40:16,23 St & 3 Ave,3707.01,10 St & 7 Ave,3762.08,40.662611,-73.998623,40.6662078,-73.98199886,casual
C73A296F87411D43,classic_bike,2023-02-11 11:05:32,2023-02-11 11:23:57,Stagg St & Union Ave,5117.05,E 7 St & Ave B,5584.05,40.708808064,-73.951033592,40.7251285241158,-73.98131668567657,casual
4A1C669B876BB200,classic_bike,2023-02-05 15:43:38,2023-02-05 15:48:13,1 Ave & E 78 St,7020.09,2 Ave & E 72 St,6925.09,40.77140426,-73.9535166,40.7687620293096,-73.95840793848038,member
D453713A1B2585DE,classic_bike,2023-02-28 09:53:32,2023-02-28 09:58:17,E 63 St & 3 Ave,6830.02,1 Ave & E 68 St,6822.09,40.763954,-73.9646,40.76500525,-73.95818491,member
B727BAF5363E8A40,classic_bike,2023-02-24 22:52:56,2023-02-24 23:01:17,Marcus Garvey Blvd & Macon St,4278.03,Myrtle Ave & Lewis Ave,4729.01,40.682601,-73.938037,40.69681963,-73.93756926,casual
C61FE36904688D9A,classic_bike,2023-02-05 07:15:51,2023-02-05 07:16:32,Canal St & Rutgers St,5303.08,Rutgers St & Henry St,5230.02,40.71427487,-73.98990025,40.71332151208186,-73.99009689688683,member
F152F6EB5696C86D,classic_bike,2023-02-13 08:18:12,2023-02-13 08:29:14,Cathedral Pkwy & Broadway,7680.03,Riverside Blvd & W 67 St,7183.03,40.804239273,-73.967074871,40.777507027547976,-73.98888587951659,member
713255B38A3707B4,classic_bike,2023-02-06 18:50:21,2023-02-06 18:59:22,Broadway & W 29 St,6289.06,E 39 St & Lexington Ave,6389.09,40.7462009,-73.98855723,40.7494985460252,-73.97729203113158,member
83A0A3041BA0C174,classic_bike,2023-02-07 18:50:56,2023-02-07 18:54:53,36 St & Queens Blvd,6260.04,39 St & 50 Ave,6025.08,40.74408,-73.92901,40.73824937345944,-73.92737478017807,member
B4DCFBE0A762AB3D,electric_bike,2023-02-22 21:40:25,2023-02-22 21:46:04,E 15 St & 3 Ave,5863.07,E 14 St & Avenue B,5736.09,40.734232,-73.986923,40.72938685,-73.97772429,member
C488D659C218FC24,electric_bike,2023-02-17 15:56:34,2023-02-17 16:01:59,Watts St & Greenwich St,5578.02,Howard St & Lafayette St,5422.04,40.72405549,-74.00965965,40.71910537,-73.99973337,member
3EA71C666907F7D0,classic_bike,2023-02-20 11:53:29,2023-02-20 12:31:04,18 St & 27 Ave,7062.07,30 Ave & 12 St,7034.09,40.772626638,-73.927404881,40.77171710520828,-73.93159255385399,member
034A8CA89F543375,classic_bike,2023-02-22 13:03:40,2023-02-22 14:05:28,W 47 St & 10 Ave,6824.07,W 47 St & 9 Ave,6786.02,40.76269882,-73.99301222,40.76153045158114,-73.99007007479668,member
CD50686219C29B17,classic_bike,2023-02-04 09:04:06,2023-02-04 09:18:53,E 85 St & East End Ave,7113.05,E 106 St & 2 Ave,7482.15,40.774587154,-73.945758104,40.790586067792006,-73.94195795059204,member
5C6D64F41EBBA86F,classic_bike,2023-02-08 08:10:14,2023-02-08 08:23:48,E 22 St & 2 Ave,5971.09,W 22 St & 10 Ave,6306.06,40.736663938,-73.980496049,40.74691959,-74.00451887,member
334ECB73762FFE5E,classic_bike,2023-02-25 15:39:13,2023-02-25 15:44:12,Central Park W & W 97 St,7538.18,W 84 St & Columbus Ave,7382.04,40.792882442,-73.963968754,40.78499979,-73.97283406,casual
1DB03A50B1B0F31B,classic_bike,2023-02-15 15:00:22,2023-02-15 15:00:23,E 156 & Brook Ave,7896.11,E 156 & Brook Ave,7896.11,40.819823,-73.912411,40.819823,-73.912411,member
B1A4AA1B37592244,classic_bike,2023-02-08 17:23:09,2023-02-08 17:38:28,W Broadway & W Houston St,5644.05,E 27 St & Park Ave S,6131.13,40.726378,-74.000472,40.74275179648995,-73.9847157150507,member
5630C9006AAB486F,electric_bike,2023-02-26 08:19:17,2023-02-26 08:26:57,E 82 St & East End Ave,7049.04,5 Ave & E 72 St,7100.07,40.7724607,-73.9468208,40.77282817,-73.96685276,member
5908C0589BDB8156,classic_bike,2023-02-08 20:27:35,2023-02-08 20:42:49,West St & Chambers St,5329.03,Court St & Nelson St,4077.07,40.718086123,-74.013116717,40.6763947,-73.99869893,member
EB2EA9AD59F8FDAE,electric_bike,2023-02-20 10:38:09,2023-02-20 10:57:23,Broadway & W 58 St,6948.10,5 Ave & E 78 St,7161.08,40.76695317,-73.98169333,40.77632142182271,-73.96427392959595,casual
E0A9AE2CAEA599B3,classic_bike,2023-02-08 17:22:54,2023-02-08 17:39:17,Lenox Ave & W 126 St,7720.03,1 Ave & E 78 St,7020.09,40.808366537,-73.945309043,40.77140426,-73.9535166,member
5C1EAE4E5E8BD31A,classic_bike,2023-02-07 18:08:54,2023-02-07 18:08:56,W 22 St & 10 Ave,6306.06,W 22 St & 10 Ave,6306.06,40.74691959,-74.00451887,40.74691959,-74.00451887,member
425F82CC56C01C07,classic_bike,2023-02-03 09:55:10,2023-02-03 10:02:50,E 53 St & Lexington Ave,6617.09,E 27 St & Park Ave S,6131.13,40.758426309,-73.970322013,40.74275179648995,-73.9847157150507,member
683B2B230EE7FC17,classic_bike,2023-02-13 14:31:10,2023-02-13 14:33:20,St Marks Pl & 1 Ave,5626.13,St Marks Pl & 2 Ave,5669.10,40.72779126,-73.98564945,40.7284186,-73.98713956,member
1E3691A45379048C,electric_bike,2023-02-05 16:52:36,2023-02-05 16:56:45,Wythe Ave & Metropolitan Ave,5348.02,Broadway & Berry St,5164.05,40.716887,-73.963198,40.71036129922581,-73.96530389785767,member
B76520DD8B819687,classic_bike,2023-02-19 19:19:58,2023-02-19 19:30:01,W 163 St & Edgecombe Ave,8153.1,W Tremont Ave & Montgomery Ave,8407.03,40.835726976,-73.937522769,40.851788,-73.916418,member
925E84047B2E3B4C,classic_bike,2023-02-26 16:14:59,2023-02-26 16:20:46,S 4 St & Rodney St,5156.05,S 3 St & Bedford Ave,5235.05,40.70934,-73.95608,40.71260486,-73.96264403,member
1D8F0CBF1763D942,classic_bike,2023-02-10 15:48:28,2023-02-10 15:59:53,E 53 St & 3 Ave,6617.02,Broadway & W 38 St,6560.15,40.75763227739443,-73.96930575370789,40.7529728216068,-73.98734897375107,member
DFF1E2D4E5A318F8,classic_bike,2023-02-03 18:03:30,2023-02-03 18:18:26,6 Ave & W 34 St,6364.1,Sullivan St & Washington Sq,5721.01,40.74964,-73.98805,40.73047747,-73.99906065,member
F4F04ECDBB1EC9B8,classic_bike,2023-02-27 16:56:56,2023-02-27 17:09:24,N 6 St & Bedford Ave,5379.10,S 4 St & Wythe Ave,5204.05,40.71745169,-73.95850939,40.71285887,-73.96590294,casual
CF306DAA5774AC47,electric_bike,2023-02-08 19:53:35,2023-02-08 20:00:59,Bleecker St & Crosby St,5679.08,Greenwich Ave & 8 Ave,6072.06,40.72615604980408,-73.99510189890862,40.7390169121,-74.0026376103,member
B10099B80535962C,classic_bike,2023-02-08 00:23:23,2023-02-08 00:29:20,E 23 St & 1 Ave,5929.01,E 14 St & Avenue B,5736.09,40.736502,-73.97809472,40.72938685,-73.97772429,member
BE701BDB62DD5E9B,electric_bike,2023-02-08 17:52:25,2023-02-08 17:52:38,Halsey St & Tompkins Ave,4319.07,Halsey St & Tompkins Ave,4319.07,40.6823687,-73.944118,40.6823687,-73.944118,member
BAACF6F2168843BC,electric_bike,2023-02-25 18:02:33,2023-02-25 18:03:01,Adams St & Prospect St,4821.1,Adams St & Prospect St,4821.10,40.70076308326151,-73.98869812488556,40.70076308326151,-73.98869812488556,member
5085DD0D44F57B0E,classic_bike,2023-02-26 12:49:36,2023-02-26 12:58:28,E 4 St & Ave B,5515.08,Canal St & Rutgers St,5303.08,40.72334683218016,-73.98265913128853,40.71427487,-73.98990025,member
9997D2031E1A4C00,electric_bike,2023-02-22 17:20:36,2023-02-22 17:25:43,Broadway & W 25 St,6173.08,E 22 St & 2 Ave,5971.09,40.74286877312112,-73.98918628692627,40.73716919369882,-73.98122549057007,member
E11130DEB6E37B1A,classic_bike,2023-02-11 10:34:58,2023-02-11 10:37:19,E 88 St & 1 Ave,7235.13,E 91 St & 2 Ave,7286.01,40.778301,-73.9488134,40.78115276427916,-73.94963040947914,member
09EC503A7C143CBF,classic_bike,2023-02-20 18:02:33,2023-02-20 18:12:53,E 47 St & 1 Ave,6498.09,E 13 St & 2 Ave,5820.08,40.752109766,-73.967864871,40.73153937464073,-73.9853024482727,member
BA73175A41E66477,classic_bike,2023-02-17 18:07:12,2023-02-17 18:14:34,W 33 St & 10 Ave,6492.04,W 50 St & 9 Ave,6854.05,40.75377336836039,-73.99937599897385,40.76360467795863,-73.98917958140373,member
EBA2355E20A5203C,classic_bike,2023-02-06 19:13:06,2023-02-06 19:16:39,8 Ave & W 52 St,6816.07,9 Ave & W 45 St,6717.06,40.76370739,-73.9851615,40.76019252,-73.9912551,member
30CF5F058D00AECE,classic_bike,2023-02-17 14:58:31,2023-02-17 15:14:49,9 Ave & W 45 St,6717.06,E 25 St & 2 Ave,6046.02,40.760181665,-73.99132967,40.73912601,-73.97973776,member
7AB41395D56E7240,electric_bike,2023-02-10 17:01:03,2023-02-10 17:09:00,E Houston St & Columbia St,5436.11,Orchard St & Grand St,5343.11,40.71978635452822,-73.97871628403664,40.717318403855785,-73.99067759513855,member
4E9F544D7097F226,classic_bike,2023-02-12 19:52:37,2023-02-12 19:56:57,Park Ave & E 124 St,7682.01,2 Ave & E 122 St,7622.12,40.8045555,-73.9396861,40.8006721,-73.9349,member
F5ACD96A7C9AF79E,classic_bike,2023-02-19 17:01:29,2023-02-19 17:15:47,Coffey St & Ferris St,4137.14,Congress St & Clinton St,4455.10,40.67818387977647,-74.0170168876648,40.68825516598005,-73.99545192718506,casual
A04591C090B35DAE,classic_bike,2023-02-15 19:07:30,2023-02-15 19:20:42,Grand Ave & Bergen St,4190.06,7 Ave & 17 St,3660.07,40.678000212,-73.96227777,40.66093779493168,-73.98680448532104,member
8625A2B049359EFC,electric_bike,2023-02-13 20:53:48,2023-02-13 21:03:29,Grand St & Samuel Dickstein Plaza,5335.07,S 5 Pl & S 5 St,5125.03,40.71511871996496,-73.98417055606842,40.710451,-73.960876,member
3C88988EADCA3D4F,classic_bike,2023-02-06 08:45:53,2023-02-06 08:48:39,Hope St & Union Ave,5187.03,S 4 St & Rodney St,5156.05,40.71167351,-73.95141312,40.70934,-73.95608,member
BCEE7FA41A6C4124,classic_bike,2023-02-20 11:37:17,2023-02-20 11:39:14,8 Ave & W 24 St,6224.06,W 26 St & 8 Ave,6297.02,40.74591072834279,-73.99807110428809,40.74734825,-73.99723551,member
D8BA8CAF08BC1D89,classic_bike,2023-02-07 11:27:04,2023-02-07 11:46:49,Norfolk St & Broome St,5374.01,W 15 St & 6 Ave,5989.02,40.7172274,-73.98802084,40.738046142482766,-73.99642959237099,member
618A35E4E939C264,classic_bike,2023-02-19 11:06:59,2023-02-19 11:25:27,Carroll St & Smith St,4225.14,12 St & 4 Ave,3882.01,40.680612326,-73.994789839,40.668603,-73.9904394,casual
C5B1E8650F0F4879,classic_bike,2023-02-17 02:45:29,2023-02-17 02:55:09,Myrtle Ave & Linden St,4816.02,Grove St & Broadway,4526.01,40.69943,-73.91337,40.69047,-73.923511,member
0CECBFAF41C1E4AD,classic_bike,2023-02-14 21:38:01,2023-02-14 21:58:58,31 St & Broadway,6789.04,35 St & 34 Ave,6679.11,40.761570454,-73.925862193,40.7580583,-73.9242751,casual
62E5D9B78CA36F4F,electric_bike,2023-02-14 18:20:45,2023-02-14 18:29:38,Franklin St & W Broadway,5430.08,Cooper Square & Astor Pl,5712.03,40.71911552,-74.00666661,40.72951496224949,-73.99075269699097,member
1118DA83D1FA510A,classic_bike,2023-02-06 07:44:06,2023-02-06 07:44:58,E 93 St & 2 Ave,7286.02,E 91 St & 2 Ave,7286.01,40.782454175279874,-73.9489196240902,40.78115276427916,-73.94963040947914,member
BF9EAEC0BF6F3903,classic_bike,2023-02-15 20:50:00,2023-02-15 21:00:48,Madison St & Clinton St,5190.07,Clinton St & Grand St,5303.06,40.712751985,-73.987760305,40.71559509,-73.9870295,member
5284B606F2E7714A,classic_bike,2023-02-11 13:50:16,2023-02-11 13:57:49,Myrtle Ave & Marcy Ave,4707.03,Monroe St & Tompkins Ave,4434.06,40.69539817,-73.94954908,40.686203,-73.944694,member
E0C69772386D683E,classic_bike,2023-02-11 15:28:51,2023-02-11 16:13:40,W 18 St & 9 Ave,6190.03,Madison St & Clinton St,5190.07,40.7435337324616,-74.00367558002472,40.71269042,-73.98776323,member
635A1BBE5E0469A3,classic_bike,2023-02-18 16:44:47,2023-02-18 16:49:31,31 St & 23 Ave,7144.01,Ditmars Blvd & 19 St,7291.06,40.7747878,-73.9125551,40.78145,-73.9183302,member
4AE6302247545DB1,classic_bike,2023-02-27 06:01:25,2023-02-27 06:05:35,E 67 St & Park Ave,6932.14,1 Ave & E 68 St,6822.09,40.76780080148132,-73.96592080593109,40.76500525,-73.95818491,member
E76252BD676DD6C3,classic_bike,2023-02-07 16:38:34,2023-02-07 16:46:52,Norfolk St & Broome St,5374.01,1 Ave & E 6 St,5626.15,40.7172274,-73.98802084,40.72633085971696,-73.98616880178452,member
2E4E76683A796045,classic_bike,2023-02-16 12:04:32,2023-02-16 12:19:42,5 Ave & E 78 St,7161.08,Broadway & W 58 St,6948.10,40.77632142182271,-73.96427392959595,40.76695317,-73.98169333,member
CA61EC1C2A1E79EB,classic_bike,2023-02-26 07:14:14,2023-02-26 07:20:26,E 102 St & 1 Ave,7407.13,5 Ave & E 103 St,7511.19,40.7869946,-73.94164802,40.7922553,-73.95249933,member
E668A7DBDF1B62D5,classic_bike,2023-02-01 19:52:35,2023-02-01 20:04:09,John St & William St,5065.04,E 3 St & 1 Ave,5553.03,40.70862144,-74.00722156,40.72467721,-73.98783413,member
AFFF79A2253F1520,classic_bike,2023-02-13 16:39:06,2023-02-13 16:43:05,55 St & 7 Ave,2951.05,46 St & 7 Ave,3117.05,40.639718533,-74.009148479,40.644743,-74.003754,member
BE92992A90D2D423,classic_bike,2023-02-26 10:01:24,2023-02-26 10:05:51,Riverside Dr & W 82 St,7388.10,Riverside Blvd & W 67 St,7183.03,40.78752768,-73.981261134,40.777507027547976,-73.98888587951659,member
56632C0D20B0EA10,electric_bike,2023-02-02 17:11:30,2023-02-02 17:21:26,Wythe Ave & Metropolitan Ave,5348.02,Kingsland Ave & Nassau Ave,5613.04,40.716887,-73.963198,40.72577,-73.94173,member
3367DDD297445CC3,classic_bike,2023-02-27 17:19:13,2023-02-27 17:23:52,Frederick Douglass Blvd & W 117 St,7688.12,W 111 St & 5 Ave,7587.16,40.805362105,-73.954523325,40.79752078124756,-73.9489397406578,member
CE81D98D78D76131,classic_bike,2023-02-10 19:55:46,2023-02-10 20:09:15,W 11 St & 6 Ave,5914.03,W 43 St & 10 Ave,6756.01,40.735234618,-73.997739315,40.76009437,-73.99461843,member
5036D05403FEB843,classic_bike,2023-02-21 14:54:51,2023-02-21 14:55:32,Lafayette St & E 8 St,5788.13,Lafayette St & E 8 St,5788.13,40.730581045,-73.990917087,40.73020660529954,-73.99102628231049,member
527834843E7554DB,classic_bike,2023-02-25 22:00:47,2023-02-25 22:06:46,Vernon Blvd & 47 Rd,6212.08,45 Rd & 11 St,6319.01,40.745016098,-73.953279138,40.74708586,-73.94977234,member
B23436F981868C16,classic_bike,2023-02-16 16:48:05,2023-02-16 17:04:41,Great Jones St,5636.11,W 26 St & 10 Ave,6382.05,40.727542758,-73.993788958,40.749717753,-74.002950346,member
0C999FF267ABFA5B,classic_bike,2023-02-24 19:16:30,2023-02-24 19:48:31,Adam Clayton Powell Blvd & W 123 St,7704.04,W 40 St & 5 Ave,6474.02,40.8078316,-73.949373,40.752269,-73.982079,member
A772A43A9CF388F9,classic_bike,2023-02-24 13:54:31,2023-02-24 13:59:20,W 25 St & 6 Ave,6215.04,9 Ave & W 22 St,6266.06,40.74395411,-73.99144871,40.7454973,-74.00197139,member
9C1EB79E67A493AF,classic_bike,2023-02-23 14:50:22,2023-02-23 14:55:49,Broadway & W 25 St,6173.08,W 26 St & 10 Ave,6382.05,40.74286877312112,-73.98918628692627,40.749717753,-74.002950346,member
A732ACF1FEDCBEA4,classic_bike,2023-02-11 05:40:45,2023-02-11 05:46:43,Banker St & Meserole Ave,5633.04,Jackson St & Leonard St,5332.1,40.726065516,-73.956225038,40.71638031973561,-73.94821286201477,member
B0FFCAD952267E36,classic_bike,2023-02-06 08:36:13,2023-02-06 08:46:58,Carroll St & Smith St,4225.14,Adams St & Prospect St,4821.10,40.680611,-73.99475825,40.70076308326151,-73.98869812488556,member
14C85EB68EB2E012,classic_bike,2023-02-20 11:53:17,2023-02-20 12:00:24,Washington Pl & 6 Ave,5838.09,Lafayette St & E 8 St,5788.13,40.73224119,-74.00026394,40.73020660529954,-73.99102628231049,member
ED69C4357E94A3C5,classic_bike,2023-02-09 18:29:23,2023-02-09 18:32:36,University Pl & E 14 St,5905.14,Washington Pl & Broadway,5755.01,40.734636188,-73.992029905,40.72903917,-73.99404649,member
0FC581375AAFDB63,classic_bike,2023-02-14 07:36:29,2023-02-14 07:43:54,Jay St & York St,4895.09,Hanson Pl & Ashland Pl,4395.07,40.701268673,-73.986785889,40.68506807308177,-73.97790759801863,member
A8F7134B248A10DC,classic_bike,2023-02-07 08:31:48,2023-02-07 08:34:00,Madison Ave & E 99 St,7443.01,E 97 St & Madison Ave,7393.09,40.789640546,-73.952303767,40.787801,-73.953559,member
2F2093F1212C1F35,electric_bike,2023-02-23 16:42:46,2023-02-23 16:45:49,Pleasant Ave & E 120 St,7579.01,E 118 St & 3 Ave,7611.02,40.7974772,-73.9311847,40.799139,-73.9389152,member
37C7A42B9A563BB5,classic_bike,2023-02-15 09:07:48,2023-02-15 09:13:51,Nevins St & Schermerhorn St,4437.09,Adelphi St & Myrtle Ave,4620.02,40.687708855,-73.98236382,40.69308257,-73.97178913,member
E1D3A5508DF97481,classic_bike,2023-02-07 18:13:21,2023-02-07 18:24:47,Montague St & Clinton St,4677.06,Clinton Ave & Myrtle Ave,4651.02,40.694180965,-73.992124796,40.693261,-73.968896,member
B604051F9B6E8C66,classic_bike,2023-02-23 15:22:57,2023-02-23 15:28:07,46 St & Queens Blvd,6209.08,43 St & 50 Ave,5983.04,40.74349759836971,-73.91860529780388,40.73787237950538,-73.92264068126678,member
49BBEA220E41DE62,classic_bike,2023-02-12 13:32:08,2023-02-12 13:48:42,West St & Liberty St,5184.08,Greenwich Ave & Charles St,5914.08,40.711444,-74.014847,40.735238,-74.000271,member
071E608AAECBE895,classic_bike,2023-02-15 08:24:45,2023-02-15 08:28:34,E 66 St & Madison Ave,6969.08,E 76 St & Park Ave,7128.08,40.76800889305947,-73.96845281124115,40.773763,-73.96222088,member
E401652CA38A67C1,electric_bike,2023-02-28 15:32:45,2023-02-28 15:42:43,5 Ave & E 72 St,7100.07,W 87 St & West End Ave,7484.05,40.77282817,-73.96685276,40.789622,-73.97757,member
6793BD1E7A0E7D95,classic_bike,2023-02-13 19:30:02,2023-02-13 19:41:14,Grove St & Broadway,4526.01,Halsey St & Tompkins Ave,4319.07,40.69047,-73.923511,40.6823687,-73.944118,member
5358208C23F29A1B,classic_bike,2023-02-12 18:41:31,2023-02-12 18:46:40,Frederick Douglass Blvd & W 117 St,7688.12,Lenox Ave & W 126 St,7720.03,40.805326104,-73.954633117,40.808442,-73.9452087,casual
A6DA2102EE4F1458,classic_bike,2023-02-25 17:39:14,2023-02-25 17:58:08,W 34 St & Hudson Blvd E,6535.04,E 68 St & Madison Ave,6932.15,40.755301595,-74.00101757,40.7691572,-73.96703464,member
C9162C91979E0ED7,classic_bike,2023-02-08 11:13:01,2023-02-08 11:33:18,Broadway & Berry St,5164.05,Lorimer St & Broadway,4965.01,40.71036129922581,-73.96530389785767,40.70411791,-73.94818595,member
F321E6C6563F9003,classic_bike,2023-02-28 13:38:23,2023-02-28 13:47:07,Ave D & E 8 St,5506.1,Washington Square E,5755.09,40.72368361,-73.97574813,40.73049393,-73.9957214,member
C15E3FECF3509BF4,classic_bike,2023-02-12 16:57:23,2023-02-12 17:05:21,1 Ave & E 68 St,6822.09,E 58 St & 1 Ave (NW Corner),6723.1,40.765095353,-73.958072305,40.759125,-73.962658,member
C8ACEA50F06F5410,classic_bike,2023-02-02 16:28:36,2023-02-02 16:34:26,Crescent St & 34 Ave,6759.15,35 Ave & 37 St,6563.12,40.76108,-73.930562,40.7557327,-73.9236611,member
E5F6603F34DE39E7,electric_bike,2023-02-08 11:42:33,2023-02-08 11:46:24,Broadway & W 131 St,7865.09,W 116 St & Amsterdam Ave,7692.11,40.817555,-73.957163,40.8067581,-73.9607082,member
D2A73FA2DEC420FA,electric_bike,2023-02-23 18:54:00,2023-02-23 19:08:08,E 44 St & Lexington Ave,6464.09,Broadway & W 61 St,7014.12,40.752643,-73.974996,40.77003010255044,-73.9819684624672,member
EC0422329F8CF4C1,classic_bike,2023-02-14 17:12:38,2023-02-14 17:34:41,Riverside Blvd & W 67 St,7183.03,Central Park West & W 72 St,7141.07,40.777507027547976,-73.98888587951659,40.77579376683666,-73.9762057363987,casual
A2F08243E0134B93,electric_bike,2023-02-26 09:37:36,2023-02-26 09:44:55,W 44 St & 11 Ave,6756.05,W 63 St & Broadway,7052.01,40.762009,-73.996975,40.77163851,-73.98261428,member
87A5887BBE82F17D,classic_bike,2023-02-14 17:55:34,2023-02-14 18:05:02,West Broadway & Watts St,5569.07,Lafayette St & E 8 St,5788.13,40.72323,-74.00314,40.73020660529954,-73.99102628231049,member
4C56C8D340D8D05A,classic_bike,2023-02-15 17:23:50,2023-02-15 17:40:24,W 56 St & 6 Ave,6809.07,E 25 St & 2 Ave,6046.02,40.76340613,-73.97722479,40.73912601,-73.97973776,member
234349C16F035A9A,electric_bike,2023-02-06 22:52:29,2023-02-06 23:15:25,Mercer St & Spring St,5532.01,Greenpoint Ave & Manhattan Ave,5785.05,40.72362738,-73.99949601,40.73026,-73.95394,casual
DA1E03711849EC6C,classic_bike,2023-02-16 10:39:09,2023-02-16 10:54:47,Hudson Blvd W & W 36 St,6611.07,Washington Square E,5755.09,40.756931782,-73.999600649,40.73049393,-73.9957214,member
4FB30F0C73F3B659,classic_bike,2023-02-10 17:00:05,2023-02-10 17:02:27,Clinton Ave & Myrtle Ave,4651.02,Flushing Ave & Vanderbilt Ave,4762.05,40.693261,-73.968896,40.69795031569544,-73.97077560424805,member
C1116B344F0FA300,classic_bike,2023-02-23 18:41:43,2023-02-23 18:51:51,Vesey Pl & River Terrace,5297.02,Vesey Pl & River Terrace,5297.02,40.7153379,-74.01658354,40.7153379,-74.01658354,member
F374AD5E9721CC3F,classic_bike,2023-02-15 06:52:57,2023-02-15 07:02:32,FDR Drive & E 35 St,6230.04,E 58 St & 3 Ave,6762.02,40.744219,-73.97121214,40.76095756,-73.96724467,member
9D98C577746E6483,classic_bike,2023-02-19 17:58:04,2023-02-19 18:09:23,Metropolitan Ave & Bedford Ave,5308.04,Myrtle Ave & Fleet Pl,4628.07,40.715365291,-73.960216165,40.693534,-73.981909,casual
5898B588CD54B902,classic_bike,2023-02-18 13:05:03,2023-02-18 13:14:28,Leonard St & Boerum St,5036.06,Driggs Ave & Lorimer St,5481.04,40.70583339,-73.94644578,40.72179134,-73.9504154,member
FC622764B5055EB4,classic_bike,2023-02-02 23:54:01,2023-02-02 23:59:14,Greene Ave & Throop Ave,4510.04,Grove St & Broadway,4526.01,40.689594388,-73.941924691,40.69047,-73.923511,member
784F1972203BF4E7,classic_bike,2023-02-04 13:31:13,2023-02-04 13:36:01,Scholes St & Manhattan Ave,5108.01,Jackson St & Leonard St,5332.1,40.708675027,-73.944932461,40.71638031973561,-73.94821286201477,casual
2882738C0927B713,classic_bike,2023-02-02 16:17:17,2023-02-02 16:20:06,Washington Pl & Broadway,5755.01,Washington Pl & 6 Ave,5838.09,40.72903917,-73.99404649,40.73224119,-74.00026394,member
88491CBBE50622EF,electric_bike,2023-02-25 16:50:39,2023-02-25 16:57:09,Atlantic Ave & Fort Greene Pl,4354.07,Union St & 4 Ave,4175.15,40.68382604,-73.97632328,40.6772744,-73.98282002,member
4EDF652CA6209025,classic_bike,2023-02-03 21:09:13,2023-02-03 21:12:58,Amsterdam Ave & W 125 St,7800.03,Broadway & W 138 St,7942.07,40.813136935,-73.956584811,40.82182,-73.95353,member
1157F17DA9411324,electric_bike,2023-02-10 14:13:34,2023-02-10 14:54:25,Wakeman Pl & Ridge Blvd,2932.03,4 Ave & Shore Road Dr,2832.03,40.639421,-74.026823,40.637033,-74.022141,member
FCE83EB9B8B7FDF7,classic_bike,2023-02-24 12:25:08,2023-02-24 12:27:59,W 15 St & 6 Ave,5989.02,Greenwich Ave & 8 Ave,6072.06,40.738046142482766,-73.99642959237099,40.7390169121,-74.0026376103,member
9B1D0DB775343A9C,classic_bike,2023-02-20 16:33:07,2023-02-20 16:37:19,E 9 St & 5 Ave,5872.1,Cooper Square & Astor Pl,5712.03,40.73275887045087,-73.99581670761108,40.72951496224949,-73.99075269699097,member
F79B11C7A4149A29,classic_bike,2023-02-15 12:39:45,2023-02-15 12:54:19,W 11 St & 6 Ave,5914.03,E 4 St & Ave B,5515.08,40.73532427,-73.99800419,40.72334683218016,-73.98265913128853,member
4A039916ED23A1BA,classic_bike,2023-02-01 11:22:02,2023-02-01 11:24:33,Pitt St & Stanton St,5406.04,E 2 St & Avenue B,5515.02,40.71926081,-73.98178024,40.72217444,-73.98368779,member
CAC1A480D41C5D16,classic_bike,2023-02-17 05:37:27,2023-02-17 05:45:15,Washington Park,4546.05,Dean St & Franklin Ave,4107.13,40.692009449,-73.973815203,40.67759206937376,-73.955637216568,member
6F89CAC29CE773EF,classic_bike,2023-02-20 11:59:56,2023-02-20 12:08:06,Cleveland Pl & Spring St,5492.05,Hudson St & Reade St,5359.10,40.721982241,-73.9972229,40.71625008,-74.0091059,member
E2ED5413656DF82E,classic_bike,2023-02-28 15:11:15,2023-02-28 15:16:19,Wyckoff Ave & Gates Ave,4847.03,Harman St & Seneca Ave,5002.09,40.699878097,-73.91175735,40.70577,-73.91292,member
772E61079A4200DD,classic_bike,2023-02-24 09:11:34,2023-02-24 09:19:29,14 St & 5 Ave,3771.06,45 St & 4 Ave,3275.03,40.666362762,-73.989100099,40.649145,-74.009486,member
EEC44AC70920861D,classic_bike,2023-02-13 07:06:44,2023-02-13 07:10:11,Marion Ave & Mosholu Pkwy,8699.01,Jerome Ave & Bedford Park Blvd E,8734.02,40.87058568,-73.881893396,40.87307,-73.88971,member
21DA52ECC2F9A502,classic_bike,2023-02-18 12:06:13,2023-02-18 13:04:38,W 22 St & 8 Ave,6224.03,12 Ave & W 125 St,7886.02,40.74475148,-73.99915362,40.818299,-73.960405,member
D8581C14CD4D2934,classic_bike,2023-02-12 14:09:29,2023-02-12 14:21:11,Washington Square E,5755.09,E 2 St & Avenue C,5476.03,40.73049393,-73.9957214,40.7208736,-73.98085795,member
DB49D2231168267D,classic_bike,2023-02-02 23:23:55,2023-02-02 23:31:05,4 Ave & E 12 St,5788.15,E 2 St & Avenue A,5553.10,40.732647,-73.99011,40.72307749068673,-73.98583620786667,member
0974366CB82C19B7,classic_bike,2023-02-09 13:13:18,2023-02-09 13:17:43,McGuinness Blvd & Eagle St,5977.01,Vernon Blvd & 50 Ave,6170.02,40.735467553,-73.952814221,40.74232744,-73.95411749,member
CC42B432A44F605B,classic_bike,2023-02-14 15:36:18,2023-02-14 15:41:05,Broadway & W 51 St,6779.04,W 52 St & 11 Ave,6926.01,40.76228826,-73.98336183,40.76727216,-73.99392888,member
DBF8E396F10FFCA5,classic_bike,2023-02-22 09:37:47,2023-02-22 09:44:18,W 18 St & 6 Ave,6064.08,W 47 St & 6 Ave,6667.04,40.73957932,-73.994378924,40.758397,-73.98255,member
592F4A42011B2F9D,classic_bike,2023-02-20 20:17:53,2023-02-20 20:20:55,MacDonough St & Marcy Ave,4246.02,Monroe St & Tompkins Ave,4434.06,40.68078,-73.94613,40.686203,-73.944694,member
31A9F34A13D57C43,classic_bike,2023-02-22 21:08:30,2023-02-22 21:11:39,Metropolitan Ave & Bedford Ave,5308.04,Broadway & Berry St,5164.05,40.715367436,-73.960258365,40.71036129922581,-73.96530389785767,casual
DDA043B563BEC6FA,classic_bike,2023-02-28 22:19:47,2023-02-28 22:34:35,Bushwick Ave & McKibbin St,5027.02,Stanhope St & Fairview Ave,5146.03,40.705517,-73.93936,40.70998,-73.91116,member
8582632896333D85,classic_bike,2023-02-27 17:33:38,2023-02-27 17:38:03,47 Ave & 31 St,6151.03,34 St & 48 Ave,6110.01,40.743,-73.93561,40.740821207823245,-73.93147185444832,member
9ED59B651C9A1029,electric_bike,2023-02-08 09:45:30,2023-02-08 09:54:31,W 59 St & 10 Ave,7023.04,E 51 St & Lexington Ave,6659.01,40.770513,-73.988038,40.75714758,-73.97207836,member
3719C1EEA37EE557,classic_bike,2023-02-25 10:39:56,2023-02-25 10:50:15,E 20 St & Park Ave,6055.08,Carmine St & 6 Ave,5763.03,40.73821938,-73.987622261,40.73038599,-74.00214988,casual
D2C5C143F6682375,classic_bike,2023-02-09 18:15:43,2023-02-09 18:26:16,W 13 St & 5 Ave,5947.04,E 2 St & Avenue C,5476.03,40.735445,-73.99431,40.7208736,-73.98085795,casual
21C37E8825E4465D,classic_bike,2023-02-21 18:19:37,2023-02-21 18:22:55,Ave C & E 16 St,5769.06,E 9 St & Avenue C,5616.01,40.72984830346529,-73.97455215454102,40.72521311,-73.97768752,member
087F1B21B5C0E58D,classic_bike,2023-02-06 05:24:38,2023-02-06 05:28:41,Irving Ave & DeKalb Ave,4898.02,Myrtle Ave & Linden St,4816.02,40.7027,-73.92095,40.69943,-73.91337,member
66E7227BD84EE8F1,classic_bike,2023-02-27 14:52:51,2023-02-27 15:03:17,36 Ave & 10 St,6737.03,46 Ave & 5 St,6286.02,40.7614376,-73.9411265,40.74731,-73.95451,member
CFA80F8163967CF9,classic_bike,2023-02-09 17:18:17,2023-02-09 17:18:41,Canal St & Rutgers St,5303.08,Canal St & Rutgers St,5303.08,40.71427487,-73.98990025,40.71427487,-73.98990025,member
A251AE6AF815EAAD,classic_bike,2023-02-09 20:53:12,2023-02-09 21:00:15,Broadway & E 19 St,6098.12,E 13 St & 2 Ave,5820.08,40.73866091428551,-73.98987293243407,40.73153937464073,-73.9853024482727,member
992B6AE1C1CC998D,classic_bike,2023-02-16 20:47:15,2023-02-16 20:53:17,Flushing Ave & Vanderbilt Ave,4762.05,Myrtle Ave & Fleet Pl,4628.07,40.697955966,-73.97072041,40.693534,-73.981909,member
D856FF4C592C0E1B,classic_bike,2023-02-12 14:25:44,2023-02-12 14:27:12,Suffolk St & Stanton St,5445.02,E 2 St & Avenue B,5515.02,40.721116304,-73.98497045,40.72217444,-73.98368779,member
D88DA8194B32CAAB,classic_bike,2023-02-17 19:10:38,2023-02-17 19:13:25,Pacific St & Nostrand Ave,4140.03,Hancock St & Bedford Ave,4255.05,40.677640915,-73.949585319,40.68216564,-73.95399026,member
1C6638FF428EAC42,classic_bike,2023-02-21 17:55:30,2023-02-21 17:59:01,St Nicholas Ave & Manhattan Ave,7723.01,W 116 St & Amsterdam Ave,7692.11,40.809680939,-73.95309031,40.8067581,-73.9607082,member
54A3A4523045206A,classic_bike,2023-02-16 10:02:50,2023-02-16 10:18:07,Washington Square E,5755.09,W 54 St & 11 Ave,6955.05,40.730573773,-73.995735407,40.768333,-73.992573,member
F7077A5030F4B220,electric_bike,2023-02-10 17:03:27,2023-02-10 17:12:23,Vesey Pl & River Terrace,5297.02,Grand St & Greene St,5500.02,40.7153379,-74.01658354,40.72170005235607,-74.00238141417502,member
8EC3367DADAAF7DC,electric_bike,2023-02-19 20:00:06,2023-02-19 20:07:42,E 4 St & 2 Ave,5593.04,E 22 St & 2 Ave,5971.09,40.7262807,-73.98978041,40.73716919369882,-73.98122549057007,casual
2AE1DDA5E344B0BB,classic_bike,2023-02-27 19:58:50,2023-02-27 20:32:13,Greenwich St & Perry St,5922.04,6 Ave & Canal St,5500.07,40.734866381,-74.007015467,40.72243797,-74.00566443,member
263FEFA9AE82AFF2,classic_bike,2023-02-13 19:08:33,2023-02-13 19:15:32,W 34 St & Hudson Blvd E,6535.04,W 56 St & 10 Ave,6955.01,40.755408764,-74.000684142,40.768254,-73.988639,member
BDD9CEEE8B2E1A38,electric_bike,2023-02-13 17:53:18,2023-02-13 18:07:08,Bergen St & Smith St,4446.01,Greene Ave & Throop Ave,4510.04,40.6867443,-73.99063168,40.6894932,-73.942061,member
AAB836A102700357,classic_bike,2023-02-03 19:47:53,2023-02-03 19:51:47,1 Ave & E 18 St,5854.09,E 25 St & 2 Ave,6046.02,40.73381219196632,-73.98054420948029,40.73912601,-73.97973776,member
F9694305B0D22F2E,classic_bike,2023-02-10 14:25:18,2023-02-10 14:27:37,Convent Ave & W 135 St,7860.08,Broadway & W 138 St,7942.07,40.818151593,-73.951093912,40.82182,-73.95353,member
3F1A2E731DF9EC87,classic_bike,2023-02-07 15:36:10,2023-02-07 15:57:40,Amsterdam Ave & W 73 St,7260.09,7 Ave S & Bleecker St,5805.07,40.779572725,-73.980479836,40.73213896287381,-74.00363802909851,member
3075CA3DB7F8C821,classic_bike,2023-02-27 11:00:17,2023-02-27 11:11:30,Union Ave & N 12 St,5411.07,Broadway & Berry St,5164.05,40.71924,-73.95242,40.71036129922581,-73.96530389785767,casual
E22AB08D309A6DA0,electric_bike,2023-02-22 10:19:07,2023-02-22 10:28:44,Driggs Ave & N Henry St,5542.04,S 4 St & Wythe Ave,5204.05,40.72325,-73.94308,40.71285887,-73.96590294,member
0F8A890397068061,classic_bike,2023-02-26 09:04:51,2023-02-26 09:14:36,W 84 St & Columbus Ave,7382.04,W 42 St & Dyer Ave,6644.07,40.785103321,-73.973038793,40.75898481399634,-73.99379968643188,member
647C76B8FAB45F24,classic_bike,2023-02-23 18:45:59,2023-02-23 18:47:30,Madison St & Clinton St,5190.07,Rutgers St & Henry St,5230.02,40.71269042,-73.98776323,40.71332151208186,-73.99009689688683,member
6137D7CE805656BF,classic_bike,2023-02-28 13:25:42,2023-02-28 13:34:14,Greenwich St & Perry St,5922.04,Greenwich St & W Houston St,5730.08,40.73460567,-74.006927848,40.728846,-74.008591,casual
CE9BF84E6B7858F1,classic_bike,2023-02-15 09:46:00,2023-02-15 09:51:22,S 4 St & Rodney St,5156.05,Broadway & Berry St,5164.05,40.70934,-73.95608,40.71036129922581,-73.96530389785767,member
B2E7FBB47F15060F,classic_bike,2023-02-15 13:25:17,2023-02-15 13:29:51,Banker St & Meserole Ave,5633.04,Wythe Ave & Metropolitan Ave,5348.02,40.72606,-73.95621,40.716887,-73.963198,member
6EA5E39BF5568D81,classic_bike,2023-02-15 12:32:44,2023-02-15 12:52:37,Cooper Square & Astor Pl,5712.03,W 26 St & 10 Ave,6382.05,40.729441404,-73.99078238,40.749717753,-74.002950346,member
C157A6D8D28AE610,classic_bike,2023-02-24 09:09:04,2023-02-24 09:11:10,E 142 St & 3 Ave,7781.1,Lincoln Ave & E 138 St,7744.06,40.812744498,-73.923662305,40.810893,-73.927311,member
918653AFF12E770B,classic_bike,2023-02-19 19:50:53,2023-02-19 20:06:17,Grand Army Plaza & Central Park S,6839.10,Grand Army Plaza & Central Park S,6839.10,40.7643971,-73.97371465,40.7643971,-73.97371465,casual
AC5D680F6AF4F16C,classic_bike,2023-02-20 10:47:29,2023-02-20 11:21:20,Lenox Ave & W 117 St,7655.22,W 111 St & 5 Ave,7587.16,40.802432775,-73.949223399,40.79752078124756,-73.9489397406578,member
1520E7A6E41227DA,classic_bike,2023-02-04 20:51:37,2023-02-04 21:01:11,E 32 St & Park Ave,6280.12,E 7 St & Ave B,5584.05,40.745466471,-73.982167363,40.7251285241158,-73.98131668567657,member
A1FE0082BA5E4CB6,classic_bike,2023-02-09 07:11:18,2023-02-09 07:30:54,Calyer St & Jewel St,5743.02,1 Ave & E 68 St,6822.09,40.729745626,-73.948402643,40.76500525,-73.95818491,member
F961A6C2122CE22C,classic_bike,2023-02-27 07:27:11,2023-02-27 07:33:05,5 Ave & W 126 St,7701.21,W 111 St & 5 Ave,7587.16,40.807295203,-73.94173944,40.79752078124756,-73.9489397406578,member
B6B3C099FEB89678,classic_bike,2023-02-20 12:53:07,2023-02-20 13:13:57,6 Ave & 60 St,2912.08,7 Ave & 62 St,2821.05,40.638196,-74.013821,40.63556,-74.01298,member
7DBFEFCB3BC0D068,classic_bike,2023-02-25 21:13:03,2023-02-25 21:14:58,W 17 St & 7 Ave,6107.08,W 15 St & 6 Ave,5989.02,40.74056423633952,-73.99852573871613,40.738046142482766,-73.99642959237099,member
717945EBF9D7BA40,electric_bike,2023-02-05 16:02:33,2023-02-05 16:06:22,Perry St & Greenwich Ave,5955.12,Greenwich St & W Houston St,5730.08,40.735918,-74.000939,40.728846,-74.008591,member
6E99CF37DBF90F2B,classic_bike,2023-02-01 14:16:38,2023-02-01 14:38:14,31 St & Thomson Ave,6227.02,36 St & 47 Ave,6143.01,40.744496703,-73.935680389,40.74221834996096,-73.92935156822205,member
57783A55D522AA39,classic_bike,2023-02-03 16:05:23,2023-02-03 16:09:50,Broadway & W 41 St,6560.01,Broadway & W 25 St,6173.08,40.755099893,-73.986933231,40.74286877312112,-73.98918628692627,member
195F29BE3F434756,electric_bike,2023-02-01 08:47:30,2023-02-01 08:53:40,Menahan St & Seneca Ave,4963.13,Forest Ave & Summerfield St,4798.02,40.70461,-73.91054,40.69922,-73.89795,casual
E92EAE7676F3423D,classic_bike,2023-02-20 02:08:03,2023-02-20 02:15:32,W 15 St & 7 Ave,6030.06,E 27 St & Park Ave S,6131.13,40.73935542,-73.99931783,40.74275179648995,-73.9847157150507,member
05F8B4A133FD409A,electric_bike,2023-02-17 08:46:13,2023-02-17 08:51:30,48 Ave & 5 St,6212.04,27 St & Hunter St,6310.06,40.74436328706688,-73.9558732509613,40.7485,-73.941275,member
8BCFFD344C7FBCE8,classic_bike,2023-02-05 18:59:11,2023-02-05 19:03:01,W 24 St & 7 Ave,6257.03,W 15 St & 7 Ave,6030.06,40.74487634,-73.99529885,40.73935542,-73.99931783,member
FBC320C3129E6BD4,classic_bike,2023-02-04 06:55:38,2023-02-04 06:59:50,E 14 St & 1 Ave,5779.10,W 15 St & 6 Ave,5989.02,40.731455207,-73.98311758,40.738046142482766,-73.99642959237099,member
12F3243023987CE0,classic_bike,2023-02-21 19:17:58,2023-02-21 19:23:40,4 Ave & 26 St,3596.04,36 St & 3 Ave,3460.02,40.660079,-73.998633,40.655716,-74.006664,member
168441E9A3BBE279,classic_bike,2023-02-06 09:04:55,2023-02-06 09:12:22,W 49 St & 8 Ave,6747.06,W 48 St &  Rockefeller Plaza,6626.11,40.76227205,-73.98788205,40.75776935448309,-73.97929430007935,member
20BC54F9FCE2785C,classic_bike,2023-02-13 17:45:43,2023-02-13 17:58:51,1 Ave & E 62 St,6753.08,28 St & 36 Ave,6614.01,40.7612274,-73.96094022,40.757186,-73.932719,member
825883D9FD49AE8C,classic_bike,2023-02-05 18:01:47,2023-02-05 18:12:46,Bank St & Hudson St,5922.08,Greenwich St & Hubert St,5470.10,40.736584187,-74.006009817,40.721319,-74.010065,member
B233E0AD71DCF08A,classic_bike,2023-02-20 20:42:00,2023-02-20 21:09:07,Bedford Ave & S 9 St,5093.01,S 4 St & Rodney St,5156.05,40.70853074,-73.96408963,40.70934,-73.95608,member
CCB8B4CAB8DBAB25,classic_bike,2023-02-17 16:12:20,2023-02-17 16:48:04,Broadway & W 38 St,6560.15,Grand St & Greene St,5500.02,40.7529728216068,-73.98734897375107,40.72170005235607,-74.00238141417502,member
30D241C3443F55A9,classic_bike,2023-02-27 15:32:19,2023-02-27 16:18:19,W 44 St & 5 Ave,6551.02,E 26 St & 3 Ave,6089.11,40.755003572,-73.980481267,40.74069317733043,-73.98160636425018,member
BF4BF552B99314F8,classic_bike,2023-02-09 14:10:23,2023-02-09 14:16:04,White St & Johnson Ave,5099.03,Central Ave & Melrose St,4832.07,40.707174,-73.93581,40.70112,-73.93039,member
B1742A2E7BE8AB93,classic_bike,2023-02-26 11:51:35,2023-02-26 12:07:59,45 Rd & 11 St,6319.01,Wythe Ave & Metropolitan Ave,5348.02,40.74707067,-73.949729204,40.716887,-73.963198,casual
06BF74983D026A41,electric_bike,2023-02-20 15:45:45,2023-02-20 15:49:10,Wyckoff Ave & Gates Ave,4847.03,Menahan St & Wyckoff Ave,4890.11,40.699871408829885,-73.91171872615814,40.70113,-73.91422,member
171B8036C55992D3,electric_bike,2023-02-08 13:31:36,2023-02-08 13:37:03,E 7 St & Avenue A,5626.07,Cooper Square & Astor Pl,5712.03,40.72621788,-73.98379855,40.72951496224949,-73.99075269699097,member
28299285B78A26F9,classic_bike,2023-02-10 16:40:46,2023-02-10 16:52:35,E 53 St & 3 Ave,6617.02,W 15 St & 7 Ave,6030.06,40.75744915,-73.969197273,40.73935542,-73.99931783,member
B43F4FA39F996FA5,electric_bike,2023-02-23 17:38:12,2023-02-23 17:46:46,E 51 St & Lexington Ave,6659.01,Broadway & W 48 St,6708.04,40.75714758,-73.97207836,40.76017739537783,-73.98486793041229,member
D4D8218A811C8ED8,classic_bike,2023-02-24 15:53:21,2023-02-24 15:54:24,Washington St & Laight St,5509.02,Greenwich St & Hubert St,5470.10,40.72231,-74.0106,40.721319,-74.010065,member
3041A5749923B9B0,classic_bike,2023-02-16 09:57:46,2023-02-16 10:07:41,E 11 St & 1 Ave,5746.14,1 Ave & E 39 St,6303.01,40.72953837,-73.98426726,40.74714,-73.97113,member
BCF51A005E1B4D06,classic_bike,2023-02-22 17:22:41,2023-02-22 17:32:55,University Pl & E 14 St,5905.14,E 40 St & Park Ave,6432.11,40.734651566,-73.992227316,40.750756,-73.978326,member
B2F4B9D43A063009,classic_bike,2023-02-21 09:27:00,2023-02-21 09:44:42,E 20 St & Park Ave,6055.08,W 54 St & 11 Ave,6955.05,40.73827428,-73.98751968,40.768333,-73.992573,member
DF64D510139DBBE1,classic_bike,2023-02-10 14:03:48,2023-02-10 14:46:09,24 St & 41 Ave,6505.09,S 3 St & Bedford Ave,5235.05,40.75249052,-73.940059543,40.71260486,-73.96264403,casual
6F1AD75862E7C411,classic_bike,2023-02-28 08:35:18,2023-02-28 08:39:30,Kane St & Clinton St,4455.11,Montague St & Clinton St,4677.06,40.686170101,-73.996488333,40.6942715,-73.9923272,member
6DFE6A28ABEAB170,classic_bike,2023-02-16 07:49:56,2023-02-16 08:01:01,Lenox Ave & W 111 St,7602.05,E 77 St & 3 Ave,7092.06,40.798799753,-73.952298522,40.77314236,-73.95856158,member
1637C8DF08564BAE,classic_bike,2023-02-23 09:11:23,2023-02-23 09:19:47,Forsyth St & Broome St,5453.05,William St & Pine St,5065.12,40.718980432,-73.992681384,40.70717936,-74.00887308,member
FF9AFB20EC262FDA,classic_bike,2023-02-16 19:01:39,2023-02-16 19:23:24,Hope St & Union Ave,5187.03,Greenpoint Ave & Manhattan Ave,5785.05,40.71167351,-73.95141312,40.73026,-73.95394,casual
EF2CFFC1C3BB6FD8,classic_bike,2023-02-17 06:55:49,2023-02-17 06:58:39,St Marks Pl & 1 Ave,5626.13,Cooper Square & Astor Pl,5712.03,40.72779126,-73.98564945,40.72951496224949,-73.99075269699097,member
2ABF828695AB1AFF,classic_bike,2023-02-18 10:49:32,2023-02-18 10:53:29,E 4 St & Ave B,5515.08,Ave A & E 14 St,5779.11,40.72334683218016,-73.98265913128853,40.73031071000895,-73.98047178983688,member
BF5DCCA75CB6B308,classic_bike,2023-02-12 16:57:13,2023-02-12 17:05:59,E 22 St & 2 Ave,5971.09,Suffolk St & Stanton St,5445.02,40.737170577,-73.981170058,40.72066442,-73.98517977,member
9A3FFA89AE5ABDC0,classic_bike,2023-02-27 15:04:09,2023-02-27 15:05:07,Broadway & W 133 St,7903.02,Broadway & W 133 St,7903.02,40.819119811,-73.956065416,40.8190344,-73.956156,member
6A66B395235A84B9,classic_bike,2023-02-19 20:09:34,2023-02-19 20:26:40,E 106 St & Madison Ave,7528.31,Westchester Ave & Jackson Ave,7853.01,40.793409705,-73.94938755,40.816124,-73.908116,member
C24CB9E1DF0B6666,classic_bike,2023-02-15 08:11:31,2023-02-15 08:33:28,E 17 St & 2 Ave,5896.01,River Ter & Warren St,5368.03,40.73431166276575,-73.98372530937195,40.71759894980997,-74.01587963104248,member
BFA820F4E15F3C09,classic_bike,2023-02-15 18:06:04,2023-02-15 18:18:15,1 Ave & E 39 St,6303.01,Broadway & W 38 St,6560.15,40.74714,-73.97113,40.7529728216068,-73.98734897375107,member
922877A5015776C8,classic_bike,2023-02-24 09:12:56,2023-02-24 09:43:32,Clinton St & Tillary St,4748.07,E 40 St & Park Ave,6432.11,40.69623297129316,-73.99142056703568,40.750756,-73.978326,member
57AA90F518CDCF62,classic_bike,2023-02-21 18:46:29,2023-02-21 18:50:03,Warren St & W Broadway,5288.09,Vesey Pl & River Terrace,5297.02,40.71473993,-74.00910627,40.7153379,-74.01658354,member
93D288397899372F,classic_bike,2023-02-10 12:34:56,2023-02-10 13:02:09,Cadman Plaza E & Red Cross Pl,4821.06,Adams St & Prospect St,4821.10,40.69991755,-73.98971773,40.70076308326151,-73.98869812488556,casual
9FD883578AB28337,electric_bike,2023-02-24 17:26:52,2023-02-24 17:33:32,E 44 St & 2 Ave,6422.09,2 Ave & E 29 St,6122.09,40.75118387463277,-73.97138714790344,40.74172351097472,-73.97809267044067,member
B39519E51E9E4DE4,classic_bike,2023-02-25 15:59:46,2023-02-25 16:41:40,South St & Gouverneur Ln,4953.04,Spring St & Hudson St,5653.12,40.70355377,-74.00670227,40.72583996792375,-74.0076532959938,casual
F53FF0C6090406C2,classic_bike,2023-02-09 08:36:15,2023-02-09 08:53:59,W 59 St & 10 Ave,7023.04,W 40 St & 5 Ave,6474.02,40.770513,-73.988038,40.752269,-73.982079,member
CD8CFE43C1779BF4,classic_bike,2023-02-17 22:50:56,2023-02-17 23:06:13,Sheridan Ave & E 168 St,8160.03,Lexington Ave & E 111 St,7567.06,40.83540082,-73.915493488,40.7954121,-73.9441232,member
EBC5B4304880AC26,classic_bike,2023-02-01 09:04:18,2023-02-01 09:09:47,E 7 St & Ave C,5545.01,E 11 St & 1 Ave,5746.14,40.72412944090093,-73.97901266813278,40.72953837,-73.98426726,member
16E7D0A6C14CD3C7,classic_bike,2023-02-17 18:59:57,2023-02-17 19:03:03,Cooper Square & Astor Pl,5712.03,1 Ave & E 6 St,5626.15,40.72951496224949,-73.99075269699097,40.72633085971696,-73.98616880178452,member
C9107D7BC9FB3704,electric_bike,2023-02-03 07:38:18,2023-02-03 07:46:19,12 Ave & W 40 St,6765.01,10 Ave & W 14 St,6157.04,40.76087502,-74.00277668,40.74198159994023,-74.00831580162048,casual
51562788CCB72485,classic_bike,2023-02-19 10:33:57,2023-02-19 10:48:52,Boerum St & Broadway,5004.02,E 11 St & 1 Ave,5746.14,40.705367446,-73.949811935,40.72953837,-73.98426726,member
AEE5805D1976619C,classic_bike,2023-02-19 14:20:59,2023-02-19 14:29:16,W 100 St & Broadway,7580.01,Amsterdam Ave & W 79 St,7311.02,40.7973721,-73.97041192,40.7829391,-73.9786517,member
8CA040AFC55455D6,classic_bike,2023-02-02 08:42:54,2023-02-02 08:47:19,West End Ave & W 60 St,7059.08,Riverside Blvd & W 67 St,7183.03,40.77237,-73.99005,40.777507027547976,-73.98888587951659,casual
9AF645BD1C421D64,electric_bike,2023-02-01 13:09:36,2023-02-01 13:32:25,Malcolm X Blvd & DeKalb Ave,4648.03,Prospect Park West & 8 St,3722.04,40.6938,-73.93114,40.66514681533792,-73.97637605667114,member
30168A4CCC2C8297,electric_bike,2023-02-07 15:06:46,2023-02-07 15:12:22,E Burnside Ave & Ryer Ave,8397.02,Grand Concourse & E 192 St,8601.04,40.850535,-73.901318,40.86448,-73.89522,member
44E2D3E0B3363A6B,classic_bike,2023-02-14 20:36:50,2023-02-14 20:52:03,Bayard St & Baxter St,5351.03,Suffolk St & Stanton St,5445.02,40.71602118,-73.99974372,40.72066442,-73.98517977,member
71687EF791E4F6CA,classic_bike,2023-02-23 20:09:43,2023-02-23 20:19:14,W 40 St & 7 Ave,6560.14,6 Ave & W 45 St,6593.15,40.75493896,-73.988120675,40.756951,-73.982631,member
4A14DE1E44BDC44B,classic_bike,2023-02-06 09:25:45,2023-02-06 09:33:28,President St & 4 Ave,4101.17,Hanson Pl & Ashland Pl,4395.07,40.676757,-73.983262,40.68506807308177,-73.97790759801863,member
8932F7FB10D667E1,classic_bike,2023-02-19 20:38:09,2023-02-19 20:43:40,W 56 St & 8 Ave,6884.03,W 52 St & 11 Ave,6926.01,40.765959181657976,-73.98313522338867,40.76727216,-73.99392888,member
FE7F128BA270DD9A,electric_bike,2023-02-20 18:56:42,2023-02-20 19:12:21,1 Ave & E 62 St,6753.08,Vernon Blvd & 31 Ave,7003.06,40.7612274,-73.96094022,40.7692475,-73.9354504,member
A48F3C82550ACC73,classic_bike,2023-02-20 06:02:53,2023-02-20 06:05:30,48 St & Skillman Ave,6283.05,48 St & Skillman Ave,6283.05,40.746108651,-73.916136265,40.74622874694195,-73.91616314649582,member
ABA2EF49E5D0EFBC,classic_bike,2023-02-26 06:01:19,2023-02-26 06:04:15,30 Ave & 41 St,6812.06,Steinway St & Broadway,6711.13,40.763422,-73.914142,40.75905795418586,-73.91897544264793,casual
1AC8367056D7AD92,classic_bike,2023-02-16 05:47:10,2023-02-16 06:26:10,E 13 St & 2 Ave,5820.08,Amsterdam Ave & W 79 St,7311.02,40.73153937464073,-73.9853024482727,40.7829391,-73.9786517,member
9011C223F5C93C99,electric_bike,2023-02-07 11:41:17,2023-02-07 11:43:21,Mercer St & Bleecker St,5679.05,University Pl & E 8 St,5755.14,40.72706363348306,-73.99662137031554,40.73143724085228,-73.99490341544151,member
C8D64618DF6C317C,electric_bike,2023-02-15 09:44:50,2023-02-15 10:00:00,40 St & Queens Blvd,6176.11,Graham Ave & Conselyea St,5291.05,40.743540273428685,-73.92435193061829,40.715143,-73.944507,casual
1B0D3534E9F6E2F1,classic_bike,2023-02-14 18:09:53,2023-02-14 18:31:01,Milton St & Franklin St,5752.07,Willoughby Ave & Tompkins Ave,4665.02,40.72906,-73.95779,40.69425403,-73.94626915,member
62EC7A36FB84E9A5,electric_bike,2023-02-13 16:26:13,2023-02-13 16:29:42,E 1 St & 1 Ave,5593.01,E 11 St & 1 Ave,5746.14,40.72335597960796,-73.98864984512329,40.72953837,-73.98426726,member
22F3670FE99D28AA,classic_bike,2023-02-23 07:35:09,2023-02-23 07:47:14,Kingsland Ave & Nassau Ave,5613.04,Berry St & N 8 St,5379.09,40.72577,-73.94173,40.7190095,-73.95852515,member
AE930211D128C2DC,docked_bike,2023-02-20 14:57:32,2023-02-20 15:54:24,Atlantic Ave & Furman St,4614.04,Hicks St & Montague St,4645.09,40.691652,-73.999979,40.695128,-73.995951,casual
78F5736FD10E8A11,electric_bike,2023-02-01 07:38:35,2023-02-01 07:46:04,Lexington Ave & E 24 St,6089.07,W 29 St & 9 Ave,6416.06,40.74025878,-73.98409214,40.7500727,-73.99839279,member
ADA54B9EF26FC299,classic_bike,2023-02-11 11:46:09,2023-02-11 11:57:00,E 80 St & 2 Ave,7121.02,E 58 St & Madison Ave,6839.04,40.774018645,-73.95428133,40.76302594280519,-73.97209525108337,member
F6F98B391FFA64E9,classic_bike,2023-02-09 07:33:00,2023-02-09 08:07:20,Graham Ave & Withers St,5403.04,Grand Army Plaza & Central Park S,6839.10,40.7169811,-73.94485918,40.7643971,-73.97371465,member
2EE0AEB0C60853FD,classic_bike,2023-02-27 18:38:56,2023-02-27 18:46:46,Amsterdam Ave & W 82 St,7360.1,W 87 St & West End Ave,7484.05,40.751086473,-73.987444997,40.789622,-73.97757,member
39A0B041CE40EF99,classic_bike,2023-02-20 11:08:02,2023-02-20 11:55:30,3 Ave & Carroll St,4143.04,4 Ave & Shore Road Dr,2832.03,40.677027,-73.9865,40.637033,-74.022141,casual
0DAC38274ACADC97,classic_bike,2023-02-04 08:14:54,2023-02-04 08:23:22,Van Dam St & Greenpoint Ave,5883.06,Meserole Ave & Manhattan Ave,5666.04,40.73443564069459,-73.93790781497955,40.72708584,-73.95299117,member
94BE17F894037568,electric_bike,2023-02-22 05:35:36,2023-02-22 05:44:42,W 22 St & 8 Ave,6224.03,W 51 St & Rockefeller Plaza,6700.14,40.74475148,-73.99915362,40.75973805251143,-73.97811613976955,member
8F0539B876C7C43F,classic_bike,2023-02-24 08:09:36,2023-02-24 08:28:54,W 87 St & West End Ave,7484.05,E 51 St & Lexington Ave,6659.01,40.789622,-73.97757,40.75714758,-73.97207836,member
A120A3290CC70826,classic_bike,2023-02-09 16:37:08,2023-02-09 16:47:40,E 39 St & Lexington Ave,6389.09,W 51 St & 6 Ave,6740.1,40.7494985460252,-73.97729203113158,40.7606597,-73.98042047,member
D348AE957188E0B2,electric_bike,2023-02-10 19:09:13,2023-02-10 19:14:22,8 Ave & W 16 St,6072.11,W 22 St & 10 Ave,6306.06,40.740983,-74.001702,40.74691959,-74.00451887,member
11007057987C4D40,classic_bike,2023-02-25 17:42:16,2023-02-25 18:12:58,Leonard St & Nassau Ave,5550.09,Ditmars Blvd & 73 St,6964.05,40.723852158,-73.949815154,40.76817,-73.896293,member
DCC368DBB4F3B388,classic_bike,2023-02-26 17:59:01,2023-02-26 18:06:46,St Marks Pl & 2 Ave,5669.10,University Pl & E 14 St,5905.14,40.7284186,-73.98713956,40.734814,-73.992085,member
C0FF4AE4B2DDF724,classic_bike,2023-02-14 15:14:30,2023-02-14 15:27:23,Forsyth St & Grand St,5382.07,Avenue D & E 3 St,5436.09,40.71779817737835,-73.99316132068634,40.72082834,-73.97793172,member
254EC655C34D36C1,electric_bike,2023-02-16 18:56:44,2023-02-16 19:04:15,8 Ave & W 33 St,6450.12,E 40 St & Park Ave,6432.11,40.751551,-73.993934,40.750756,-73.978326,member
7C20FE51615177D9,classic_bike,2023-02-21 22:34:13,2023-02-21 22:43:26,Grand St & Elizabeth St,5382.06,E 4 St & Ave B,5515.08,40.718822,-73.99596,40.72334683218016,-73.98265913128853,member
BD8BB46A69AF7BF0,classic_bike,2023-02-02 08:02:11,2023-02-02 08:16:58,W 35 St & 8 Ave,6526.01,Broadway & W 58 St,6948.10,40.752762088742045,-73.99280458705107,40.76695317,-73.98169333,member
61C09F7640122435,classic_bike,2023-02-18 18:18:28,2023-02-18 18:55:28,E 201 St & Briggs Ave,8717.07,Bainbridge Ave & E 196 St,8615.01,40.871978521,-73.8847121,40.86648,-73.89042,member
EB48365A6B3241E7,classic_bike,2023-02-20 17:00:25,2023-02-20 17:06:46,E Houston St & Columbia St,5436.11,Avenue D & E 10 St,5575.13,40.719647288,-73.978449583,40.72506551015475,-73.97515833377838,casual
2E3CFED03BE11EFF,classic_bike,2023-02-10 02:19:39,2023-02-10 02:25:33,Sharon St & Olive St,5323.06,Wyckoff Av & Jefferson St,5051.01,40.715330958,-73.938487053,40.707165,-73.923711,member
1F597E3D471BEA6F,electric_bike,2023-02-12 15:44:44,2023-02-12 15:46:36,Broadway & W 48 St,6708.04,Broadway & W 53 St,6779.05,40.76017739537783,-73.98486793041229,40.76344058,-73.98268129,member
DAF10A23CDC23D64,classic_bike,2023-02-05 17:46:44,2023-02-05 17:51:07,Columbus Ave & W 72 St,7175.05,W 87 St & West End Ave,7484.05,40.777239799,-73.978852749,40.789622,-73.97757,member
36C840712E58E3B4,classic_bike,2023-02-15 16:54:11,2023-02-15 17:38:29,Old Broadway & W 133 St,7881.09,W 170 St & University Ave,8254.01,40.818212,-73.955277,40.84207,-73.926075,member
8846F6F86402EB47,classic_bike,2023-02-28 18:10:11,2023-02-28 18:27:11,Greenwich St & Perry St,5922.04,Riverside Blvd & W 67 St,7183.03,40.734758854,-74.006958485,40.777507027547976,-73.98888587951659,member
D35E91D7771C9400,electric_bike,2023-02-14 18:47:29,2023-02-14 19:00:47,W 56 St & 10 Ave,6955.01,E 40 St & Park Ave,6432.11,40.768254,-73.988639,40.750756,-73.978326,member
C989BB75CEA5EE02,classic_bike,2023-02-03 10:49:25,2023-02-03 11:06:56,Montrose Ave & Bushwick Ave,5068.02,Bridge St & York St,4853.06,40.707701802,-73.940305591,40.70133448066992,-73.98471236228943,member
43CF0E3F88583FC8,classic_bike,2023-02-03 22:23:15,2023-02-03 22:25:33,Wyckoff Av & Stanhope St,4931.05,Wyckoff Av & Jefferson St,5051.01,40.703488827,-73.917830229,40.707165,-73.923711,member
52217A2721A13246,electric_bike,2023-02-02 08:36:59,2023-02-02 08:42:42,E 40 St & Park Ave,6432.11,W 44 St & 5 Ave,6551.02,40.750756,-73.978326,40.75500254,-73.98014437,member
3986FD88420EC114,classic_bike,2023-02-08 08:10:04,2023-02-08 08:16:54,Menahan St & Seneca Ave,4963.13,Knickerbocker Ave & Thames St,5018.06,40.704793453,-73.910375118,40.70539,-73.92976,member
B1066D8FD59440D4,classic_bike,2023-02-05 15:16:02,2023-02-05 15:22:05,Driggs Ave & Lorimer St,5481.04,Broadway & Berry St,5164.05,40.721844792,-73.950483918,40.71036129922581,-73.96530389785767,member
D6BFFAF30B4ECBBC,classic_bike,2023-02-10 15:15:14,2023-02-10 15:22:01,1 Ave & E 78 St,7020.09,5 Ave & E 78 St,7161.08,40.77140426,-73.9535166,40.77632142182271,-73.96427392959595,member
143496778D443623,electric_bike,2023-02-07 07:06:27,2023-02-07 07:31:09,West End Ave & W 78 St,7340.07,1 Ave & E 30 St,6079.03,40.783786,-73.981687,40.74144387,-73.97536082,member
4E2A2AD2E6DEF8DA,classic_bike,2023-02-27 07:46:02,2023-02-27 07:47:41,Pike St & Monroe St,5159.04,Pike St & E Broadway,5270.05,40.71173107,-73.99193043,40.71406667,-73.99293911,member
5283CE9054A3C9FB,classic_bike,2023-02-18 15:11:13,2023-02-18 15:21:27,Broadway & W 51 St,6779.04,Central Park West & W 72 St,7141.07,40.76228826,-73.98336183,40.77579376683666,-73.9762057363987,member
154A659F2F175ED1,classic_bike,2023-02-23 09:14:06,2023-02-23 09:19:22,St Marks Pl & 1 Ave,5626.13,Lafayette St & E 8 St,5788.13,40.72779126,-73.98564945,40.73020660529954,-73.99102628231049,member
82221E029463351B,classic_bike,2023-02-27 15:32:37,2023-02-27 15:38:16,E 3 St & 1 Ave,5553.03,Ave A & E 14 St,5779.11,40.72467721,-73.98783413,40.73031071000895,-73.98047178983688,member
674972B35CDFA818,electric_bike,2023-02-26 15:37:34,2023-02-26 15:37:53,W 50 St & 9 Ave,6854.05,W 50 St & 9 Ave,6854.05,40.76360467795863,-73.98917958140373,40.76360467795863,-73.98917958140373,member
D0CF81CC7553B4A6,electric_bike,2023-02-02 20:08:29,2023-02-02 20:17:59,E 7 St & Avenue A,5626.07,Washington Square E,5755.09,40.72621788,-73.98379855,40.73049393,-73.9957214,member
F9CC34522955C477,classic_bike,2023-02-05 09:46:22,2023-02-05 10:14:58,Broadway & Kosciuszko St,4608.01,Forsyth St & Broome St,5453.05,40.69329,-73.92852,40.71893904,-73.99266288,casual
F1384F86F17B8ABC,classic_bike,2023-02-04 22:20:25,2023-02-04 22:34:17,8 Ave & W 27 St,6297.07,E 3 St & 1 Ave,5553.03,40.748116255,-73.996657491,40.72467721,-73.98783413,member
A2CD1EE1436E302F,classic_bike,2023-02-15 10:14:10,2023-02-15 10:25:21,Washington St & Gansevoort St,6039.06,West St & Chambers St,5329.03,40.739323,-74.008119,40.71754834,-74.01322069,member
A5E9D0B7F0B0C473,electric_bike,2023-02-06 17:57:34,2023-02-06 18:11:48,46 Ave & 5 St,6286.02,48 St & Skillman Ave,6283.05,40.74731,-73.95451,40.74622874694195,-73.91616314649582,member
811AFD30BA3A5EFF,classic_bike,2023-02-28 17:46:10,2023-02-28 17:57:48,Metropolitan Ave & Bedford Ave,5308.04,Clinton Ave & Myrtle Ave,4651.02,40.715263367,-73.96004796,40.693261,-73.968896,member
9918B1DF470AA89A,classic_bike,2023-02-09 20:58:10,2023-02-09 21:02:44,E 81 St & York Ave,7084.12,E 72 St & Park Ave,6998.08,40.772751808,-73.949843645,40.77118287540658,-73.96409422159195,member
4BC4E53A78F1C4B2,classic_bike,2023-02-24 08:18:12,2023-02-24 08:52:17,E 97 St & 3 Ave,7365.08,W 29 St & 9 Ave,6416.06,40.7859201,-73.94860294,40.7500727,-73.99839279,member
1B93D1A1C0E57336,classic_bike,2023-02-20 18:07:33,2023-02-20 18:16:21,1 Ave & E 39 St,6303.01,E 56 St & 3 Ave,6691.11,40.74714,-73.97113,40.75934501,-73.96759673,casual
E634600FECF69DE6,classic_bike,2023-02-02 00:14:16,2023-02-02 00:25:42,Henry St & Remsen St,4645.04,Henry St & Remsen St,4645.04,40.69400964865994,-73.99465128779411,40.69400964865994,-73.99465128779411,casual
879144452B3FF26B,classic_bike,2023-02-10 16:08:05,2023-02-10 16:12:30,W 26 St & 8 Ave,6297.02,W 15 St & 7 Ave,6030.06,40.74734825,-73.99723551,40.73935542,-73.99931783,member
8DDF9EB647F3AF8F,classic_bike,2023-02-12 17:11:23,2023-02-12 17:22:36,Flushing Ave & Vanderbilt Ave,4762.05,S 3 St & Bedford Ave,5235.05,40.69795031569544,-73.97077560424805,40.71260486,-73.96264403,member
703AB1166C1D8428,electric_bike,2023-02-28 07:31:18,2023-02-28 08:04:08,Riverside Dr & W 145 St,8018.04,2 Ave & E 99 St,7386.1,40.827305,-73.951989,40.7862586,-73.94552579,member
777316EAA12A7B18,classic_bike,2023-02-25 10:55:42,2023-02-25 11:00:36,W 18 St & 6 Ave,6064.08,Sullivan St & Washington Sq,5721.01,40.739639401,-73.994515419,40.73047747,-73.99906065,member
6247A9E4DB101640,classic_bike,2023-02-08 17:19:31,2023-02-08 17:25:07,Central Park West & W 68 St,7079.06,Broadway & W 58 St,6948.10,40.7734066,-73.97782542,40.76695317,-73.98169333,member
155F0284B76EC6A5,classic_bike,2023-02-10 18:59:17,2023-02-10 19:04:23,Huron St & Franklin St,5869.04,Driggs Ave & Lorimer St,5481.04,40.73266,-73.95826,40.72179134,-73.9504154,member
E750A78D66B5C59B,classic_bike,2023-02-03 09:28:15,2023-02-03 09:31:22,4 Ave & E 12 St,5788.15,Washington Pl & Broadway,5755.01,40.732647,-73.99011,40.72903917,-73.99404649,member
1E203EE87C1C4E87,electric_bike,2023-02-28 19:32:37,2023-02-28 19:50:39,Bridge St & Water St,4968.03,Scholes St & Manhattan Ave,5108.01,40.70296934155272,-73.98469090461731,40.70870368,-73.9448625,member
96DDBBF3C4061EC1,classic_bike,2023-02-18 14:23:53,2023-02-18 14:42:05,Barrow St & Hudson St,5805.05,E 16 St & 5 Ave,6022.04,40.73172428,-74.00674436,40.73726186,-73.99238967,member
EAD20FC8907D188A,classic_bike,2023-02-19 21:28:07,2023-02-19 21:49:34,Greenpoint Ave & Manhattan Ave,5785.05,Norfolk St & Broome St,5374.01,40.730261087,-73.953837752,40.7172274,-73.98802084,member
DC9A47D9A977D8D6,classic_bike,2023-02-13 11:54:16,2023-02-13 11:59:14,Sedgwick Ave & W Tremont Ave,8428.05,Aqueduct Ave & North St,8535.09,40.853103876,-73.918414593,40.8604787,-73.9057169936,member
343B03685BA4D5EA,electric_bike,2023-02-17 18:11:08,2023-02-17 18:15:51,Broadway & E 21 St,6098.1,Cooper Square & Astor Pl,5712.03,40.73988840858996,-73.98958593606949,40.72951496224949,-73.99075269699097,member
E3C49E3AE0DDC0DA,classic_bike,2023-02-10 11:07:58,2023-02-10 11:08:49,Pitt St & Stanton St,5406.04,E 2 St & Avenue C,5476.03,40.71926081,-73.98178024,40.7208736,-73.98085795,member
69271CC4B8EC4938,classic_bike,2023-02-09 20:59:31,2023-02-09 21:01:38,Eastern Pkwy & Washington Ave,3928.08,Lincoln Pl & Classon Ave,3960.01,40.6716493,-73.9631145,40.6721683,-73.9609,member
D2E02BF884913305,classic_bike,2023-02-08 21:57:53,2023-02-08 22:13:01,W 41 St & 8 Ave,6602.03,E 63 St & 3 Ave,6830.02,40.75640548,-73.9900262,40.763954,-73.9646,member
53BB9DE3A8BA6D91,classic_bike,2023-02-01 12:28:22,2023-02-01 12:49:22,Knickerbocker Ave & Thames St,5018.06,Kingsland Ave & Nassau Ave,5613.04,40.70539,-73.92976,40.72577,-73.94173,casual
1BCECEE254BBA74B,electric_bike,2023-02-06 13:18:02,2023-02-06 13:24:20,Central Park S & 6 Ave,6876.04,W 74 St & Columbus Ave,7230.10,40.76590936,-73.97634151,40.7785669,-73.97754961,member
D4B030EB80ED6055,electric_bike,2023-02-10 12:02:29,2023-02-10 12:04:57,E 11 St & 1 Ave,5746.14,E 14 St & Avenue B,5736.09,40.72953837,-73.98426726,40.72938685,-73.97772429,member
02FD215CB35681C9,classic_bike,2023-02-24 20:12:59,2023-02-24 20:19:08,Grand Concourse & E 167 St,8126.07,E 170 St & Webster Ave,8156.03,40.834285259,-73.917669177,40.83617913677475,-73.90730146322765,member
5E8C8BB415D4B7C7,electric_bike,2023-02-11 22:15:45,2023-02-11 22:23:24,W 35 St & 8 Ave,6526.01,W 56 St & 8 Ave,6884.03,40.752762088742045,-73.99280458705107,40.765959181657976,-73.98313522338867,member
B30D973D09C0049F,classic_bike,2023-02-15 17:18:19,2023-02-15 17:23:10,Wyckoff Av & Stanhope St,4931.05,Greene Ave & Grandview Ave,5106.04,40.703554511,-73.917871833,40.709697,-73.907856,member
BC63AE64E021DB4F,classic_bike,2023-02-14 16:27:23,2023-02-14 16:45:54,45 Rd & 11 St,6319.01,65 St & Broadway,6417.11,40.747077227,-73.949807525,40.7493722738996,-73.89738768339157,member
DC64DDF0577938AE,electric_bike,2023-02-23 11:58:56,2023-02-23 12:07:14,E 45 St & 3 Ave,6464.08,E 67 St & Park Ave,6932.14,40.75255434,-73.97282625,40.76780080148132,-73.96592080593109,member
51B68DB28279AF81,classic_bike,2023-02-18 22:40:32,2023-02-18 22:49:36,Greene St & Prince St,5602.06,Canal St & Rutgers St,5303.08,40.725184798,-73.999083042,40.71427487,-73.98990025,member
A4737B5050DE1E52,electric_bike,2023-02-24 21:27:35,2023-02-24 21:30:19,Allen St & Stanton St,5484.09,Norfolk St & Broome St,5374.01,40.722055,-73.989111,40.7172274,-73.98802084,member
92B533232A1B2F8E,classic_bike,2023-02-04 15:45:05,2023-02-04 15:52:17,Driggs Ave & N 9 St,5411.08,Broadway & Berry St,5164.05,40.71816969454208,-73.95520135760307,40.71036129922581,-73.96530389785767,member
B218DAAE162EE78F,classic_bike,2023-02-10 11:25:02,2023-02-10 11:33:20,7 Ave S & Bleecker St,5805.07,West St & Chambers St,5329.03,40.73213896287381,-74.00363802909851,40.71754834,-74.01322069,member
B35A8D2D276B6378,docked_bike,2023-02-05 15:02:27,2023-02-05 15:33:07,Centre St & Chambers St,5207.01,River Ter & Warren St,5368.03,40.712733,-74.004607,40.717599,-74.01588,casual
D803E95E1BB8006C,classic_bike,2023-02-28 12:01:13,2023-02-28 12:08:15,DeKalb Ave & Hudson Ave,4513.06,7 Ave & Park Pl,4125.07,40.689941525,-73.981165648,40.6776147,-73.97324283,member
4CDF5F532AC8A4D1,classic_bike,2023-02-06 19:20:55,2023-02-06 19:29:48,Fulton St & Adams St,4637.06,Court St & Nelson St,4077.07,40.69241829257847,-73.98949474096298,40.6763947,-73.99869893,member
97585B439F677C49,classic_bike,2023-02-09 13:38:17,2023-02-09 13:48:13,1 Ave & E 44 St,6379.03,1 Ave & E 68 St,6822.09,40.749956608,-73.969410777,40.76500525,-73.95818491,member
139F977D0CF4756D,classic_bike,2023-02-27 08:35:09,2023-02-27 08:44:59,Carlton Ave & Dean St,4199.12,7 St & 5 Ave,3914.02,40.6809741,-73.9710097,40.6704922,-73.98541675,member
6E367B91F81D3879,electric_bike,2023-02-14 09:53:22,2023-02-14 09:55:29,W 17 St & 8 Ave,6148.02,9 Ave & W 22 St,6266.06,40.74177603,-74.00149746,40.7454973,-74.00197139,member
3435FD4DB5384854,classic_bike,2023-02-07 07:33:09,2023-02-07 07:38:16,E 47 St & Park Ave,6584.12,W 47 St & 6 Ave,6667.04,40.75510267,-73.97498696,40.758397,-73.98255,member
59CB6A8861ADC205,classic_bike,2023-02-07 17:33:47,2023-02-07 17:45:38,E 14 St & 1 Ave,5779.1,E 56 St & 3 Ave,6691.11,40.731355071,-73.982769608,40.75934501,-73.96759673,member
5187621335DE4C90,classic_bike,2023-02-05 11:38:55,2023-02-05 11:45:59,Forsyth St & Grand St,5382.07,Norfolk St & Broome St,5374.01,40.71779817737835,-73.99316132068634,40.7172274,-73.98802084,member
B04D376675F87A9B,classic_bike,2023-02-14 15:53:01,2023-02-14 16:09:11,W 34 St & 11 Ave,6578.01,E 25 St & 2 Ave,6046.02,40.75594159,-74.0021163,40.73912601,-73.97973776,member
70B3CFFCA083473E,classic_bike,2023-02-20 16:05:47,2023-02-20 16:07:28,Amsterdam Ave & W 156 St,8104.10,Broadway & W 155 St,8123.02,40.832081,-73.942386,40.83299,-73.94592,member
EA6D294566AB1305,classic_bike,2023-02-07 14:26:34,2023-02-07 14:31:55,9 Ave & W 39 St,6644.08,6 Ave & W 45 St,6593.15,40.756687284,-73.994243383,40.756951,-73.982631,member
E72D17EF085FAAAE,classic_bike,2023-02-25 15:34:31,2023-02-25 15:38:00,Norfolk St & Broome St,5374.01,Suffolk St & Stanton St,5445.02,40.7172274,-73.98802084,40.72066442,-73.98517977,member
3350361FED4E2755,classic_bike,2023-02-22 23:14:34,2023-02-22 23:30:27,E 58 St & Madison Ave,6839.04,34 Ave & 21 St,6798.01,40.763722897,-73.972110391,40.7628138,-73.9342862,member
AC871993329DB0EC,classic_bike,2023-02-28 18:24:20,2023-02-28 18:46:31,11 Ave & W 41 St,6726.01,E 58 St & 1 Ave (NE Corner),6682.03,40.760659933,-73.99871242,40.75892386377695,-73.96226227283478,member
335E07C26083EB44,classic_bike,2023-02-15 06:59:00,2023-02-15 07:05:23,Thomas S. Boyland St & Marion St,4253.02,Putnam Ave & Ralph Ave,4450.06,40.6814658848122,-73.91415685415268,40.68705,-73.92338,member
26EEA196282D1B42,electric_bike,2023-02-07 17:23:00,2023-02-07 17:34:09,Spruce St & Gold St,5137.13,E 3 St & 1 Ave,5553.03,40.7103231,-74.0043228,40.72467721,-73.98783413,member
F5E7C8AADA890592,classic_bike,2023-02-14 15:58:48,2023-02-14 16:06:04,W 100 St & Manhattan Ave,7538.14,W 116 St & Amsterdam Ave,7692.11,40.794928908,-73.964409113,40.8067581,-73.9607082,member
ECC010A95C7D0FDE,classic_bike,2023-02-25 17:21:44,2023-02-25 17:47:16,E 40 St & 5 Ave,6474.11,Wythe Ave & Metropolitan Ave,5348.02,40.752263308,-73.981549263,40.716887,-73.963198,member
23B474C23B8E9540,classic_bike,2023-02-02 20:40:14,2023-02-02 20:52:52,Broadway & E 19 St,6098.12,E 9 St & Avenue C,5616.01,40.73866091428551,-73.98987293243407,40.72521311,-73.97768752,member
078215DCAD88311E,classic_bike,2023-02-24 18:54:03,2023-02-24 18:55:45,E 156 & Brook Ave,7896.11,Bergen Ave & E 152 St,7858.02,40.819823,-73.912411,40.817166,-73.914737,member
366D4DB3D512390E,classic_bike,2023-02-03 09:51:51,2023-02-03 09:59:14,Park Pl & Church St,5288.08,Rutgers St & Henry St,5230.02,40.71334184275907,-74.00935515761375,40.71332151208186,-73.99009689688683,member
D49FBB6A1C463519,electric_bike,2023-02-23 07:34:01,2023-02-23 07:38:43,Riverside Dr & W 82 St,7388.10,West End Ave & W 94 St,7524.09,40.78720869,-73.98128127,40.7941654,-73.974124,member
950EBD2C307FC7EE,classic_bike,2023-02-28 23:41:01,2023-02-28 23:47:10,E 25 St & 2 Ave,6046.02,St Marks Pl & 2 Ave,5669.10,40.73912601,-73.97973776,40.7284186,-73.98713956,casual
7F6DEE3778805E39,classic_bike,2023-02-20 12:18:28,2023-02-20 12:30:03,Spring St & Hudson St,5653.12,E 6 St & Avenue D,5506.14,40.726028562,-74.007959962,40.72228087,-73.97668709,member
E26D4379E2DD103D,classic_bike,2023-02-03 17:58:23,2023-02-03 18:12:21,W 54 St & 11 Ave,6955.05,W 42 St & 8 Ave,6602.05,40.768333,-73.992573,40.7575699,-73.99098507,member
8BD2FC13580BFF8B,classic_bike,2023-02-23 21:43:39,2023-02-23 21:57:18,E 20 St & 2 Ave,5971.08,E 39 St & Lexington Ave,6389.09,40.735846519,-73.981906652,40.7494985460252,-73.97729203113158,member
C0FA326FD089858E,classic_bike,2023-02-01 20:00:41,2023-02-01 20:04:48,Broadway & W 41 St,6560.01,W 43 St & 10 Ave,6756.01,40.75513557,-73.98658032,40.76009437,-73.99461843,member
4D009332FBBE0F40,classic_bike,2023-02-17 16:03:03,2023-02-17 16:06:19,Plaza St West & Flatbush Ave,4010.13,3 St & Prospect Park West,3865.05,40.674825072,-73.971300125,40.668132,-73.97363831,member
42E0D4E4F19FCD14,classic_bike,2023-02-21 08:36:47,2023-02-21 08:49:05,West End Ave & W 94 St,7524.09,W 52 St & 11 Ave,6926.01,40.7941654,-73.974124,40.76727216,-73.99392888,casual
D73E419FEAD16388,classic_bike,2023-02-26 16:17:47,2023-02-26 16:27:33,E 65 St & 2 Ave,6860.12,W 48 St &  Rockefeller Plaza,6626.11,40.765052199,-73.962321162,40.75776935448309,-73.97929430007935,member
1103C0A97BFF01E0,classic_bike,2023-02-21 18:42:04,2023-02-21 18:57:23,Clinton St & Centre St,4045.01,Montague St & Clinton St,4677.06,40.67434,-74.00194698,40.6942715,-73.9923272,member
9CDA0A005DD501CE,classic_bike,2023-02-08 19:24:39,2023-02-08 19:28:13,East End Ave & E 86 St,7113.08,E 89 St & York Ave,7204.08,40.77518615,-73.94446054,40.7779453,-73.946041,member
261688846F79FD4C,docked_bike,2023-02-05 18:08:52,2023-02-05 18:17:18,Court St & State St,4488.08,Kane St & Clinton St,4455.11,40.690238,-73.992031,40.686176,-73.996453,casual
7DB1D129F71C22E4,classic_bike,2023-02-24 08:33:28,2023-02-24 08:56:28,Motorgate,6814.01,1 Ave & E 68 St,6822.09,40.7639089,-73.9477213,40.76500525,-73.95818491,member
E2A1E840528BBFD0,classic_bike,2023-02-27 18:22:38,2023-02-27 18:29:41,W 15 St & 7 Ave,6030.06,Lafayette St & E 8 St,5788.13,40.739399791,-73.999582529,40.73020660529954,-73.99102628231049,member
7E9320D323CD656C,classic_bike,2023-02-20 17:18:16,2023-02-20 17:31:40,University Pl & E 8 St,5755.14,W 40 St & 5 Ave,6474.02,40.731459141,-73.994882584,40.752269,-73.982079,casual
AEE4E081C34190B8,electric_bike,2023-02-08 06:56:08,2023-02-08 07:00:33,E 51 St & 1 Ave,6532.06,E 58 St & 1 Ave (NW Corner),6723.1,40.75455731,-73.96592976,40.759125,-73.962658,member
411938718B203AB6,electric_bike,2023-02-21 22:59:31,2023-02-21 23:03:34,Madison Ave & E 120 St,7667.04,5 Ave & W 131 St,7735.05,40.80295,-73.942954,40.81014,-73.93973,member
6DDF358AC6B242C4,classic_bike,2023-02-15 16:41:29,2023-02-15 16:44:07,Van Dam St & Greenpoint Ave,5883.06,Borden Ave & Review Ave,6001.01,40.73443564069459,-73.93790781497955,40.73866345465306,-73.94093804061413,member
3B5FF41EEF5674F8,classic_bike,2023-02-06 15:10:13,2023-02-06 15:15:40,Allen St & Rivington St,5414.06,Pike St & E Broadway,5270.05,40.72019576,-73.98997825,40.71406667,-73.99293911,member
C34173E413872413,classic_bike,2023-02-08 16:24:45,2023-02-08 16:25:56,Boston Rd & Prospect Ave,8133.08,Boston Rd & Prospect Ave,8133.08,40.83325696,-73.896616817,40.833246,-73.896599,member
C44815007545F01A,classic_bike,2023-02-08 19:10:34,2023-02-08 19:18:09,Broadway & E 19 St,6098.12,E 26 St & 3 Ave,6089.11,40.73866091428551,-73.98987293243407,40.74069317733043,-73.98160636425018,member
B58B470D0F7EAA2F,classic_bike,2023-02-20 12:39:20,2023-02-20 12:43:00,Madison Ave & E 82 St,7188.13,E 85 St & 3 Ave,7212.05,40.7781314,-73.96069399,40.77801203,-73.95407149,member
86907F254123C272,electric_bike,2023-02-12 21:16:58,2023-02-12 21:18:32,River Ave & E 151 St,7967.04,River Ave & E 151 St,7967.04,40.822217,-73.928939,40.822217,-73.928939,member
415EB1AA7C39986D,classic_bike,2023-02-08 21:20:59,2023-02-08 21:45:32,W 29 St & 9 Ave,6416.06,Riverside Blvd & W 67 St,7183.03,40.7500727,-73.99839279,40.777507027547976,-73.98888587951659,member
B1670BCC124413AB,electric_bike,2023-02-15 09:23:35,2023-02-15 09:38:18,Central Park West & W 72 St,7141.07,E 97 St & Madison Ave,7393.09,40.77579376683666,-73.9762057363987,40.787801,-73.953559,casual
6FED88E1DBAC84FC,electric_bike,2023-02-16 22:17:08,2023-02-16 22:22:49,Cleveland Pl & Spring St,5492.05,Carmine St & 6 Ave,5763.03,40.722103786686034,-73.99724900722504,40.73038599,-74.00214988,member
9DC90A9190E57D2F,classic_bike,2023-02-07 18:07:19,2023-02-07 18:17:02,W 56 St & 6 Ave,6809.07,W 41 St & 8 Ave,6602.03,40.76340613,-73.97722479,40.75640548,-73.9900262,member
3F81E4A0A0F0C9B4,classic_bike,2023-02-11 19:43:26,2023-02-11 19:50:49,Kenmare St & Elizabeth St,5453.06,E 6 St & Avenue D,5506.14,40.72031045,-73.994599223,40.72228087,-73.97668709,casual
B294F79F0912A977,classic_bike,2023-02-24 12:39:31,2023-02-24 12:56:50,Milton St & Franklin St,5752.07,University Pl & E 8 St,5755.14,40.729060888,-73.958001375,40.73143724085228,-73.99490341544151,member
C7F9F17828006689,electric_bike,2023-02-20 16:13:18,2023-02-20 16:35:38,West Drive & Prospect Park West,3651.04,S 5 Pl & S 5 St,5125.03,40.6610633719006,-73.97945255041122,40.710451,-73.960876,member
CE7EA07C1A1560BD,electric_bike,2023-02-24 06:33:46,2023-02-24 06:39:22,E 10 St & Avenue A,5659.05,University Pl & E 14 St,5905.14,40.72740794,-73.98142006,40.734814,-73.992085,member
015CC91B003374D3,electric_bike,2023-02-06 17:18:03,2023-02-06 17:35:28,E 97 St & Madison Ave,7393.09,Broadway & W 48 St,6708.04,40.787801,-73.953559,40.76017739537783,-73.98486793041229,casual
AD855EEDF8FF8040,electric_bike,2023-02-04 10:25:46,2023-02-04 10:28:24,Mercer St & Bleecker St,5679.05,University Pl & E 8 St,5755.14,40.72706363348306,-73.99662137031554,40.73143724085228,-73.99490341544151,member
DD1AFE65B4ED4939,classic_bike,2023-02-24 16:22:16,2023-02-24 16:23:09,Court St & Nelson St,4077.07,Court St & Nelson St,4077.07,40.67635107,-73.998748541,40.6763947,-73.99869893,member
E4C398DF4B2E8554,electric_bike,2023-02-20 15:57:04,2023-02-20 16:14:11,Metropolitan Ave & Bedford Ave,5308.04,Irving Ave & Jefferson St,5051.02,40.71534825,-73.96024116,40.70538,-73.92535,member
FDD7905239BB9B5D,classic_bike,2023-02-09 19:09:18,2023-02-09 19:14:52,24 St & 41 Ave,6505.09,28 St & 36 Ave,6614.01,40.752474,-73.939991,40.757186,-73.932719,member
E42ECE8C37206E6D,classic_bike,2023-02-16 18:36:53,2023-02-16 18:44:14,N 6 St & Bedford Ave,5379.10,Broadway & Berry St,5164.05,40.71745169,-73.95850939,40.71036129922581,-73.96530389785767,member
4A564728B7616D1B,classic_bike,2023-02-15 21:24:05,2023-02-15 21:30:50,Irving Ave & Jefferson St,5051.02,Willoughby Ave & Myrtle Ave,4759.02,40.705441117,-73.92551291,40.69757,-73.93098,member
3EA44225C69E4387,classic_bike,2023-02-15 07:36:18,2023-02-15 07:38:30,E 27 St & 1 Ave,6004.06,E 25 St & 2 Ave,6046.02,40.739445,-73.976806,40.73912601,-73.97973776,member
F52839FBF1E57B56,electric_bike,2023-02-20 16:42:16,2023-02-20 16:57:09,Irving Ave & DeKalb Ave,4898.02,Marcy Ave & Lafayette Ave,4476.03,40.7027,-73.92095,40.6900815,-73.947915,casual
C8F75E15D9B06607,classic_bike,2023-02-08 17:33:42,2023-02-08 17:43:41,Hudson St & W 13 St,6115.06,W Broadway & W Houston St,5644.05,40.74005708567285,-74.0052741765976,40.726378,-74.000472,member
43C2F07409F5E14E,classic_bike,2023-02-28 13:45:10,2023-02-28 13:46:33,Clinton St & Grand St,5303.06,Canal St & Rutgers St,5303.08,40.715490341,-73.987143636,40.71427487,-73.98990025,member
0E48B485671BD3D2,classic_bike,2023-02-18 10:01:27,2023-02-18 10:04:53,5 Ave & E 78 St,7161.08,E 81 St & 3 Ave,7154.07,40.776459217,-73.964396,40.77573034,-73.9567526,member
11D2163F5AE9B31F,classic_bike,2023-02-24 22:44:06,2023-02-24 22:46:06,Rivington St & Ridge St,5406.02,Norfolk St & Broome St,5374.01,40.718556285,-73.982959151,40.7172274,-73.98802084,member
8FE6279DD8198228,electric_bike,2023-02-07 16:10:17,2023-02-07 16:15:23,Nassau Ave & Russell St,5581.01,Meserole Ave & Manhattan Ave,5666.04,40.72557,-73.94434,40.72708584,-73.95299117,member
0729DE5140DD82B2,classic_bike,2023-02-01 18:15:56,2023-02-01 18:24:52,E 48 St & 5 Ave,6626.01,E 85 St & 3 Ave,7212.05,40.757264018,-73.977500081,40.77801203,-73.95407149,member
