ride_id,rideable_type,started_at,ended_at,start_station_name,start_station_id,end_station_name,end_station_id,start_lat,start_lng,end_lat,end_lng,member_casual
D7DCE3AC64D0B536,electric_bike,2023-06-23 19:53:34,2023-06-23 20:06:22,E 17 St & Broadway,5980.07,1 Ave & E 6 St,5626.15,40.73704984,-73.99009296,40.72633085971696,-73.98616880178452,member
AF8009385B29CB22,classic_bike,2023-06-13 07:31:51,2023-06-13 07:53:45,E 97 St & Madison Ave,7393.09,E 47 St & 1 Ave,6498.09,40.787795424,-73.953510642,40.75206862,-73.96784384,member
FC5ADABBBBF559A2,classic_bike,2023-06-02 14:43:50,2023-06-02 14:53:31,Broadway & W 58 St,6948.1,11 Ave & W 27 St,6425.04,40.766910911,-73.982096553,40.751396,-74.005226,member
69D32DCB3B46E71D,classic_bike,2023-06-20 20:22:23,2023-06-20 20:45:40,W 24 St & 7 Ave,6257.03,Water St &  Fletcher St,5024.10,40.74503088,-73.995637178,40.706410755236135,-74.00559738278389,member
0BC4E1DFDA990C9E,classic_bike,2023-06-20 21:40:40,2023-06-20 22:31:20,Knickerbocker Ave & George St,4979.07,Pleasant Ave & E 116 St,7450.05,40.704332471,-73.928305149,40.7949879,-73.9333349,member
7F52561CB1551AA5,classic_bike,2023-06-27 18:02:58,2023-06-27 18:38:42,E 84 St & Park Ave,7243.04,E 84 St & Park Ave,7243.04,40.77862688,-73.95772073,40.77862688,-73.95772073,member
8E64CAF7AF0B5F8F,classic_bike,2023-06-03 16:40:02,2023-06-03 16:43:17,4 Ave & E 12 St,5788.15,E 20 St & Park Ave,6055.08,40.732647,-73.99011,40.73827428,-73.98751968,member
FE27D0788DAD33D0,classic_bike,2023-06-20 09:39:32,2023-06-20 09:43:26,1 Ave & E 16 St,5779.08,1 Ave & E 30 St,6079.03,40.732073784,-73.981784821,40.74144387,-73.97536082,member
02F2BFA7881CB336,classic_bike,2023-06-07 11:50:36,2023-06-07 11:55:06,E 2 St & Avenue C,5476.03,Clinton St & Grand St,5303.06,40.7208736,-73.98085795,40.71559509,-73.9870295,member
06885FCC993E177A,classic_bike,2023-06-28 10:40:21,2023-06-28 10:49:26,W 45 St & 8 Ave,6676.02,Gansevoort St & Hudson St,6072.16,40.759294748,-73.988843918,40.73937600789778,-74.00520807425661,member
4CDD0F8653DFF512,classic_bike,2023-06-05 20:13:54,2023-06-05 20:18:47,E 161 St & Park Ave,7979.17,E 161 St & Park Ave,7979.17,40.824855447,-73.916603088,40.824811,-73.916407,member
529E45FEAFFB37C6,classic_bike,2023-06-06 05:57:06,2023-06-06 06:04:34,6 Ave & W 33 St,6364.07,E 48 St & 5 Ave,6626.01,40.74901271,-73.98848395,40.75724567911726,-73.97805914282799,member
87E3096150BFA987,classic_bike,2023-06-12 16:02:45,2023-06-12 16:46:11,Frederick Douglass Blvd & W 129 St,7795.09,E 163 St & Union Ave,7970.05,40.812430739,-73.949155807,40.822545,-73.901824,member
C0DA67531F98BD5C,classic_bike,2023-06-29 08:26:17,2023-06-29 08:36:47,Frost St & Meeker Ave,5371.07,Ash St & Manhattan Ave,6019.04,40.71766197083994,-73.94880026578903,40.738095,-73.954867,member
D5B643F6A56F1C0A,classic_bike,2023-06-17 09:58:57,2023-06-17 10:12:45,Stuyvesant Ave & Hart St,4689.08,Fulton St & Adams St,4637.06,40.694435954,-73.934303522,40.69241829257847,-73.98949474096298,member
812711E62D0CB2CA,classic_bike,2023-06-29 11:43:27,2023-06-29 11:53:57,Hudson Blvd W & W 36 St,6611.07,9 Ave & W 18 St,6190.08,40.75676475086503,-73.99971440439913,40.74317449,-74.00366443,member
D6F7DDD65292B3EC,classic_bike,2023-06-25 22:47:42,2023-06-25 22:50:46,Van Brunt St & Van Dyke St,4095.1,Van Brunt St & Wolcott St,4095.03,40.6758329439129,-74.01472628116608,40.6773429,-74.01275056,member
874622444A48EAC2,classic_bike,2023-06-23 14:49:46,2023-06-23 14:52:58,State St & Smith St,4522.07,Fulton St & Adams St,4637.06,40.68917,-73.9886,40.69241829257847,-73.98949474096298,member
C978E0D53F890C38,classic_bike,2023-06-14 09:07:45,2023-06-14 09:13:36,W 4 St & 7 Ave S,5880.02,W 20 St & 5 Ave,6098.02,40.73401143,-74.00293877,40.73972989238724,-73.99103969335556,member
6C5301BAEA76FDA6,classic_bike,2023-06-19 15:52:40,2023-06-19 16:08:48,Broadway & W 58 St,6948.10,W 100 St & Manhattan Ave,7538.14,40.766988277,-73.981831431,40.795,-73.9645,member
C3F7C7B149C0E687,classic_bike,2023-06-25 10:06:56,2023-06-25 10:12:39,2 Ave & E 72 St,6925.09,5 Ave & E 63 St,6904.06,40.768561602,-73.958491325,40.766368,-73.971518,member
9CB36B5D61956C4B,electric_bike,2023-06-09 21:28:05,2023-06-09 22:01:23,Johnson St & Brooklyn Bridge Blvd,4637.07,Center Blvd & 51 Ave,6179.07,40.695,-73.98917,40.74336608027021,-73.95960688591003,member
55C046B54844C9EE,classic_bike,2023-06-12 19:36:24,2023-06-12 19:43:51,Howard St & Lafayette St,5422.04,Murray St & West St,5329.08,40.71910537,-73.99973337,40.71503,-74.01246,casual
A1DCE100B25F8211,classic_bike,2023-06-24 14:28:19,2023-06-24 15:02:04,Coffey St & Conover St,4137.10,Fulton St & Broadway,5175.08,40.677232385,-74.015728116,40.711066,-74.009447,casual
00F02F58B3D1CB8B,classic_bike,2023-06-15 09:56:45,2023-06-15 10:18:14,Central Park West & W 68 St,7079.06,Amsterdam Ave & W 79 St,7311.02,40.7734066,-73.97782542,40.7829391,-73.9786517,casual
105800205000CA90,classic_bike,2023-06-02 07:41:52,2023-06-02 07:49:38,West End Ave & W 60 St,7059.08,W 70 St & Amsterdam Ave,7207.08,40.77237,-73.99005,40.77748046,-73.98288594,member
61241A188A760712,classic_bike,2023-06-30 17:37:28,2023-06-30 18:03:08,W 168th S & Fort Washington Ave,8226.07,Madison Ave & E 99 St,7443.01,40.841925144,-73.941769361,40.78948541553215,-73.95242929458618,member
CA239727E16724F9,classic_bike,2023-06-13 18:16:39,2023-06-13 18:19:12,Wyckoff Av & Jefferson St,5051.01,Flushing Ave & Woodward Ave,5225.02,40.707289457,-73.923923731,40.71246,-73.91873,member
1F3F5E73B623C2D1,classic_bike,2023-06-12 16:26:29,2023-06-12 16:33:21,W Broadway & W Houston St,5644.05,W 18 St & 6 Ave,6064.08,40.726320267,-74.000547409,40.73971301,-73.99456405,member
B77F72FE3D6092F0,classic_bike,2023-06-04 16:42:59,2023-06-04 16:54:22,E 14 St & Avenue B,5736.09,E 1 St & Bowery,5636.13,40.72938685,-73.97772429,40.72486122254819,-73.99213135242462,member
B0F54725A8C91D3E,electric_bike,2023-06-14 18:08:41,2023-06-14 18:15:40,Huron St & Franklin St,5869.04,Vernon Blvd & 50 Ave,6170.02,40.73266,-73.95826,40.74232744,-73.95411749,member
48FE8A35C4C82CC4,classic_bike,2023-06-22 09:39:46,2023-06-22 09:50:24,E 81 St & 1 Ave,7121.13,3 Ave & E 62 St,6762.04,40.77377781072322,-73.95197331905365,40.76312584,-73.96526895,member
A7F90AE241FFD6C7,classic_bike,2023-06-03 13:21:35,2023-06-03 13:36:30,Bushwick Ave & McKibbin St,5027.02,Hancock St & Stuyvesant Ave,4383.06,40.705517,-73.93936,40.68454,-73.9322,casual
404A3890D9EB6F20,classic_bike,2023-06-06 05:42:40,2023-06-06 05:51:12,E 14 St & 1 Ave,5779.1,6 Ave & W 33 St,6364.07,40.731413245,-73.982795477,40.74901271,-73.98848395,member
C824E4C89306366B,classic_bike,2023-06-19 08:46:49,2023-06-19 08:49:43,W 13 St & 7 Ave,6030.04,W 18 St & 6 Ave,6064.08,40.73781509,-73.99994661,40.73971301,-73.99456405,member
6358FFB835D6DEA0,classic_bike,2023-06-28 21:47:13,2023-06-28 21:51:59,Tiebout Ave & E 184 St,8510.02,Valentine Ave & E 181 St,8435.04,40.858498,-73.89637,40.854123869116,-73.89932222664356,member
B320F274BAF625B3,classic_bike,2023-06-07 15:37:20,2023-06-07 15:59:19,E 48 St & 3 Ave,6541.03,Greenpoint Ave & West St,5752.09,40.755283594,-73.972528338,40.729803,-73.959099,member
291B12E9F60D4A01,classic_bike,2023-06-19 13:32:11,2023-06-19 13:41:32,W 55 St & 6 Ave,6809.09,6 Ave & W 34 St,6364.10,40.763189,-73.978434,40.74964,-73.98805,member
2606752A2BBC0177,classic_bike,2023-06-17 17:28:29,2023-06-17 17:49:46,St Marks Pl & 1 Ave,5626.13,W 42 St & 6 Ave,6517.08,40.72779126,-73.98564945,40.75492,-73.98455,member
70F4C79CCCF9B0F3,classic_bike,2023-06-23 14:23:03,2023-06-23 14:39:26,Leonard St & Church St,5359.11,E 19 St & 3 Ave,5938.01,40.717186689,-74.005721092,40.73624527,-73.98473765,member
7BDD8C386FF3435C,classic_bike,2023-06-23 05:51:32,2023-06-23 05:58:40,St Marks Pl & 1 Ave,5626.13,Kenmare St & Elizabeth St,5453.06,40.72779126,-73.98564945,40.72054,-73.9949,casual
7B14151F39E80B7C,classic_bike,2023-06-12 13:15:42,2023-06-12 13:20:23,E 11 St & 3 Ave,5788.16,Broadway & E 14 St,5905.12,40.73127,-73.98849,40.73454567,-73.99074142,member
09ABE2A68B366440,classic_bike,2023-06-10 11:15:49,2023-06-10 11:15:52,St Nicholas Ave & Manhattan Ave,7723.01,St Nicholas Ave & Manhattan Ave,7723.01,40.809725,-73.953149,40.809725,-73.953149,member
C1AECDAAB8B4D0BF,classic_bike,2023-06-30 10:41:52,2023-06-30 10:45:22,3 Ave & E 100 St,7414.17,E 106 St & Lexington Ave,7504.18,40.787797928,-73.947168231,40.791976,-73.945993,member
F28EC3067AC43EC9,classic_bike,2023-06-12 17:00:11,2023-06-12 17:06:41,Broadway & W 48 St,6708.04,Columbus Ave & W 72 St,7175.05,40.760249496,-73.984693289,40.7770575,-73.97898475,member
E719DF32B0224BAB,classic_bike,2023-06-29 08:06:13,2023-06-29 08:37:47,12 Ave & W 125 St,7886.02,W 36 St & 9 Ave,6569.07,40.818299,-73.960405,40.75462324029105,-73.99516761302948,member
51610FEF42C63B8A,classic_bike,2023-06-28 15:20:22,2023-06-28 15:28:06,W 146 St & Broadway,8018.09,Adam Clayton Powell Blvd & W 130 St,7774.02,40.826969,-73.949738,40.812346,-73.946168,member
6868C297AD1319A3,electric_bike,2023-06-25 13:00:48,2023-06-25 13:15:23,5 Ave & E 72 St,7100.07,Central Park North & Adam Clayton Powell Blvd,7617.07,40.77282817,-73.96685276,40.799484,-73.955613,casual
31C6B96DAC8AB0CF,electric_bike,2023-06-20 16:37:06,2023-06-20 16:49:51,Pearl St & Hanover Square,4993.02,Pike St & E Broadway,5270.05,40.7047177,-74.00926027,40.71406667,-73.99293911,casual
7D6861F5722136D6,classic_bike,2023-06-12 13:10:22,2023-06-12 13:13:28,E 118 St & Park Ave,7625.18,Lexington Ave & E 120 St,7652.04,40.800438762,-73.941805363,40.8013066,-73.9398167,member
BF7307229B4919F6,classic_bike,2023-06-24 20:05:40,2023-06-24 20:13:53,Riverside Dr & W 104 St,7623.13,Riverside Dr & W 91 St,7524.16,40.8013434,-73.9711457439,40.79313480986663,-73.97700369358063,casual
D300F98020DFEE24,classic_bike,2023-06-01 20:12:45,2023-06-01 20:23:55,Broadway & W 56 St,6847.02,W 36 St & 7 Ave,6483.06,40.7652654,-73.98192338,40.752149,-73.989539,member
0A5070FB85E17826,classic_bike,2023-06-21 08:02:06,2023-06-21 08:05:57,Lincoln Ave & E 134 St,7712.06,Morris Ave & E 142 St,7821.01,40.808484,-73.928803,40.814469,-73.924963,member
DDE0D64121E27F82,classic_bike,2023-06-02 08:27:21,2023-06-02 08:35:32,E 20 St & 2 Ave,5971.08,1 Ave & E 30 St,6079.03,40.73587678,-73.98205027,40.74144387,-73.97536082,member
CB16CF6281E846E5,classic_bike,2023-06-23 14:32:00,2023-06-23 14:46:03,W 29 St & 9 Ave,6416.06,E 55 St & 2 Ave,6650.07,40.74996984,-73.998216629,40.75797322,-73.96603308,member
87D778CB21858EB3,electric_bike,2023-06-23 17:22:11,2023-06-23 17:47:17,Grand St & Samuel Dickstein Plaza,5335.07,7 Ave S & Bleecker St,5805.07,40.71511871996496,-73.98417055606842,40.73213896287381,-74.00363802909851,member
0437F72FD2EDB552,classic_bike,2023-06-14 09:21:50,2023-06-14 09:23:04,W 34 St & Hudson Blvd E,6535.04,Hudson Blvd W & W 36 St,6611.07,40.75516719072139,-74.00059908628464,40.75676475086503,-73.99971440439913,member
780F2C049F91F0A9,classic_bike,2023-06-13 06:32:37,2023-06-13 06:38:54,Monroe St & Patchen Ave,4491.09,Wyckoff Ave & Gates Ave,4847.03,40.688173056,-73.926981211,40.699871408829885,-73.91171872615814,member
D33E95880527200C,electric_bike,2023-06-15 08:16:48,2023-06-15 08:44:31,W 64 St & Thelonious Monk Circle,7123.04,South St & Whitehall St,4846.01,40.77515953434235,-73.98918695747852,40.70122128,-74.01234218,member
01FF8104AF6A3E10,classic_bike,2023-06-09 18:37:53,2023-06-09 18:44:49,Spring St & Hudson St,5653.12,Greene St & Prince St,5602.06,40.72583996792375,-74.0076532959938,40.72511734422387,-73.99930492043495,casual
E58D973381BF28E4,classic_bike,2023-06-09 14:41:03,2023-06-09 14:42:45,E 35 St & Madison Ave,6398.08,W 37 St & 5 Ave,6398.06,40.748424411,-73.98270452,40.75038009,-73.98338988,member
7C728F63C4A7B5EB,classic_bike,2023-06-27 15:09:15,2023-06-27 15:15:27,Bedford Ave & Nassau Ave,5550.05,Devoe St & Lorimer St,5259.06,40.72311651,-73.95212324,40.71335226222875,-73.9491033554077,member
3C990081A8B0D687,classic_bike,2023-06-07 13:02:27,2023-06-07 13:10:52,W 21 St & 6 Ave,6140.05,Broadway & W 25 St,6173.08,40.74173969,-73.99415556,40.74286877312112,-73.98918628692627,member
51E39C84290D0B3B,classic_bike,2023-06-12 06:58:51,2023-06-12 07:09:36,2 Ave & E 29 St,6122.09,W 37 St & 10 Ave,6611.02,40.742030859,-73.977895498,40.75660359,-73.9979009,casual
B367C1841C911E55,classic_bike,2023-06-05 21:47:47,2023-06-05 21:58:21,McKibbin St & Bogart St,5059.02,Driggs Ave & N Henry St,5542.04,40.706218004,-73.933898926,40.72325,-73.94308,member
09C2CD6C18C4BC9A,classic_bike,2023-06-27 17:26:13,2023-06-27 17:42:07,W 56 St & 6 Ave,6809.07,11 Ave & W 27 St,6425.04,40.763561249,-73.97773087,40.751396,-74.005226,member
F2DCA0659D52534F,classic_bike,2023-06-22 12:23:42,2023-06-22 12:25:12,47 Ave & 31 St,6151.03,33 St & Queens Blvd,6185.07,40.742939353,-73.935449481,40.7443653191867,-73.93172398209572,member
E7CB8F591FC1EFD2,classic_bike,2023-06-16 17:22:20,2023-06-16 17:29:11,W 18 St & 6 Ave,6064.08,1 Ave & E 18 St,5854.09,40.73971301,-73.99456405,40.73381219196632,-73.98054420948029,casual
3705EC138B729064,classic_bike,2023-06-20 17:15:49,2023-06-20 17:39:54,Carmine St & 6 Ave,5763.03,Orchard St & Grand St,5343.11,40.73038599,-74.00214988,40.717318403855785,-73.99067759513855,casual
E92735685E697829,classic_bike,2023-06-17 17:09:14,2023-06-17 17:24:04,E 2 St & Avenue B,5515.02,Lafayette St & Grand St,5422.09,40.72217444,-73.98368779,40.72028,-73.99879,casual
4CEBADF8050D40BB,classic_bike,2023-06-08 16:45:56,2023-06-08 16:57:04,Lispenard St & Broadway,5391.06,Henry St & Atlantic Ave,4531.05,40.71924603,-74.002325773,40.69089272,-73.99612349,member
EFC414994CE6458C,electric_bike,2023-06-21 19:39:07,2023-06-21 19:51:37,Pierrepont St & Monroe Pl,4718.08,Hanson Pl & Ashland Pl,4395.07,40.69535693320225,-73.99344027042389,40.68506807308177,-73.97790759801863,member
3FF6EA06D774460F,classic_bike,2023-06-18 17:06:31,2023-06-18 17:17:44,5 Ave & E 87 St,7323.09,5 Ave & E 63 St,6904.06,40.78232260730881,-73.95987510681152,40.766368,-73.971518,casual
4FA9DD261F3C58B8,electric_bike,2023-06-18 11:25:01,2023-06-18 11:45:36,DeKalb Ave & Vanderbilt Ave,4461.04,Greene St & Prince St,5602.06,40.68940747,-73.96885458,40.72511734422387,-73.99930492043495,member
4BD72D7F1EF36941,classic_bike,2023-06-23 15:01:24,2023-06-23 15:03:53,3 Ave & E 174 St,8241.07,3 Ave & E 172 St,8205.05,40.842095375,-73.898538113,40.839586,-73.900277,member
D35A94A4203DCE8F,classic_bike,2023-06-20 18:47:17,2023-06-20 18:52:40,Murray St & West St,5329.08,North Moore St & Greenwich St,5470.12,40.71503,-74.01246,40.72019521437465,-74.0103006362915,member
6A6A51F66CA1838E,classic_bike,2023-06-15 13:53:56,2023-06-15 13:58:58,Stanton St & Norfolk St,5445.07,Ave A & E 11 St,5703.13,40.720747,-73.986274,40.72854745023944,-73.98175925016403,member
5DE9351A21B43165,classic_bike,2023-06-21 10:33:39,2023-06-21 10:38:30,8 Ave & W 16 St,6072.11,W 18 St & 6 Ave,6064.08,40.740739107,-74.001852393,40.73971301,-73.99456405,member
FDC35F335EB430D7,classic_bike,2023-06-29 16:29:19,2023-06-29 16:43:53,7 Ave & W 55 St,6847.05,12 Ave & W 40 St,6765.01,40.764126,-73.980973,40.76087502,-74.00277668,member
FC0F4D5CFCC828CA,classic_bike,2023-06-03 18:06:03,2023-06-03 18:17:32,Kingston Ave & Herkimer St,4205.06,President St & Nostrand Ave,3839.02,40.679042578,-73.94141674,40.66811,-73.9505,member
0443B9FC5D51BADE,classic_bike,2023-06-22 10:24:14,2023-06-22 10:43:17,Hancock St & Stuyvesant Ave,4383.06,Eastern Pkwy & Franklin Ave,3919.07,40.68454,-73.9322,40.6707767,-73.9576801,casual
402B226548A5700E,classic_bike,2023-06-08 08:17:33,2023-06-08 08:24:45,Grand St & Samuel Dickstein Plaza,5335.07,Spruce St & Nassau St,5137.10,40.714997053,-73.983791351,40.71146364,-74.00552427,member
2D5507AD48137EEF,classic_bike,2023-06-27 06:45:40,2023-06-27 07:04:03,Central Park West & W 68 St,7079.06,St Nicholas Ave & Manhattan Ave,7723.01,40.7734066,-73.97782542,40.809725,-73.953149,member
3C3D92E211D3081D,classic_bike,2023-06-15 14:01:58,2023-06-15 14:16:59,E Houston St & Columbia St,5436.11,E 20 St & Park Ave,6055.08,40.71978635452822,-73.97871628403664,40.73827428,-73.98751968,member
A68E2DD136572451,classic_bike,2023-06-06 12:58:08,2023-06-06 13:07:33,Washington St & Laight St,5509.02,West Thames St,5114.06,40.72271812,-74.010388255,40.70834698,-74.01713445,casual
F9007AF19B273163,classic_bike,2023-06-07 16:55:15,2023-06-07 17:08:48,W 16 St & The High Line,6233.05,Lispenard St & Broadway,5391.06,40.743331194,-74.007134914,40.71939226,-74.00247214,member
D03BFAADE8675AB4,classic_bike,2023-06-12 17:13:32,2023-06-12 17:28:41,Johnson St & Brooklyn Bridge Blvd,4637.07,Prospect Pl & 6 Ave,4166.08,40.695,-73.98917,40.6793307,-73.97519523,member
C69CEC589C9EF26B,classic_bike,2023-06-09 07:09:38,2023-06-09 07:33:01,Southern Blvd & E 172 St,8129.02,Cathedral Pkwy & Broadway,7680.03,40.834171534,-73.889453888,40.804213,-73.96699104,member
AE5F77A7CE19F334,classic_bike,2023-06-11 10:27:19,2023-06-11 10:32:53,E 63 St & 3 Ave,6830.02,E 85 St & 3 Ave,7212.05,40.764068484,-73.964408159,40.77801203,-73.95407149,member
229EA2420A5DF6DF,classic_bike,2023-06-11 21:09:23,2023-06-11 21:17:11,E 89 St & 3 Ave,7265.1,E 102 St & 1 Ave,7407.13,40.7806284,-73.9521667,40.7869946,-73.94164802,member
0327EE444E3EE457,classic_bike,2023-06-19 12:09:20,2023-06-19 12:19:08,Leonard St & Maujer St,5148.03,Bedford Ave & Nassau Ave,5550.05,40.7103685423523,-73.94705951213837,40.72311651,-73.95212324,casual
3B8558254A3790BE,classic_bike,2023-06-25 14:44:22,2023-06-25 14:48:28,E 89 St & 3 Ave,7265.1,E 102 St & Park Ave,7488.24,40.780711055,-73.952411413,40.7904828,-73.95033068,member
73112D498464E18C,classic_bike,2023-06-18 17:26:24,2023-06-18 17:41:38,Hancock St & Malcolm X Blvd,4342.04,Emerson Pl & Myrtle Ave,4683.02,40.68491292,-73.92929709,40.69363137,-73.96223558,member
03A89C38362A8FEE,classic_bike,2023-06-24 21:38:50,2023-06-24 21:47:32,Leonard St & Maujer St,5148.03,Leonard St & Maujer St,5148.03,40.710310221,-73.947020411,40.7103685423523,-73.94705951213837,member
BBD843D0312CBA94,classic_bike,2023-06-28 13:33:15,2023-06-28 14:18:47,5 Ave & E 87 St,7323.09,12 Ave & W 125 St,7886.02,40.782566786,-73.959643602,40.818299,-73.960405,casual
D94E2C2F35805617,classic_bike,2023-06-28 18:03:00,2023-06-28 18:20:41,E 33 St & 1 Ave,6197.08,E 74 St & 1 Ave,6953.08,40.74322681432173,-73.97449783980846,40.7689738,-73.95482273,member
038C3537A580CD42,classic_bike,2023-06-17 11:34:31,2023-06-17 11:53:37,West St & Liberty St,5184.08,Bus Slip & State St,4889.06,40.711444,-74.014847,40.701907,-74.013942,member
6446549579EE3AC2,classic_bike,2023-06-13 18:07:40,2023-06-13 18:12:00,Broadway & W 61 St,7014.12,Columbus Ave & W 72 St,7175.05,40.770159721,-73.981950045,40.7770575,-73.97898475,member
F62F65CD7C424799,classic_bike,2023-06-01 13:12:19,2023-06-01 13:24:27,Broadway & W 58 St,6948.10,5 Ave & E 87 St,7323.09,40.76695317,-73.98169333,40.78232260730881,-73.95987510681152,member
05368009DBA66935,classic_bike,2023-06-08 16:04:14,2023-06-08 16:49:13,W 43 St & 10 Ave,6756.01,8 Ave & W 33 St,6450.12,40.760098934,-73.994473457,40.751551,-73.993934,casual
9C711A5006FE3419,classic_bike,2023-06-08 18:55:21,2023-06-08 19:27:12,E 59 St & Madison Ave,6801.01,E 9 St & Avenue C,5616.01,40.76350532,-73.97109243,40.72521311,-73.97768752,casual
67A44AFD12AA484F,classic_bike,2023-06-24 19:54:44,2023-06-24 20:17:44,1 Ave & E 6 St,5626.15,W 30 St & 10 Ave,6459.07,40.726038814,-73.98633647,40.752694,-74.002353,casual
9CD515507DBD14D4,classic_bike,2023-06-02 08:35:57,2023-06-02 08:37:27,E 74 St & 1 Ave,6953.08,E 77 St & 1 Ave,7020.02,40.7689738,-73.95482273,40.77095553869235,-73.95356208096926,member
B4C44D68D286F933,electric_bike,2023-06-22 14:34:59,2023-06-22 14:42:09,1 Pl & Clinton St,4193.14,Schermerhorn St & Hoyt St,4479.10,40.6809591,-73.99905709,40.6886263,-73.9851911,member
8A612C909905B0FA,classic_bike,2023-06-24 09:47:17,2023-06-24 09:50:10,William St & Pine St,5065.12,Park Pl & Church St,5288.08,40.70717936,-74.00887308,40.71334184275907,-74.00935515761375,member
AC263DAEF24457FC,classic_bike,2023-06-28 22:06:53,2023-06-28 22:08:53,Nassau Ave & Newell St,5623.03,Nassau Ave & Russell St,5581.01,40.724812564400175,-73.94752621650696,40.72557,-73.94434,member
C57B2A8253D4CB70,classic_bike,2023-06-04 11:08:20,2023-06-04 11:21:03,E 6 St & Avenue D,5506.14,Broadway & E 14 St,5905.12,40.72228087,-73.97668709,40.73454567,-73.99074142,casual
8678372B93058917,classic_bike,2023-06-12 10:17:19,2023-06-12 10:34:52,Bank St & Hudson St,5922.08,Park Pl & Church St,5288.08,40.73652889,-74.00618026,40.71334184275907,-74.00935515761375,member
ECF9EE6074033765,classic_bike,2023-06-05 12:53:25,2023-06-05 12:57:32,W 84 St & Columbus Ave,7382.04,Columbus Ave & W 72 St,7175.05,40.78499979,-73.97283406,40.7770575,-73.97898475,member
8F956718CF17AFAF,classic_bike,2023-06-15 20:08:22,2023-06-15 20:16:25,Plaza St East & Flatbush Ave,4010.01,West Drive & Prospect Park West,3651.04,40.673134,-73.969106,40.6610633719006,-73.97945255041122,casual
1ED0AACDD7CC2863,classic_bike,2023-06-18 13:24:09,2023-06-18 13:27:15,Cooper Square & Astor Pl,5712.03,1 Ave & E 6 St,5626.15,40.72951496224949,-73.99075269699097,40.72633085971696,-73.98616880178452,member
471A7F83B7556424,classic_bike,2023-06-29 12:51:32,2023-06-29 13:00:41,River Ter & Warren St,5368.03,Greenwich St & Perry St,5922.04,40.71759894980997,-74.01587963104248,40.73498,-74.00697,member
A9F07BD5D9389A2E,classic_bike,2023-06-22 16:53:35,2023-06-22 17:04:02,W 51 St & 6 Ave,6740.10,Columbus Ave & W 72 St,7175.05,40.761051774,-73.980187178,40.7770575,-73.97898475,member
1F372DA1B59400D6,classic_bike,2023-06-13 18:43:43,2023-06-13 18:54:24,W 84 St & Columbus Ave,7382.04,Cathedral Pkwy & Broadway,7680.03,40.785054803,-73.972788334,40.804213,-73.96699104,member
B45B3547387B0039,classic_bike,2023-06-06 15:34:49,2023-06-06 15:40:27,W 180 St & Ft Washington Ave,8358.03,Audubon Ave & Fort George Ave,8491.07,40.849898338,-73.9383533,40.85715781391904,-73.92717361450195,member
F6E9C909FB2B0209,electric_bike,2023-06-22 11:08:00,2023-06-22 11:15:52,E 47 St & Park Ave,6584.12,Broadway & W 56 St,6847.02,40.75510267,-73.97498696,40.7652654,-73.98192338,member
198089590E30C096,classic_bike,2023-06-04 20:21:55,2023-06-04 20:25:53,E 81 St & York Ave,7084.12,E 84 St & 1 Ave,7180.02,40.7728384,-73.94989233,40.77565541,-73.95068615,casual
6EFF08A1F17E2D6A,classic_bike,2023-06-07 09:33:51,2023-06-07 09:41:33,E 11 St & 1 Ave,5746.14,Forsyth St & Broome St,5453.05,40.72953837,-73.98426726,40.71893904,-73.99266288,member
24AB60BD24EBF73A,electric_bike,2023-06-23 09:17:16,2023-06-23 09:39:36,Crescent St & 34 Ave,6759.15,N 15 St & Wythe Ave,5520.09,40.76108,-73.930562,40.724055,-73.955736,member
D26F818C65773E90,electric_bike,2023-06-15 19:58:00,2023-06-15 20:10:56,Metropolitan Ave & Bedford Ave,5308.04,Division St & Bowery,5270.08,40.71534825,-73.96024116,40.714193,-73.996732,member
269825B0C6D0F1B1,classic_bike,2023-06-14 17:11:39,2023-06-14 17:33:35,E 48 St & 5 Ave,6626.01,Riverside Dr & W 91 St,7524.16,40.75724567911726,-73.97805914282799,40.79313480986663,-73.97700369358063,member
7C91FBB5FA95AD90,classic_bike,2023-06-19 08:15:11,2023-06-19 08:16:05,West End Ave & W 107 St,7650.05,West End Ave & W 107 St,7650.05,40.802105188,-73.968172908,40.8021174,-73.9681805305,member
1EBF329B3DC08C70,classic_bike,2023-06-10 13:51:12,2023-06-10 14:23:36,Union St & Bedford Ave,3879.04,Montague St & Clinton St,4677.06,40.6691783,-73.9554162,40.6942715,-73.9923272,member
608582638E74B810,classic_bike,2023-06-15 16:16:34,2023-06-15 16:36:11,11 Ave & W 27 St,6425.04,Greene St & Prince St,5602.06,40.751396,-74.005226,40.72511734422387,-73.99930492043495,member
01F3FD051DEB3A44,classic_bike,2023-06-30 12:31:30,2023-06-30 12:39:48,E 20 St & Park Ave,6055.08,W 4 St & 7 Ave S,5880.02,40.738357544,-73.98746407,40.73401143,-74.00293877,member
ABAFFD1E5644191A,classic_bike,2023-06-06 15:33:11,2023-06-06 16:01:38,W 31 St & 7 Ave,6331.01,E 84 St & Park Ave,7243.04,40.749156,-73.9916,40.77862688,-73.95772073,member
21FA3C9C5A59B23A,electric_bike,2023-06-26 21:15:37,2023-06-26 21:19:59,6 Ave & 12 St,3803.05,3 St & 7 Ave,3905.15,40.6663181,-73.9854617,40.6703837,-73.97839676,casual
C0BAE169BB972C9C,classic_bike,2023-06-13 07:46:42,2023-06-13 07:58:00,Amsterdam Ave & W 73 St,7260.09,Amsterdam Ave & W 119 St,7727.07,40.779761553,-73.980978012,40.8086249,-73.9596214,member
AC87B931E4E06D45,classic_bike,2023-06-18 05:12:18,2023-06-18 05:26:06,E 4 St & 2 Ave,5593.04,W 47 St & 9 Ave,6786.02,40.726362228,-73.989689708,40.76153045158114,-73.99007007479668,member
2B4716F597D7DFB5,electric_bike,2023-06-17 13:34:05,2023-06-17 13:37:49,Bergen St & Vanderbilt Ave,4157.1,Fulton St & Waverly Ave,4345.11,40.6794388,-73.9680438,40.68323865460341,-73.96599590778351,member
31AC59A3AC352BF8,classic_bike,2023-06-14 18:44:30,2023-06-14 19:19:44,Avenue D & E 12 St,5575.08,W 13 St & 5 Ave,5947.04,40.725778341,-73.974156499,40.735445,-73.99431,member
C6345BA34B9CEF92,classic_bike,2023-06-05 19:42:58,2023-06-05 19:55:05,E 17 St & Broadway,5980.07,W 41 St & 8 Ave,6602.03,40.73704984,-73.99009296,40.75640548,-73.9900262,member
2CEA97D327E29A0E,classic_bike,2023-06-20 19:26:38,2023-06-20 19:37:33,Devoe St & Morgan Ave,5282.02,Division Ave & Hooper St,5045.05,40.713811,-73.93515,40.70684203101325,-73.9544353965357,member
2026F507F49E1C09,classic_bike,2023-06-30 22:52:56,2023-06-30 22:54:35,2 Ave & E 31 St,6197.02,1 Ave & E 30 St,6079.03,40.74290902,-73.97706058,40.74144387,-73.97536082,member
25A29DA3D5443040,classic_bike,2023-06-03 07:53:13,2023-06-03 08:05:35,Broadway & W 56 St,6847.02,W 25 St & 9 Ave,6339.06,40.7652654,-73.98192338,40.74783260583772,-74.0005722643582,member
D36DC9F301DEF40B,classic_bike,2023-06-29 12:17:23,2023-06-29 12:24:59,E 68 St & Madison Ave,6932.15,7 Ave & Central Park South,6912.01,40.768962145,-73.967003942,40.7667405590595,-73.9790689945221,member
DC920AC5307411BF,classic_bike,2023-06-21 14:08:51,2023-06-21 14:24:59,W 34 St & Hudson Blvd E,6535.04,W 25 St & 6 Ave,6215.04,40.75516719072139,-74.00059908628464,40.74395411,-73.99144871,casual
D3BAF8546B369CA2,classic_bike,2023-06-10 18:34:17,2023-06-10 19:01:57,Little West St & 1 Pl,5001.08,12 Ave & W 40 St,6765.01,40.705658078,-74.016889572,40.76087502,-74.00277668,casual
FE62DAD4B6ECEEE2,classic_bike,2023-06-16 17:21:35,2023-06-16 17:51:33,Allen St & Hester St,5342.1,Clinton St & Grand St,5303.06,40.71605866,-73.99190759,40.71559509,-73.9870295,member
1C288F2EFE824F7C,classic_bike,2023-06-06 12:28:08,2023-06-06 12:29:28,W 20 St & 8 Ave,6224.05,W 20 St & 8 Ave,6224.05,40.743523359,-74.000099778,40.74345335,-74.00004031,member
861FC7CEC06E9E41,classic_bike,2023-06-30 09:23:00,2023-06-30 09:42:23,Marcus Garvey Blvd & Macon St,4278.03,Clinton Ave & Flushing Ave,4762.04,40.682601,-73.938037,40.69794,-73.96986848,member
F458144452BAEC08,classic_bike,2023-06-04 08:12:13,2023-06-04 08:32:51,MacDougal St & Washington Sq,5797.01,MacDougal St & Washington Sq,5797.01,40.73226398,-73.99852205,40.73226398,-73.99852205,casual
AA61979CBB489622,classic_bike,2023-06-12 08:18:04,2023-06-12 08:21:06,W 18 St & 6 Ave,6064.08,Broadway & W 25 St,6173.08,40.73971301,-73.99456405,40.74286877312112,-73.98918628692627,member
C3FA8E9FC3C0B0E9,classic_bike,2023-06-28 13:45:40,2023-06-28 14:11:26,10 Ave & W 14 St,6157.04,Murray St & West St,5329.08,40.74198159994023,-74.00831580162048,40.71503,-74.01246,casual
407FDDA06B80DB0F,electric_bike,2023-06-23 15:14:57,2023-06-23 15:20:58,3 Ave & E 112 St,7543.15,3 Ave & E 112 St,7543.15,40.795508,-73.941606,40.795508,-73.941606,member
D7FC75A9F03AE7A9,classic_bike,2023-06-21 11:57:18,2023-06-21 12:00:12,Clinton St & Grand St,5303.06,Pike St & E Broadway,5270.05,40.71559509,-73.9870295,40.71406667,-73.99293911,member
85DBC06F56947258,electric_bike,2023-06-22 16:56:39,2023-06-22 17:10:02,E 48 St & 3 Ave,6541.03,E 81 St & 1 Ave,7121.13,40.7546011026,-73.971878855,40.77377781072322,-73.95197331905365,member
F62B83099161DAF1,classic_bike,2023-06-08 07:46:08,2023-06-08 07:51:18,Centre St & Worth St,5279.03,Fulton St & Broadway,5175.08,40.71494807,-74.00234482,40.711066,-74.009447,member
40540547F2D889E9,electric_bike,2023-06-13 07:28:37,2023-06-13 07:51:51,Isham St & Broadway,8665.09,Jerome Ave & E Mosholu Parkway S,8795.01,40.86788,-73.919685,40.87935,-73.88534,member
40FA4EF343A16A67,classic_bike,2023-06-13 23:28:39,2023-06-13 23:28:50,E 138 St & Willow Ave,7654.04,E 138 St & Willow Ave,7654.04,40.804168,-73.911545,40.804168,-73.911545,member
9EF995D9BB5D1844,classic_bike,2023-06-20 08:19:18,2023-06-20 08:41:42,W 42 St & 8 Ave,6602.05,E 77 St & 1 Ave,7020.02,40.7575699,-73.99098507,40.77095553869235,-73.95356208096926,casual
A9B86DB7FB0053C4,classic_bike,2023-06-26 08:36:04,2023-06-26 19:04:16,Bergen St & Flatbush Ave,4281.08,3 Ave & Schermerhorn St,4437.01,40.680944723477296,-73.97567331790923,40.68683208,-73.9796772,member
614D795832A5B49E,classic_bike,2023-06-20 18:55:04,2023-06-20 18:58:23,E 85 St & 3 Ave,7212.05,E 84 St & Park Ave,7243.04,40.77801203,-73.95407149,40.77862688,-73.95772073,member
353E048EF54FF8A2,classic_bike,2023-06-27 18:32:07,2023-06-27 18:40:38,W 42 St & 6 Ave,6517.08,6 Ave & W 33 St,6364.07,40.75492,-73.98455,40.74901271,-73.98848395,member
8107C67DF216728E,electric_bike,2023-06-15 20:19:00,2023-06-15 20:33:10,W 20 St & 8 Ave,6224.05,Clinton St & Grand St,5303.06,40.74345335,-74.00004031,40.71559509,-73.9870295,member
0A00702C2720E1FA,classic_bike,2023-06-07 19:34:04,2023-06-07 19:40:25,St Marks Pl & 1 Ave,5626.13,E 11 St & Avenue B,5659.11,40.72779126,-73.98564945,40.72746420692392,-73.97950418293476,member
02E666483153AC7E,classic_bike,2023-06-26 09:42:43,2023-06-26 10:04:13,William St & Pine St,5065.12,W 34 St & Hudson Blvd E,6535.04,40.707232594,-74.00890553,40.75516719072139,-74.00059908628464,member
60C54CB5184311F9,classic_bike,2023-06-25 18:44:03,2023-06-25 18:56:45,Cleveland Pl & Spring St,5492.05,Murray St & West St,5329.08,40.722103786686034,-73.99724900722504,40.71503,-74.01246,member
327EFCD9D14A1FF5,classic_bike,2023-06-30 09:03:53,2023-06-30 09:24:44,West St & Liberty St,5184.08,W 64 St & Thelonious Monk Circle,7123.04,40.711405277,-74.014966488,40.77515953434235,-73.98918695747852,member
885205C9A61056A0,classic_bike,2023-06-23 19:22:45,2023-06-23 19:44:10,Lewis Ave & Fulton St,4196.01,Manhattan Ave & Devoe St,5219.05,40.67972,-73.93467,40.713532,-73.9459867,member
26D2329AEA7EA399,classic_bike,2023-06-01 18:02:50,2023-06-01 18:26:48,Fulton St & Broadway,5175.08,10 Ave & W 14 St,6157.04,40.711066,-74.009447,40.74198159994023,-74.00831580162048,member
F8AD0C6BEB720D0B,classic_bike,2023-06-28 19:52:52,2023-06-28 19:55:49,Henry St & Grand St,5294.04,Norfolk St & Broome St,5374.01,40.714211,-73.981095,40.7172274,-73.98802084,member
250DE8D4CBFBD4E2,classic_bike,2023-06-25 22:54:51,2023-06-25 23:41:15,Amsterdam Ave & W 136 St,7920.05,3 Ave & E 112 St,7543.15,40.819786429,-73.951780319,40.795508,-73.941606,member
5C3C4E3D87E62A4E,classic_bike,2023-06-09 08:01:42,2023-06-09 08:32:47,W 140 St & Riverside Dr,7981.27,W 27 St & 7 Ave,6247.06,40.823800921,-73.954585791,40.746647,-73.993915,casual
DDF5FE0238DAB28B,classic_bike,2023-06-20 08:45:40,2023-06-20 08:58:52,Barrow St & Hudson St,5805.05,W 35 St & 9 Ave,6569.09,40.73172428,-74.00674436,40.75414519263519,-73.9960889518261,member
F8708749E4DFB1BE,classic_bike,2023-06-19 15:20:42,2023-06-19 15:29:36,E 39 St & Lexington Ave,6389.09,E 16 St & Irving Pl,5938.11,40.7494985460252,-73.97729203113158,40.735367055605394,-73.98797392845154,member
4F90D8D155AF05F7,electric_bike,2023-06-10 12:15:22,2023-06-10 12:27:30,60 St & 60 Rd,5360.02,Madison St & Woodward Ave,4954.07,40.71592232709503,-73.90601366758347,40.70408,-73.90408,member
DD68D314F8A693D6,electric_bike,2023-06-19 21:02:16,2023-06-19 21:29:38,Central Park West & W 76 St,7253.04,5 Ave & E 87 St,7323.09,40.77896784,-73.97374737,40.78232260730881,-73.95987510681152,casual
D386C4BDE2885511,classic_bike,2023-06-09 11:30:46,2023-06-09 11:48:11,Bergen St & Vanderbilt Ave,4157.10,7 Ave & 41 St,3192.05,40.679398894,-73.967967987,40.647379,-74.000911,member
80B33923D0222CF9,classic_bike,2023-06-13 14:22:13,2023-06-13 14:31:12,30 Ave & 41 St,6812.06,61 St & 39 Ave,6307.07,40.763367891,-73.913886309,40.7471,-73.9028,member
715544C0E32D582A,classic_bike,2023-06-25 19:10:13,2023-06-25 19:27:40,Grand Ave & W 181 St,8500.01,University Ave & W Burnside Ave,8462.09,40.856284022,-73.907349229,40.85501,-73.910751,member
39E8F090FE3708EA,classic_bike,2023-06-19 18:23:50,2023-06-19 18:31:48,6 Ave & W 33 St,6364.07,W 43 St & 6 Ave,6593.14,40.74901271,-73.98848395,40.75527307,-73.98316936,casual
271EFA722C645EAB,classic_bike,2023-06-10 08:40:19,2023-06-10 09:00:32,Madison St & Seneca Ave,4880.11,Madison St & Seneca Ave,4880.11,40.70183,-73.90625,40.70183,-73.90625,member
278E66E87D51EFA1,classic_bike,2023-06-11 14:30:58,2023-06-11 15:07:33,Carmine St & 6 Ave,5763.03,Fulton St & Adams St,4637.06,40.73038599,-74.00214988,40.69241829257847,-73.98949474096298,casual
68844E8574046D46,classic_bike,2023-06-01 20:17:06,2023-06-01 20:20:26,W 46 St & 11 Ave,6795.01,W 52 St & 11 Ave,6926.01,40.76341379,-73.99667444,40.76727216,-73.99392888,member
EF8586EC5A8F32F9,classic_bike,2023-06-22 09:13:26,2023-06-22 09:21:53,Water St &  Fletcher St,5024.10,Little West St & 1 Pl,5001.08,40.706410755236135,-74.00559738278389,40.70569254,-74.01677685,member
6920998F5519F55B,classic_bike,2023-06-14 13:26:25,2023-06-14 13:33:04,South St & Gouverneur Ln,4953.04,Little West St & 1 Pl,5001.08,40.70355377,-74.00670227,40.70569254,-74.01677685,member
4E7232B1160BF4F2,classic_bike,2023-06-20 13:55:07,2023-06-20 14:17:35,E 128 St & Madison Ave,7735.23,E 123 St & Lexington Ave,7636.05,40.807468534,-73.939090729,40.8029263,-73.9379,member
61AE8803EF5B9DE9,classic_bike,2023-06-16 15:34:28,2023-06-16 15:44:03,Henry St & Degraw St,4380.08,Pearl St & York St,4895.15,40.684723496,-73.999177337,40.70140463410644,-73.98768022656441,member
EBCB0F87E3260699,classic_bike,2023-06-28 09:09:02,2023-06-28 09:29:39,Wyckoff St & 3 Ave,4290.06,Barclay St & Church St,5216.04,40.6827549,-73.98258555,40.71291224,-74.01020234,member
DD7CB3A43D0EA36C,classic_bike,2023-06-26 17:22:23,2023-06-26 17:32:16,Madison St & Montgomery St,5262.09,Grand St & Elizabeth St,5382.06,40.713138938,-73.984628201,40.718822,-73.99596,member
6A0D80A0D34B2A06,classic_bike,2023-06-03 15:40:57,2023-06-03 16:11:42,West St & Chambers St,5329.03,W 64 St & Thelonious Monk Circle,7123.04,40.71754834,-74.01322069,40.77515953434235,-73.98918695747852,member
6DC63BECA4534452,classic_bike,2023-06-08 08:10:51,2023-06-08 08:23:35,Dean St & Franklin Ave,4107.13,Washington Ave & Park Ave,4724.03,40.677631736,-73.955725312,40.69610226,-73.96751037,member
1259AB66B5F7A2A6,classic_bike,2023-06-16 16:22:10,2023-06-16 16:29:39,E 2 St & Avenue B,5515.02,Cleveland Pl & Spring St,5492.05,40.722103,-73.983564615,40.722103786686034,-73.99724900722504,member
7AA674B8DCDDA23E,classic_bike,2023-06-15 14:25:05,2023-06-15 14:47:59,W Broadway & Spring St,5569.06,S 3 St & Bedford Ave,5235.05,40.72494672359416,-74.00165855884552,40.71260486,-73.96264403,member
CB814FA797147070,classic_bike,2023-06-01 09:39:00,2023-06-01 09:49:40,E 20 St & Park Ave,6055.08,W 54 St & 6 Ave,6771.13,40.738179803,-73.98737967,40.761865,-73.977242,member
BF2FA57EF3ABC7EA,classic_bike,2023-06-23 15:59:47,2023-06-23 16:11:43,7 Ave S & Bleecker St,5805.07,W 24 St & 7 Ave,6257.03,40.73213896287381,-74.00363802909851,40.74487634,-73.99529885,member
FF76CA183F676BDD,docked_bike,2023-06-11 20:10:15,2023-06-11 20:32:55,5 Ave & E 103 St,7511.19,5 Ave & E 103 St,7511.19,40.792255,-73.952499,40.792255,-73.952499,casual
D994CA6DBCD96E26,classic_bike,2023-06-30 06:49:50,2023-06-30 06:55:57,8 Ave & W 24 St,6224.06,11 Ave & W 27 St,6425.04,40.74591072834279,-73.99807110428809,40.751396,-74.005226,member
D7BBD7E833836E9D,classic_bike,2023-06-22 12:35:11,2023-06-22 12:54:52,1 Ave & E 18 St,5854.09,Mott St & Prince St,5561.04,40.73381219196632,-73.98054420948029,40.72317958,-73.99480012,casual
61236822D9239C04,classic_bike,2023-06-26 20:55:00,2023-06-26 21:03:58,Steinway St & 19 Ave,7220.01,Steinway St & 28 Ave,6915.02,40.778089,-73.899558,40.7656251,-73.9136695,member
640F402FFDF2906E,classic_bike,2023-06-01 12:17:53,2023-06-01 13:03:26,5 Ave & W 126 St,7701.21,Frederick Douglass Blvd & W 117 St,7688.12,40.80722,-73.9418,40.805159,-73.954692,member
974AD57CE18A2637,classic_bike,2023-06-21 17:10:01,2023-06-21 17:18:28,E 58 St & Madison Ave,6839.04,W 44 St & 5 Ave,6551.02,40.76302594280519,-73.97209525108337,40.75500254,-73.98014437,member
33EC62853521E06C,classic_bike,2023-06-16 04:23:55,2023-06-16 05:24:56,Water St &  Fletcher St,5024.10,Water St &  Fletcher St,5024.10,40.706410755236135,-74.00559738278389,40.706410755236135,-74.00559738278389,casual
C321967139B034CC,classic_bike,2023-06-22 18:17:34,2023-06-22 18:44:06,W 46 St & 11 Ave,6795.01,Greenwich St & W Houston St,5730.08,40.76341379,-73.99667444,40.728846,-74.008591,casual
835A087C3E85E5AA,classic_bike,2023-06-07 10:26:34,2023-06-07 10:35:14,Howard St & Lafayette St,5422.04,Barclay St & Church St,5216.04,40.71910537,-73.99973337,40.71291224,-74.01020234,casual
7EF1B6C8B8A62FF2,classic_bike,2023-06-17 11:52:14,2023-06-17 11:55:04,Central Park North & Adam Clayton Powell Blvd,7617.07,Central Park North & Adam Clayton Powell Blvd,7617.07,40.799484,-73.955613,40.799484,-73.955613,member
A9F338C910AB2794,classic_bike,2023-06-27 06:16:13,2023-06-27 06:20:19,E 102 St & 1 Ave,7407.13,5 Ave & E 103 St,7511.19,40.786893249,-73.94152689,40.7922553,-73.95249933,member
71E994A74C086B0C,classic_bike,2023-06-13 10:42:00,2023-06-13 10:54:43,W 30 St & 10 Ave,6459.07,1 Ave & E 18 St,5854.09,40.75270474,-74.003218293,40.73381219196632,-73.98054420948029,member
D1F9D819AFBC9B23,classic_bike,2023-06-19 17:19:49,2023-06-19 17:37:28,Broadway & W 36 St,6441.01,MacDougal St & Washington Sq,5797.01,40.75097711,-73.98765428,40.73226398,-73.99852205,casual
F18B0B4CCE5B5BA4,classic_bike,2023-06-13 11:46:01,2023-06-13 12:05:28,Broadway & W 25 St,6173.08,Broadway & W 25 St,6173.08,40.742851257,-73.988965392,40.74286877312112,-73.98918628692627,member
66FF43256DA6C563,classic_bike,2023-06-14 17:48:37,2023-06-14 17:50:00,E 2 St & Avenue B,5515.02,E 2 St & Avenue B,5515.02,40.72217444,-73.98368779,40.72217444,-73.98368779,casual
C0CFA2C0C847C738,classic_bike,2023-06-28 18:18:08,2023-06-28 18:26:23,Broad St & Bridge St,4962.08,Murray St & West St,5329.08,40.70365182,-74.01167797,40.71503,-74.01246,member
05A105D00EC1352E,classic_bike,2023-06-27 17:29:05,2023-06-27 17:35:28,Clarkson Ave & Nostrand Ave,3472.03,Parkside Ave & Ocean Ave,3448.02,40.6555,-73.94975,40.65485,-73.96217,member
7243D34530AD95C0,classic_bike,2023-06-10 22:24:46,2023-06-10 22:38:21,Prospect Park SW & 16 St,3498.09,Parade Pl & Crooke Ave,3376.02,40.657265,-73.974165,40.651847,-73.965248,casual
B4071F64F5F27EBD,classic_bike,2023-06-10 12:52:17,2023-06-10 13:03:36,W 110 St & Amsterdam Ave,7646.04,W 84 St & Columbus Ave,7382.04,40.802692,-73.96295,40.78499979,-73.97283406,casual
25B0E182689D7546,classic_bike,2023-06-06 13:06:27,2023-06-06 13:10:41,W 22 St & 10 Ave,6306.06,11 Ave & W 27 St,6425.04,40.746860385,-74.004320502,40.751396,-74.005226,member
72626A65E1C936C4,classic_bike,2023-06-24 20:07:39,2023-06-24 20:25:06,46 Ave & 5 St,6286.02,Vernon Blvd & 41 Rd,6514.08,40.74731,-73.95451,40.7552433,-73.9485678,member
A5B2645C209414D2,classic_bike,2023-06-15 08:16:19,2023-06-15 08:23:24,LaGuardia Pl & W 3 St,5721.14,Lafayette St & Grand St,5422.09,40.72917025,-73.99810231,40.72028,-73.99879,member
A0B6FA4F954A3993,classic_bike,2023-06-04 19:46:20,2023-06-04 19:57:58,Carroll St & Smith St,4225.14,Van Brunt St & Wolcott St,4095.03,40.680611,-73.99475825,40.6773429,-74.01275056,casual
EF81D44DAF13973F,classic_bike,2023-06-05 20:08:28,2023-06-05 20:19:05,Bedford Ave & Clarkson Ave,3439.03,DeKalb Ave & Franklin Ave,4528.01,40.655201197,-73.956374288,40.69064807082943,-73.95746178925037,casual
081DE7E4E3C6BDA9,classic_bike,2023-06-28 15:32:56,2023-06-28 15:51:44,Bergen St & Vanderbilt Ave,4157.10,Schermerhorn St & Court St,4565.07,40.6794388,-73.9680438,40.6910363748993,-73.99201065301895,member
3BE727F5E16DA8E0,classic_bike,2023-06-10 17:29:03,2023-06-10 17:39:26,Nevins St & Schermerhorn St,4437.09,Clinton Ave & Myrtle Ave,4651.02,40.68737247650719,-73.98176059126854,40.693261,-73.968896,casual
CF801FADAC5735F7,classic_bike,2023-06-21 08:08:51,2023-06-21 08:22:35,Sheridan Ave & E 172 St,8229.04,Willis Ave & E 143 St,7798.02,40.840470672,-73.911506414,40.812299,-73.92037,member
98349C256A042F1B,electric_bike,2023-06-22 22:24:22,2023-06-22 22:32:56,Milton St & Franklin St,5752.07,Kingsland Ave & Nassau Ave,5613.04,40.72906,-73.95779,40.72577,-73.94173,member
B87A932C6BD36C98,classic_bike,2023-06-10 23:52:45,2023-06-11 00:12:34,Grand St & Havemeyer St,5267.08,Kenmare St & Elizabeth St,5453.06,40.71286844,-73.95698119,40.72054,-73.9949,casual
489F81EC8F6C7677,classic_bike,2023-06-04 11:48:38,2023-06-04 12:00:20,Peck Slip & South St,5096.12,Murray St & West St,5329.08,40.707580566,-74.001081824,40.71503,-74.01246,member
2D517BF767D516DB,classic_bike,2023-06-17 01:53:54,2023-06-17 02:00:45,W 15 St & 6 Ave,5989.02,6 Ave & W 33 St,6364.07,40.738046142482766,-73.99642959237099,40.74901271,-73.98848395,casual
D31A3D214301C5A4,classic_bike,2023-06-18 22:37:01,2023-06-18 22:51:56,Verona Pl & Fulton St,4124.04,Melrose St & Broadway,4801.04,40.6803560840434,-73.9476791024208,40.697481,-73.935877,casual
C91876F2B991DEF9,classic_bike,2023-06-23 09:30:36,2023-06-23 09:41:01,Nassau Ave & Russell St,5581.01,Nassau Ave & Russell St,5581.01,40.72557,-73.94434,40.72557,-73.94434,member
FE31277CF674829E,classic_bike,2023-06-16 13:05:36,2023-06-16 13:10:48,Hicks St & Montague St,4645.09,Schermerhorn St & Hoyt St,4479.10,40.69512845,-73.99595065,40.6886263,-73.9851911,member
A269202D42B747D5,classic_bike,2023-06-15 20:53:44,2023-06-15 21:46:38,31 Ave & 34 St,6819.15,5 Ave & E 63 St,6904.06,40.763131857,-73.920823216,40.766368,-73.971518,member
4B3682C5DD1FC90A,classic_bike,2023-06-25 14:40:29,2023-06-25 14:41:46,W 30 St & 8 Ave,6373.07,W 31 St & 7 Ave,6331.01,40.74965268472847,-73.9952078461647,40.749156,-73.9916,member
52BF5731143F27EF,classic_bike,2023-06-28 18:08:53,2023-06-28 18:10:43,E 89 St & York Ave,7204.08,E 89 St & York Ave,7204.08,40.7779453,-73.946041,40.7779453,-73.946041,member
509089D5945442A6,classic_bike,2023-06-15 19:44:34,2023-06-15 20:04:31,Vesey Pl & River Terrace,5297.02,Kenmare St & Elizabeth St,5453.06,40.7153379,-74.01658354,40.72054,-73.9949,member
99B326C7E9151D04,classic_bike,2023-06-07 17:20:29,2023-06-07 17:49:45,35 St & 21 Ave,7170.04,21 St & Hoyt Ave S,7126.01,40.77678597,-73.906471491,40.774645,-73.923706,member
E051BAB4E476DD08,electric_bike,2023-06-22 15:34:07,2023-06-22 15:36:32,Atlantic Ave & Furman St,4614.04,Columbia St & Kane St,4422.05,40.69165183,-73.9999786,40.68763155,-74.0016256,casual
6823259D207C4163,classic_bike,2023-06-11 10:31:56,2023-06-11 10:46:33,W 15 St & 6 Ave,5989.02,1 Ave & E 18 St,5854.09,40.738046142482766,-73.99642959237099,40.73381219196632,-73.98054420948029,member
76CEB5EFDD8FF9B6,classic_bike,2023-06-08 21:20:11,2023-06-08 21:36:20,W 10 St & Washington St,5847.06,11 Ave & W 27 St,6425.04,40.73342399437081,-74.00851495563984,40.751396,-74.005226,member
0BE3B08F0E11E8F5,classic_bike,2023-06-28 15:16:30,2023-06-28 15:29:35,Plaza St West & Flatbush Ave,4010.13,Park Cir & East Dr,3344.02,40.6750207,-73.97111473,40.651566,-73.972212,casual
B566C05B8C4AD05A,classic_bike,2023-06-22 13:26:41,2023-06-22 13:34:13,3 Ave & E 169 St,8103.05,3 Ave & E 169 St,8103.05,40.832677364,-73.905289173,40.832678,-73.905158,member
73E945E959BD2C89,classic_bike,2023-06-22 10:35:53,2023-06-22 10:37:50,Menahan St & Onderdonk Ave,5034.03,Onderdonk Ave & Gates Ave,4994.10,40.70553,-73.9096,40.70413,-73.90737,member
B6FB9D6C958D0B35,classic_bike,2023-06-09 00:08:36,2023-06-09 00:23:16,W 84 St & Columbus Ave,7382.04,E 88 St & 1 Ave,7235.13,40.785164356,-73.972833872,40.778301,-73.9488134,member
CA841E26E698F79F,classic_bike,2023-06-01 08:27:51,2023-06-01 08:35:16,11 Ave & W 59 St,7059.01,12 Ave & W 40 St,6765.01,40.77149671054441,-73.99046033620834,40.76087502,-74.00277668,member
E247DEB50AB1B822,classic_bike,2023-06-29 19:02:56,2023-06-29 19:11:50,Vernon Blvd & 50 Ave,6170.02,Huron St & Franklin St,5869.04,40.74232744,-73.95411749,40.73266,-73.95826,member
5268BA7CCDF3E22B,classic_bike,2023-06-27 10:36:13,2023-06-27 10:42:52,Lispenard St & Broadway,5391.06,Vesey St & Church St,5216.06,40.719444036,-74.002479315,40.71221958009051,-74.01047229766846,member
9E2F2D68D3B5B13D,classic_bike,2023-06-06 10:23:59,2023-06-06 10:28:58,8 Ave & W 16 St,6072.11,W 20 St & 10 Ave,6306.01,40.740983,-74.001702,40.745686,-74.005141,member
E88E9806148B4E94,classic_bike,2023-06-22 17:22:35,2023-06-22 18:15:08,35 St & 23 Ave,7047.07,Steinway St & 23 Ave,7009.02,40.772894502,-73.911347866,40.7713937,-73.9077436,member
9A832A1F1E08EE78,electric_bike,2023-06-25 01:46:44,2023-06-25 01:49:15,Broadway & W 61 St,7014.12,W 67 St & Broadway,7116.04,40.77003010255044,-73.9819684624672,40.77492513,-73.98266566,member
37537AEB21ED4F98,classic_bike,2023-06-03 07:51:10,2023-06-03 08:24:40,Eastern Pkwy & Washington Ave,3928.08,Eastern Pkwy & Franklin Ave,3919.07,40.6716493,-73.9631145,40.6707767,-73.9576801,member
DC0F21A730D875B2,classic_bike,2023-06-24 11:40:54,2023-06-24 11:51:16,West End Ave & W 60 St,7059.08,12 Ave & W 40 St,6765.01,40.77237,-73.99005,40.76087502,-74.00277668,casual
AF588F240FEDA4D3,classic_bike,2023-06-05 19:33:03,2023-06-05 19:43:02,11 Ave & W 41 St,6726.01,6 Ave & W 34 St,6364.10,40.760507226,-73.998709798,40.74964,-73.98805,member
127658129DFC566A,classic_bike,2023-06-14 09:08:05,2023-06-14 09:16:41,Carroll St & Washington Ave,3887.03,Berkeley Pl & 7 Ave,4051.01,40.6686744,-73.9618148,40.675146838709786,-73.97523209452629,casual
7123ACA4EA4D3BC7,classic_bike,2023-06-05 20:59:13,2023-06-05 21:25:48,W 15 St & 6 Ave,5989.02,Pearl St & Hanover Square,4993.02,40.738046142482766,-73.99642959237099,40.7047177,-74.00926027,casual
CDA77AD7C75F07D9,classic_bike,2023-06-11 14:51:05,2023-06-11 14:55:10,W 47 St & 6 Ave,6667.04,8 Ave & W 52 St,6816.07,40.75827086,-73.982796192,40.76370739,-73.9851615,member
E4A9F894169CDFD8,classic_bike,2023-06-04 14:10:30,2023-06-04 15:05:02,Water St &  Fletcher St,5024.1,Maiden Ln & Pearl St,5065.10,40.706410755236135,-74.00559738278389,40.70706456,-74.00731853,member
53F8ECBE662A41A0,classic_bike,2023-06-07 19:11:53,2023-06-07 19:52:37,Wales Ave & E 147 St,7751.05,E 138 St & Cypress Ave,7669.10,40.811260939,-73.907711267,40.805559,-73.914718,member
8930414F615E0BF9,classic_bike,2023-06-04 16:46:43,2023-06-04 16:55:09,Central Park North & Adam Clayton Powell Blvd,7617.07,W 100 St & Manhattan Ave,7538.14,40.799622178,-73.955956101,40.795,-73.9645,casual
86E6123A5C54CBE0,classic_bike,2023-06-13 07:43:04,2023-06-13 08:27:20,Vernon Blvd & 41 Rd,6514.08,36 St & Queens Blvd,6260.04,40.755356908,-73.948403955,40.74408,-73.92901,member
02BB8D7393D22213,classic_bike,2023-06-27 04:42:40,2023-06-27 04:50:10,Broadway & W 58 St,6948.1,E 53 St & Lexington Ave,6617.09,40.76695317,-73.98169333,40.75828065,-73.97069431,member
76B8E6FA88205D76,classic_bike,2023-06-19 14:15:09,2023-06-19 14:44:20,University Ave & Brandt Pl,8366.07,W 36 St & 7 Ave,6483.06,40.848383904,-73.918325543,40.752149,-73.989539,member
48C34B4D122DFC33,classic_bike,2023-06-28 22:47:36,2023-06-28 22:52:49,Mercer St & Bleecker St,5679.05,E 4 St & 2 Ave,5593.04,40.72706363348306,-73.99662137031554,40.7262807,-73.98978041,casual
28CE310E9CDB7168,classic_bike,2023-06-14 22:06:29,2023-06-14 22:16:25,Lispenard St & Broadway,5391.06,Clinton St & Cherry St,5190.09,40.71939226,-74.00247214,40.711471394469264,-73.98672603070736,member
3A19A65BB707F41A,classic_bike,2023-06-22 11:57:13,2023-06-22 12:00:26,Little West St & 1 Pl,5001.08,Little West St & 1 Pl,5001.08,40.70569254,-74.01677685,40.70569254,-74.01677685,casual
9708E1C412631E94,classic_bike,2023-06-13 16:54:50,2023-06-13 17:05:59,Ave A & E 14 St,5779.11,Perry St & Greenwich Ave,5955.12,40.73031071000895,-73.98047178983688,40.735918,-74.000939,member
376EDC9A77E2F56E,electric_bike,2023-06-18 15:44:04,2023-06-18 15:58:42,Lexington Ave & E 24 St,6089.07,E 53 St & Madison Ave,6659.03,40.74025878,-73.98409214,40.7597108,-73.97402311,member
6C99980C5718878B,classic_bike,2023-06-03 15:05:48,2023-06-03 15:06:07,McKibbin St & Manhattan Ave,4996.08,McKibbin St & Manhattan Ave,4996.08,40.705057025,-73.944036841,40.70510918,-73.94407279,member
34182E1C6D678A29,classic_bike,2023-06-05 17:12:28,2023-06-05 17:17:38,Grand St & Elizabeth St,5382.06,Clinton St & Grand St,5303.06,40.718822,-73.99596,40.71559509,-73.9870295,member
02C029BE9E708C0E,electric_bike,2023-06-06 15:05:30,2023-06-06 15:11:59,W 47 St & 10 Ave,6824.07,W 47 St & 6 Ave,6667.04,40.76269882,-73.99301222,40.758397,-73.98255,member
ABBA4C8BE704F2D1,classic_bike,2023-06-22 15:37:45,2023-06-22 15:57:29,E 10 St & Avenue A,5659.05,DeKalb Ave & S Portland Ave,4546.04,40.7271384,-73.980818748,40.68981035,-73.97493121,member
A88969BBE1A6CBDC,classic_bike,2023-06-13 17:32:44,2023-06-13 18:16:54,Greenwich Ave & 8 Ave,6072.06,Pier 40 - Hudson River Park,5696.03,40.7390169121,-74.0026376103,40.7277140777778,-74.01129573583603,member
59CDD8CAAD85AF96,classic_bike,2023-06-02 16:34:55,2023-06-02 16:38:17,W 20 St & 7 Ave,6182.02,9 Ave & W 18 St,6190.08,40.74238787,-73.99726235,40.74317449,-74.00366443,member
286A7EDE293A79D8,classic_bike,2023-06-21 15:28:48,2023-06-21 16:23:15,6 Ave & W 34 St,6364.1,7 Ave & Central Park South,6912.01,40.74964,-73.98805,40.7667405590595,-73.9790689945221,casual
B25BB8D3D3C0888C,docked_bike,2023-06-30 12:49:31,2023-06-30 13:11:05,W 51 St & Rockefeller Plaza,6700.14,Columbus Ave & W 72 St,7175.05,40.759738,-73.978116,40.777058,-73.978985,casual
9F092197E42ED0AD,classic_bike,2023-06-26 08:44:31,2023-06-26 08:52:32,E 47 St & Park Ave,6584.12,W 24 St & 7 Ave,6257.03,40.754395843,-73.97489953,40.74487634,-73.99529885,member
74355624C2EFA51A,classic_bike,2023-06-30 12:03:55,2023-06-30 12:19:43,5 Ave & E 72 St,7100.07,W 36 St & 7 Ave,6483.06,40.772908568,-73.966807961,40.752149,-73.989539,member
71AC931FDC49C21B,classic_bike,2023-06-02 20:27:29,2023-06-02 20:27:45,Greenwich St & W Houston St,5730.08,Greenwich St & W Houston St,5730.08,40.728644013,-74.008745909,40.728846,-74.008591,member
FE1F4424B50ECA77,classic_bike,2023-06-25 19:27:59,2023-06-25 19:32:15,W 87 St & West End Ave,7484.05,Riverside Dr & W 104 St,7623.13,40.789710879,-73.977889657,40.8013434,-73.9711457439,member
4753CDF1F007B20E,classic_bike,2023-06-29 18:16:10,2023-06-29 18:25:52,Lafayette Ave & Ft Greene Pl,4470.09,Monroe St & Classon Ave,4336.01,40.68700231292619,-73.97664964199066,40.6845683,-73.95881081,casual
C72292593DE97BDF,classic_bike,2023-06-06 11:43:37,2023-06-06 11:49:43,E 48 St & 3 Ave,6541.03,3 Ave & E 71 St,6960.10,40.755093575,-73.972121358,40.76873687,-73.96119945,member
A9806C0DB94A9E26,classic_bike,2023-06-18 18:25:42,2023-06-18 18:49:02,E 47 St & 1 Ave,6498.09,Columbus Ave & W 72 St,7175.05,40.751884937,-73.968119979,40.7770575,-73.97898475,member
084F239E9BF541DC,classic_bike,2023-06-16 06:33:58,2023-06-16 06:47:17,Bergen St & Saratoga Ave,4064.03,Stagg St & Morgan Ave,5170.01,40.674228072,-73.916585445,40.710681,-73.93372,member
A64029C9F8674D10,electric_bike,2023-06-21 00:40:31,2023-06-21 01:13:30,Rogers Ave & Lincoln Rd,3625.07,Thomas S. Boyland St & Marion St,4253.02,40.66127,-73.95352,40.6814658848122,-73.91415685415268,member
F076EE22C4BEC9C9,classic_bike,2023-06-09 16:29:39,2023-06-09 16:41:33,W 52 St & 6 Ave,6740.01,E 20 St & FDR Dr,5886.13,40.760846376,-73.980687499,40.733208626522426,-73.9756813647,member
725A21D3ADD82217,classic_bike,2023-06-21 08:35:39,2023-06-21 08:43:47,11 Ave & W 59 St,7059.01,12 Ave & W 40 St,6765.01,40.77149671054441,-73.99046033620834,40.76087502,-74.00277668,member
31DACFCBD66883C2,classic_bike,2023-06-16 17:58:34,2023-06-16 18:01:50,W 22 St & 8 Ave,6224.03,W 27 St & 7 Ave,6247.06,40.74475148,-73.99915362,40.746647,-73.993915,member
871904FD182F44FD,classic_bike,2023-06-15 12:11:51,2023-06-15 12:22:51,E 33 St & 5 Ave,6322.01,E 53 St & Madison Ave,6659.03,40.747689962,-73.984972835,40.7597108,-73.97402311,member
B563725968FDC588,classic_bike,2023-06-28 19:31:00,2023-06-28 20:18:21,W 13 St & 5 Ave,5947.04,Greenwich St & W Houston St,5730.08,40.735628486,-73.99430275,40.728846,-74.008591,member
4FFC27555FE57055,classic_bike,2023-06-15 09:55:59,2023-06-15 09:58:46,Rogers Ave & Sterling St,3696.05,Washington Ave & Empire Blvd,3704.01,40.6630619,-73.9538746,40.66314,-73.9605695,member
CAD4B12CDA22D5E6,classic_bike,2023-06-28 15:04:53,2023-06-28 15:20:56,LaGuardia Pl & W 3 St,5721.14,E 20 St & Park Ave,6055.08,40.72917025,-73.99810231,40.73827428,-73.98751968,member
0CA2919ED653FC29,classic_bike,2023-06-20 14:49:06,2023-06-20 14:49:44,E 149 St & Eagle Ave,7793.02,E 149 St & Eagle Ave,7793.02,40.814093351,-73.911957145,40.814046,-73.91186,casual
74382783A0D99EDE,classic_bike,2023-06-24 18:19:33,2023-06-24 18:44:17,E 30 St & Park Ave S,6206.08,6 Ave & W 34 St,6364.10,40.74444921,-73.98303529,40.74964,-73.98805,member
D64D9FBC6B9BB8AD,classic_bike,2023-06-02 21:42:40,2023-06-02 22:30:47,MacDougal St & Washington Sq,5797.01,MacDougal St & Washington Sq,5797.01,40.73226398,-73.99852205,40.73226398,-73.99852205,member
2A864EFF287A4937,classic_bike,2023-06-19 20:18:50,2023-06-19 20:38:07,Bushwick Ave & Dekalb Ave,4680.05,S 4 St & Roebling St,5195.06,40.695024729,-73.928281426,40.710709,-73.959724,member
96E534C0AFA9EC83,classic_bike,2023-06-16 19:50:09,2023-06-16 19:56:56,Grand St & Elizabeth St,5382.06,Great Jones St,5636.11,40.718822,-73.99596,40.72743423,-73.99379025,member
BE6F832BCE3005CD,classic_bike,2023-06-07 20:38:06,2023-06-07 20:53:51,Grand St & Samuel Dickstein Plaza,5335.07,Grand St & Samuel Dickstein Plaza,5335.07,40.715002894,-73.983675718,40.71511871996496,-73.98417055606842,casual
A7B896EC869CDB67,classic_bike,2023-06-25 18:53:16,2023-06-25 19:33:05,1 Ave & E 39 St,6303.01,5 Ave & E 87 St,7323.09,40.74714,-73.97113,40.78232260730881,-73.95987510681152,member
F2ED8DC97263DADB,classic_bike,2023-06-29 20:47:03,2023-06-29 20:58:43,West Farms Rd & Boone Ave,8076.08,E 188 St & Creston Ave,8566.05,40.830325007,-73.886171699,40.861669,-73.898589,member
73AE32DA7AF152B3,classic_bike,2023-06-21 07:56:16,2023-06-21 08:00:40,Macon St & Nostrand Ave,4214.03,Marcy Ave & Lafayette Ave,4476.03,40.681003451,-73.949908733,40.6900815,-73.947915,member
F7E317EF46C8A48A,classic_bike,2023-06-08 20:23:32,2023-06-08 20:44:59,Broadway & Kent Ave,5134.09,Wythe Ave & Metropolitan Ave,5348.02,40.710888,-73.968329,40.716887,-73.963198,member
8CB423527C7EEB43,classic_bike,2023-06-01 16:36:43,2023-06-01 16:50:51,Broadway & E 21 St,6098.1,Church St & Worth St,5359.13,40.73988840858996,-73.98958593606949,40.71688538495366,-74.00650128722191,casual
6F1A0BAAA6DAFCCA,classic_bike,2023-06-05 09:47:17,2023-06-05 09:50:49,33 St & Queens Blvd,6185.07,31 Pl & Hunters Point Ave,6033.01,40.7443653191867,-73.93172398209572,40.74021356884924,-73.93537044525146,member
ED53AED1C61C9CBA,classic_bike,2023-06-30 11:13:36,2023-06-30 11:13:48,E 153 St & E 157 St,8025.01,E 153 St & E 157 St,8025.01,40.826583385,-73.929276705,40.826677,-73.929327,member
AC318E797562909D,classic_bike,2023-06-29 17:42:32,2023-06-29 17:43:47,E 58 St & 1 Ave (NE Corner),6682.03,1 Ave & E 62 St,6753.08,40.75892386377695,-73.96226227283478,40.7612274,-73.96094022,member
69E9856097F48E5D,classic_bike,2023-06-30 18:48:32,2023-06-30 18:49:08,8 Ave & W 33 St,6450.12,W 35 St & 8 Ave,6526.01,40.751551,-73.993934,40.752762088742045,-73.99280458705107,member
70EED43DCC8BF041,classic_bike,2023-06-20 13:52:44,2023-06-20 14:36:28,Central Park West & W 68 St,7079.06,W 70 St & Amsterdam Ave,7207.08,40.7734066,-73.97782542,40.77748046,-73.98288594,casual
61025EAD7AE7C53E,classic_bike,2023-06-05 15:34:10,2023-06-05 15:34:46,W 56 St & 8 Ave,6884.03,W 56 St & 8 Ave,6884.03,40.765853405,-73.982760787,40.765959181657976,-73.98313522338867,member
55B3948B5D510E44,classic_bike,2023-06-15 17:14:17,2023-06-15 17:17:27,11 Ave & W 27 St,6425.04,W 20 St & 10 Ave,6306.01,40.751396,-74.005226,40.745686,-74.005141,member
FABEF557825C47DB,classic_bike,2023-06-22 08:20:30,2023-06-22 08:57:26,Throop Ave & Myrtle Ave,4697.01,W 27 St & 7 Ave,6247.06,40.69622937,-73.94371094,40.746647,-73.993915,member
209E74393679A8C1,classic_bike,2023-06-25 16:12:48,2023-06-25 16:33:41,W 34 St & 11 Ave,6578.01,Greenwich St & Perry St,5922.04,40.75594159,-74.0021163,40.73498,-74.00697,casual
D3AA1FF1226A01D5,classic_bike,2023-06-10 11:07:13,2023-06-10 11:12:29,E 72 St & Park Ave,6998.08,E 91 St & 2 Ave,7286.01,40.771221161,-73.964052081,40.78115276427916,-73.94963040947914,member
A156E8CD7F0AAE06,classic_bike,2023-06-28 11:15:00,2023-06-28 11:23:39,Allen St & Rivington St,5414.06,Greenwich St & W Houston St,5730.08,40.72019576,-73.98997825,40.728846,-74.008591,casual
63EAFFA95CEF2C88,classic_bike,2023-06-05 10:45:35,2023-06-05 11:06:50,Eastern Pkwy & Brooklyn Ave,3871.02,Rutland Rd & E 45 St,3567.05,40.66939,-73.94514,40.66034,-73.93618,casual
B0C5C9018803988A,classic_bike,2023-06-17 13:02:37,2023-06-17 13:06:36,W 10 St & Washington St,5847.06,Hudson St & W 13 St,6115.06,40.73342399437081,-74.00851495563984,40.74005708567285,-74.0052741765976,casual
54C9FD3AD6F87EF9,classic_bike,2023-06-17 12:10:41,2023-06-17 13:31:42,Morton St & Washington St,5772.05,Riverside Dr & W 78 St,7340.06,40.73115,-74.00887,40.78414472,-73.98362492,casual
F3B7F5E9D069756B,classic_bike,2023-06-17 15:20:14,2023-06-17 15:32:03,E 77 St & 1 Ave,7020.02,E 39 St & Lexington Ave,6389.09,40.770832181,-73.953108668,40.7494985460252,-73.97729203113158,member
9BA6ABBCEB331963,classic_bike,2023-06-11 11:49:00,2023-06-11 12:05:22,Lenox Ave & W 126 St,7720.03,E 85 St & 3 Ave,7212.05,40.808167815,-73.945339322,40.77801203,-73.95407149,member
12815B01B2B0556B,classic_bike,2023-06-27 16:15:32,2023-06-27 16:30:48,E 102 St & 1 Ave,7407.13,2 Ave & E 96 St,7338.02,40.7869946,-73.94164802,40.7839636,-73.9471673,member
D245E51E16828939,classic_bike,2023-06-21 20:18:12,2023-06-21 20:28:23,W 40 St & 7 Ave,6560.14,12 Ave & W 40 St,6765.01,40.754818,-73.988154,40.76087502,-74.00277668,member
33582CCDA4B5125C,classic_bike,2023-06-01 08:15:42,2023-06-01 08:18:28,Barclay St & Church St,5216.04,Park Pl & Church St,5288.08,40.71291224,-74.01020234,40.71334184275907,-74.00935515761375,member
9518477A0884F1D5,classic_bike,2023-06-11 13:13:42,2023-06-11 13:29:19,W 50 St & 9 Ave,6854.05,11 Ave & W 27 St,6425.04,40.763597131,-73.989195347,40.751396,-74.005226,member
EE2DCA3C92E19762,classic_bike,2023-06-16 02:07:42,2023-06-16 03:26:51,DeKalb Ave & Franklin Ave,4528.01,DeKalb Ave & Franklin Ave,4528.01,40.690694094,-73.957633495,40.69064807082943,-73.95746178925037,casual
598C72270752125C,classic_bike,2023-06-07 12:09:51,2023-06-07 12:11:27,University Ave & W Burnside Ave,8462.09,Morris Ave & E Burnside Ave,8441.01,40.855320215,-73.910409927,40.85322,-73.90546,member
72DFBB1EDDDAD2EC,classic_bike,2023-06-23 09:20:57,2023-06-23 09:27:36,Washington St & Barrow St,5847.08,Perry St & Greenwich Ave,5955.12,40.73191132323174,-74.008769094944,40.735918,-74.000939,member
17A798ED12AF5ACD,classic_bike,2023-06-01 19:54:04,2023-06-01 20:17:35,8 Ave & W 27 St,6297.07,W 25 St & 6 Ave,6215.04,40.747968,-73.996637,40.74395411,-73.99144871,member
A4446A7C3420D03F,classic_bike,2023-06-04 17:46:39,2023-06-04 18:04:33,Pierrepont St & Monroe Pl,4718.08,3 Ave & Schermerhorn St,4437.01,40.69535693320225,-73.99344027042389,40.68683208,-73.9796772,casual
DD39A93F47708AB5,classic_bike,2023-06-21 14:56:36,2023-06-21 15:01:00,E 7 St & Avenue A,5626.07,Broadway & E 14 St,5905.12,40.726182818,-73.983717084,40.73454567,-73.99074142,member
31867BD7AC25D220,classic_bike,2023-06-27 14:40:23,2023-06-27 14:48:43,E 77 St & 1 Ave,7020.02,Madison Ave & E 99 St,7443.01,40.77098453,-73.953257203,40.78948541553215,-73.95242929458618,member
EEED50BE4987EE07,classic_bike,2023-06-01 19:26:58,2023-06-01 19:43:42,E 11 St & Avenue B,5659.11,7 Ave S & Bleecker St,5805.07,40.72746420692392,-73.97950418293476,40.73213896287381,-74.00363802909851,member
1618E3B4D3A5EB2B,classic_bike,2023-06-01 20:18:11,2023-06-01 20:33:50,Amsterdam Ave & W 79 St,7311.02,E 84 St & Park Ave,7243.04,40.7829391,-73.9786517,40.77862688,-73.95772073,casual
DC09FE0DF1291E6B,classic_bike,2023-06-03 18:41:42,2023-06-03 18:57:20,Ditmars Blvd & 19 St,7291.06,Steinway St & Ditmars Blvd,7074.01,40.781332135,-73.918163419,40.772717,-73.906127,member
2BC7958E295E8A47,electric_bike,2023-06-05 17:05:38,2023-06-05 17:08:51,E 85 St & 3 Ave,7212.05,E 91 St & 2 Ave,7286.01,40.77801203,-73.95407149,40.78115276427916,-73.94963040947914,member
05613C02A73773C9,classic_bike,2023-06-10 13:47:44,2023-06-10 14:03:54,Stanton St & Norfolk St,5445.07,W 18 St & 6 Ave,6064.08,40.721051216,-73.986406684,40.73971301,-73.99456405,casual
0A99546828BDAF64,classic_bike,2023-06-21 14:27:45,2023-06-21 14:46:21,E 39 St & Lexington Ave,6389.09,E 77 St & 1 Ave,7020.02,40.7494985460252,-73.97729203113158,40.77095553869235,-73.95356208096926,member
CAD43CBE136080CB,classic_bike,2023-06-21 19:47:45,2023-06-21 19:55:21,46 St & Queens Blvd,6209.08,33 St & Queens Blvd,6185.07,40.74349759836971,-73.91860529780388,40.7443653191867,-73.93172398209572,member
9B337651CE3CF87D,classic_bike,2023-06-12 18:32:51,2023-06-12 18:53:37,West Thames St,5114.06,Hudson St & W 13 St,6115.06,40.70834698,-74.01713445,40.74005708567285,-74.0052741765976,member
F8029F3B1BB6DE6B,classic_bike,2023-06-08 14:51:56,2023-06-08 15:05:57,Broadway & Whipple St,4883.03,Wythe Ave & Metropolitan Ave,5348.02,40.7016083,-73.943763852,40.716887,-73.963198,member
EAB5B21909A6C83A,classic_bike,2023-06-08 08:55:44,2023-06-08 09:03:24,Bradhurst Ave & W 148 St,7992.04,Broadway & Moylan Pl,7823.03,40.825054049,-73.941676974,40.8143256,-73.9590255,member
9FC35F8248F7C312,classic_bike,2023-06-30 08:05:05,2023-06-30 08:17:09,W 4 St & 7 Ave S,5880.02,Park Pl & Church St,5288.08,40.73401143,-74.00293877,40.71334184275907,-74.00935515761375,member
3FE06A58F0560B59,classic_bike,2023-06-03 14:48:24,2023-06-03 14:52:20,Broadway & Kent Ave,5134.09,Broadway & Roebling St,5125.07,40.710888,-73.968329,40.70924826276157,-73.96063148975372,casual
BB3BCA4A9CE61FA5,classic_bike,2023-06-23 13:42:05,2023-06-23 13:49:59,Stanton St & Chrystie St,5523.02,S 4 St & Roebling St,5195.06,40.722239614,-73.99125576,40.710709,-73.959724,member
08CDB023A5F64C50,classic_bike,2023-06-17 19:53:00,2023-06-17 20:03:48,Bushwick Ave & Forrest St,4914.03,S 5 Pl & S 5 St,5125.03,40.70076,-73.93641,40.710451,-73.960876,member
BD954057FD54AA45,classic_bike,2023-06-08 18:11:22,2023-06-08 18:35:35,14 St & 5 Ave,3771.06,Berkeley Pl & 6 Ave,4134.06,40.666365385,-73.989036798,40.6765304,-73.97846879,casual
E54B669A419A9E11,classic_bike,2023-06-01 07:40:38,2023-06-01 07:47:51,7 Ave & Central Park South,6912.01,5 Ave & E 87 St,7323.09,40.766662478,-73.979066849,40.78232260730881,-73.95987510681152,member
5B4B750F788D910F,classic_bike,2023-06-28 07:11:48,2023-06-28 07:14:45,28 Ave & 35 St,6951.03,31 St & Newtown Ave,6923.20,40.7671,-73.9169858,40.7675487799971,-73.9209334552288,member
4B244F580DE9E21A,electric_bike,2023-06-07 22:44:15,2023-06-07 22:52:16,W 55 St & 6 Ave,6809.09,Columbus Ave & W 72 St,7175.05,40.763189,-73.978434,40.7770575,-73.97898475,member
568FC36F6B133E17,classic_bike,2023-06-24 22:04:28,2023-06-24 22:20:47,N 11 St & Kent Ave,5489.04,Lispenard St & Broadway,5391.06,40.722470522,-73.959085584,40.71939226,-74.00247214,member
173D1C3A889A5AD9,classic_bike,2023-06-20 18:23:22,2023-06-20 18:50:57,6 Ave & W 34 St,6364.1,Church St & Worth St,5359.13,40.74964,-73.98805,40.71688538495366,-74.00650128722191,casual
21051083EB26C04A,classic_bike,2023-06-11 15:30:40,2023-06-11 17:00:24,Central Park S & 6 Ave,6876.04,5 Ave & E 87 St,7323.09,40.76590936,-73.97634151,40.78232260730881,-73.95987510681152,casual
98D4C6E31D5E14E2,classic_bike,2023-06-24 19:01:46,2023-06-24 19:16:02,9 Ave & W 22 St,6266.06,12 Ave & W 40 St,6765.01,40.7454973,-74.00197139,40.76087502,-74.00277668,casual
1F357E0F444FEB05,classic_bike,2023-06-23 20:40:56,2023-06-23 21:23:21,Howard St & Lafayette St,5422.04,Little West St & 1 Pl,5001.08,40.71910537,-73.99973337,40.70569254,-74.01677685,member
218EA748525BC33E,classic_bike,2023-06-06 12:44:41,2023-06-06 12:51:01,Central Ave & Starr Street,4792.03,Flushing Ave & Woodward Ave,5225.02,40.700084448,-73.928560019,40.71246,-73.91873,member
6129FD6D4B1BA3EE,classic_bike,2023-06-15 21:06:48,2023-06-15 21:13:54,W 84 St & Columbus Ave,7382.04,Columbus Ave & W 72 St,7175.05,40.785008192,-73.972874999,40.7770575,-73.97898475,member
2979D7942A6BD4F8,classic_bike,2023-06-17 17:19:28,2023-06-17 17:23:20,South St & Pike St,5159.07,South St & Pike St,5159.07,40.70991806921533,-73.99161100387573,40.70991806921533,-73.99161100387573,member
D65A56169C5B434F,classic_bike,2023-06-13 17:28:56,2023-06-13 17:50:58,Central Park W & W 97 St,7538.18,E 47 St & 1 Ave,6498.09,40.792705178,-73.964137435,40.75206862,-73.96784384,member
86809589A460783C,electric_bike,2023-06-14 08:58:52,2023-06-14 09:08:06,8 Ave & W 16 St,6072.11,Broadway & W 38 St,6560.15,40.740983,-74.001702,40.7529728216068,-73.98734897375107,member
FAF7B3C553F55F56,classic_bike,2023-06-21 17:09:02,2023-06-21 17:33:19,Broad St & Bridge St,4962.08,MacDougal St & Washington Sq,5797.01,40.70365182,-74.01167797,40.73226398,-73.99852205,member
889D85ECFE2ACF4B,electric_bike,2023-06-05 17:11:51,2023-06-05 17:38:48,Central Park West & W 72 St,7141.07,Central Park West & W 72 St,7141.07,40.77579376683666,-73.9762057363987,40.77579376683666,-73.9762057363987,member
D92FEC3074AC94A5,classic_bike,2023-06-03 19:59:11,2023-06-03 20:04:10,Forsyth St & Grand St,5382.07,Madison St & Montgomery St,5262.09,40.717583656,-73.993323088,40.713126,-73.984844,member
618A971ED594E8EA,classic_bike,2023-06-02 15:13:49,2023-06-02 15:46:43,6 Ave & Walker St,5430.1,Riverside Dr & W 72 St,7288.04,40.7197920901383,-74.0052238852195,40.78057799010334,-73.98562431335449,member
D7696AFD72B65A2D,classic_bike,2023-06-02 17:34:03,2023-06-02 17:35:45,Amsterdam Ave & W 66 St,7149.05,W 64 St & Thelonious Monk Circle,7123.04,40.7746671,-73.98470567,40.77515953434235,-73.98918695747852,member
479572E5A818A625,classic_bike,2023-06-13 22:45:29,2023-06-13 22:59:00,Columbia St & Kane St,4422.05,Columbia St & Kane St,4422.05,40.68763155,-74.0016256,40.68763155,-74.0016256,member
89647EA79FCD0646,classic_bike,2023-06-15 08:50:50,2023-06-15 08:53:08,Fulton St & William St,5137.11,Water St &  Fletcher St,5024.10,40.70960089363537,-74.00655090808868,40.706410755236135,-74.00559738278389,member
0C95C692D6BFA99C,classic_bike,2023-06-18 11:58:24,2023-06-18 12:01:20,E 53 St & Madison Ave,6659.03,E 54 St & 1 Ave,6608.09,40.75985682,-73.974303365,40.756265,-73.964179,member
7CBFF1474050E7A8,electric_bike,2023-06-07 18:36:14,2023-06-07 18:38:05,E 2 St & Avenue C,5476.03,E 2 St & Avenue B,5515.02,40.7208736,-73.98085795,40.72217444,-73.98368779,member
A3460239ABFFC298,classic_bike,2023-06-04 11:20:57,2023-06-04 11:25:29,Grand St & Havemeyer St,5267.08,Leonard St & Maujer St,5148.03,40.712958336,-73.957268953,40.7103685423523,-73.94705951213837,member
6F2B7F39CD23179E,classic_bike,2023-06-05 18:04:23,2023-06-05 18:12:58,W 27 St & 7 Ave,6247.06,Sullivan St & Washington Sq,5721.01,40.746647,-73.993915,40.73047747,-73.99906065,member
20FB25730E669EE5,classic_bike,2023-06-07 10:01:08,2023-06-07 10:11:34,E 102 St & Park Ave,7488.24,Central Park West & W 72 St,7141.07,40.790444613,-73.950221896,40.77579376683666,-73.9762057363987,member
A1C30A4817F0907C,classic_bike,2023-06-30 21:08:53,2023-06-30 21:15:49,Willis Ave & E 143 St,7798.02,Lincoln Ave & E 138 St,7744.06,40.812343478,-73.920287371,40.810893,-73.927311,member
51799F25A920BDEC,classic_bike,2023-06-28 22:08:26,2023-06-28 22:13:59,Graham Ave & Withers St,5403.04,Kingsland Ave & Nassau Ave,5613.04,40.716919661,-73.944686532,40.72577,-73.94173,member
5FFE50ABB3FCBDE0,classic_bike,2023-06-28 10:34:08,2023-06-28 10:35:52,Lenox Ave & W 115 St,7627.1,Adam Clayton Powell Blvd & W 118 St,7670.09,40.801120162,-73.950107098,40.804372,-73.951475,member
71CD13BE7B77FAC8,classic_bike,2023-06-07 21:05:26,2023-06-07 21:13:05,Perry St & Greenwich Ave,5955.12,Perry St & Greenwich Ave,5955.12,40.735862613,-74.001183391,40.735918,-74.000939,member
0114E48D9A0E9A82,classic_bike,2023-06-27 08:46:04,2023-06-27 08:58:49,Adam Clayton Powell Blvd & W 115 St,7643.18,Madison Ave & E 99 St,7443.01,40.802535,-73.9532423,40.78948541553215,-73.95242929458618,member
64B285B519BD784D,classic_bike,2023-06-19 19:00:22,2023-06-19 19:20:50,Broadway & W 48 St,6708.04,7 Ave S & Bleecker St,5805.07,40.76017739537783,-73.98486793041229,40.73213896287381,-74.00363802909851,member
46C9EC2327BE92D8,classic_bike,2023-06-01 17:46:22,2023-06-01 18:08:28,Vesey St & Church St,5216.06,W 25 St & 6 Ave,6215.04,40.71221958009051,-74.01047229766846,40.74395411,-73.99144871,casual
CA6084C2603E895C,classic_bike,2023-06-12 16:55:29,2023-06-12 16:59:00,E 58 St & 3 Ave,6762.02,1 Ave & E 62 St,6753.08,40.76095756,-73.96724467,40.7612274,-73.96094022,member
A7C3BABA51C8EC14,classic_bike,2023-06-21 17:04:15,2023-06-21 17:13:47,Myrtle Ave & Fleet Pl,4628.07,Nassau St & Duffield St,4781.05,40.693534,-73.981909,40.698477,-73.98384,member
649A0CFA2C996808,classic_bike,2023-06-25 09:20:21,2023-06-25 09:28:35,Madison Ave & E 82 St,7188.13,E 106 St & Lexington Ave,7504.18,40.778130889,-73.960847974,40.791976,-73.945993,member
565F2CD66ADC07EC,classic_bike,2023-06-18 16:53:40,2023-06-18 17:29:00,Cauldwell Ave & E 161 St,7952.02,Cauldwell Ave & E 161 St,7952.02,40.821855545,-73.907515645,40.82188,-73.907521,member
67D0FBA0E6E48CA4,classic_bike,2023-06-23 09:21:15,2023-06-23 09:29:44,Park Ave & St Edwards St,4700.06,Lafayette Ave & St James Pl,4494.04,40.69608941,-73.97803415,40.68851534,-73.9647628,member
41A19AA0F8BEF81E,classic_bike,2023-06-15 17:05:05,2023-06-15 17:17:49,Lafayette St & E 8 St,5788.13,W 24 St & 7 Ave,6257.03,40.73020660529954,-73.99102628231049,40.74487634,-73.99529885,member
919396D9DF86FEE7,classic_bike,2023-06-14 17:54:42,2023-06-14 18:02:22,Chauncey St & Malcolm X Blvd,4228.06,Park Pl & Buffalo Ave,3999.06,40.68044,-73.92842,40.67202,-73.92539,member
02E29B902CF9C5D6,classic_bike,2023-06-11 13:19:27,2023-06-11 13:26:23,Riverside Blvd & W 67 St,7183.03,Amsterdam Ave & W 79 St,7311.02,40.777507027547976,-73.98888587951659,40.7829391,-73.9786517,member
5C4A041BEE359F82,classic_bike,2023-06-08 18:30:07,2023-06-08 18:52:43,Riverside Blvd & W 67 St,7183.03,E 84 St & Park Ave,7243.04,40.777507027547976,-73.98888587951659,40.77862688,-73.95772073,member
47FC7677BC463ECC,classic_bike,2023-06-14 00:03:13,2023-06-14 00:06:36,E 19 St & 3 Ave,5938.01,E 25 St & 2 Ave,6046.02,40.73624527,-73.98473765,40.73912601,-73.97973776,member
C0FC6862BBFB7930,classic_bike,2023-06-13 22:10:12,2023-06-13 22:19:22,Bergen St & 4 Ave,4322.06,12 St & 4 Ave,3882.01,40.68256425759694,-73.9798977971077,40.668603,-73.9904394,member
E51B0C61EC276D9B,classic_bike,2023-06-11 14:27:22,2023-06-11 14:29:28,39 Ave & 56 St,6349.03,61 St & 39 Ave,6307.07,40.74838,-73.90699,40.7471,-73.9028,member
8A6FF226B92A8446,classic_bike,2023-06-25 13:50:43,2023-06-25 14:13:11,Central Park West & W 85 St,7354.01,E 88 St & 1 Ave,7235.13,40.78476,-73.969862,40.778301,-73.9488134,casual
3EF25142197C44EE,classic_bike,2023-06-14 08:12:59,2023-06-14 08:36:48,Lexington Ave & E 24 St,6089.07,W 100 St & Manhattan Ave,7538.14,40.740669727,-73.984400988,40.795,-73.9645,casual
9311A31687413F09,classic_bike,2023-06-08 16:15:59,2023-06-08 16:36:18,E 171 St & Webster Ave,8190.03,Southern Blvd & E 175 St,8196.02,40.838384867,-73.905769825,40.839335,-73.886445,member
8A2338E2AD3CB935,classic_bike,2023-06-03 16:49:20,2023-06-03 16:50:35,Jackson Ave & 46 Rd,6203.02,Jackson Ave & 46 Rd,6203.02,40.74524768,-73.94733276,40.74524768,-73.94733276,member
02084F5ABB311164,classic_bike,2023-06-22 06:46:08,2023-06-22 06:49:28,E 25 St & 1 Ave,6004.07,1 Ave & E 18 St,5854.09,40.7381765,-73.97738662,40.73381219196632,-73.98054420948029,member
F0F6A8F8EF38E968,classic_bike,2023-06-15 08:54:10,2023-06-15 09:07:45,E 11 St & 1 Ave,5746.14,E 47 St & 2 Ave,6498.10,40.72953837,-73.98426726,40.75323098,-73.97032517,member
6CF367C67514A479,classic_bike,2023-06-27 21:09:42,2023-06-27 21:33:14,Greenwich St & W Houston St,5730.08,West End Ave & W 94 St,7524.09,40.728461623,-74.008781195,40.7941654,-73.974124,member
6CF9BCA40CA23D31,classic_bike,2023-06-03 22:36:43,2023-06-03 22:38:58,E 6 St & 2 Ave,5669.12,E 4 St & 2 Ave,5593.04,40.72737869323223,-73.98840844631195,40.7262807,-73.98978041,member
977E410026256ECA,classic_bike,2023-06-30 12:13:29,2023-06-30 12:17:28,Ave A & E 14 St,5779.11,E 5 St & Ave A,5626.06,40.73031071000895,-73.98047178983688,40.72479007746337,-73.98430064320564,member
DBA528D12B0FF38B,electric_bike,2023-06-04 14:52:08,2023-06-04 15:05:02,Central Park West & W 68 St,7079.06,E 39 St & Lexington Ave,6389.09,40.7734066,-73.97782542,40.7494985460252,-73.97729203113158,member
7E239FE68F5EC2AF,classic_bike,2023-06-06 17:50:09,2023-06-06 18:11:44,Murray St & Greenwich St,5288.12,12 Ave & W 40 St,6765.01,40.71485150526252,-74.01122331619263,40.76087502,-74.00277668,member
0E52C37816233674,classic_bike,2023-06-13 19:36:38,2023-06-13 20:01:27,Forsyth St & Canal St,5270.07,Schermerhorn St & Hoyt St,4479.10,40.7158155,-73.99422366,40.6886263,-73.9851911,member
49A2FAE06E2D5217,classic_bike,2023-06-12 11:35:25,2023-06-12 11:41:14,W 42 St & 6 Ave,6517.08,E 40 St & Park Ave,6432.11,40.75492,-73.98455,40.750756,-73.978326,member
6D15D4BCF53BC7AB,classic_bike,2023-06-01 17:51:01,2023-06-01 18:04:56,W 100 St & Manhattan Ave,7538.14,W 54 St & 9 Ave,6920.03,40.794954658,-73.964460015,40.76584941,-73.98690506,member
CDBC557982DAD4E0,electric_bike,2023-06-02 09:17:21,2023-06-02 09:30:00,6 St & 7 Ave,3834.1,Clinton St & Tillary St,4748.07,40.6686627,-73.97988067,40.69623297129316,-73.99142056703568,member
EDFD55ABA59B6376,classic_bike,2023-06-06 23:10:59,2023-06-06 23:30:02,E 11 St & 1 Ave,5746.14,Broadway & W 41 St,6560.01,40.72953837,-73.98426726,40.75513557,-73.98658032,member
8DF6D8127D39601D,classic_bike,2023-06-10 13:01:51,2023-06-10 13:18:42,E 26 St & 3 Ave,6089.11,E 55 St & 2 Ave,6650.07,40.74069317733043,-73.98160636425018,40.75797322,-73.96603308,casual
DDEB8A6CB0C3974B,classic_bike,2023-06-28 18:29:10,2023-06-28 18:44:51,31 Ave & Steinway St,6782.01,47 Ave & 31 St,6151.03,40.7611488,-73.9170071,40.743,-73.93561,casual
386B9C4D1F1B2A58,classic_bike,2023-06-25 23:14:07,2023-06-25 23:36:10,West Drive & Prospect Park West,3651.04,Lewis Ave & Madison St,4425.02,40.6610633719006,-73.97945255041122,40.686312,-73.935775,member
26E2F37390E2096C,electric_bike,2023-06-17 17:27:08,2023-06-17 17:53:38,5 Ave & E 87 St,7323.09,5 Ave & E 87 St,7323.09,40.78232260730881,-73.95987510681152,40.78232260730881,-73.95987510681152,member
AADCC2A579DB1066,classic_bike,2023-06-24 19:08:42,2023-06-24 19:10:18,6 Ave & W 34 St,6364.1,6 Ave & W 34 St,6364.10,40.74964,-73.98805,40.74964,-73.98805,casual
A9856FC4E52F295B,classic_bike,2023-06-11 19:53:29,2023-06-11 20:04:16,Richards St & Delavan St,4202.04,Clinton St & 4 Place,4119.04,40.6794327,-74.00785041,40.6783563,-74.00014502,member
16EE669326362873,classic_bike,2023-06-16 09:38:44,2023-06-16 09:40:58,Watts St & Greenwich St,5578.02,Pier 40 - Hudson River Park,5696.03,40.72405549,-74.00965965,40.7277140777778,-74.01129573583603,member
17C12E6BCA248821,classic_bike,2023-06-05 14:05:22,2023-06-05 14:20:07,Willoughby Ave & Wyckoff Ave,5010.02,Clinton Ave & Flushing Ave,4762.04,40.705614,-73.92153,40.69794,-73.96986848,member
5EEA7ECB5E9B55F5,classic_bike,2023-06-05 02:33:28,2023-06-05 02:40:15,E 163 St & Union Ave,7970.05,West Farms Rd & Boone Ave,8076.08,40.822491646,-73.901722789,40.8301283948092,-73.88630211353302,casual
51025D1BDCC8D57C,classic_bike,2023-06-20 16:48:48,2023-06-20 16:56:06,Hanson Pl & Ashland Pl,4395.07,4 Ave & 3 St,4028.04,40.68506807308177,-73.97790759801863,40.673746,-73.985649,member
0A93C642FDA0A289,classic_bike,2023-06-29 12:52:42,2023-06-29 12:56:27,3 St & 7 Ave,3905.15,Grand Army Plaza & Plaza St West,4010.15,40.670409083,-73.978311539,40.6729679,-73.97087984,member
F6310D596DB0BFB1,classic_bike,2023-06-18 15:48:22,2023-06-18 15:57:41,Broadway & E 14 St,5905.12,E 2 St & Avenue B,5515.02,40.73454567,-73.99074142,40.72217444,-73.98368779,member
4BD619D8F1128C6D,classic_bike,2023-06-21 18:36:22,2023-06-21 18:44:20,Driggs Ave & N Henry St,5542.04,N 6 St & Bedford Ave,5379.10,40.72325,-73.94308,40.71745169,-73.95850939,casual
09EAC129FDAA74BD,classic_bike,2023-06-04 12:49:33,2023-06-04 13:42:06,Christopher St & Greenwich St,5847.01,W 87 St & West End Ave,7484.05,40.73291553,-74.00711384,40.789622,-73.97757,casual
5466388A9E723924,classic_bike,2023-06-11 19:20:29,2023-06-11 19:26:28,W 36 St & 9 Ave,6569.07,W 54 St & 9 Ave,6920.03,40.754534841,-73.995286107,40.76584941,-73.98690506,member
9C2C99E35D6739DC,classic_bike,2023-06-18 15:53:55,2023-06-18 16:03:07,Putnam Ave & Throop Ave,4392.04,S Portland Ave & Hanson Pl,4354.05,40.685141087,-73.941219449,40.68539567,-73.97431458,member
223CF5D07085149F,classic_bike,2023-06-27 06:49:25,2023-06-27 07:01:34,8 Ave & W 33 St,6450.12,1 Ave & E 62 St,6753.08,40.75159204,-73.993710637,40.7612274,-73.96094022,member
30CE45A7D58B14F2,classic_bike,2023-06-21 10:29:09,2023-06-21 11:08:12,Brooklyn Bridge Park - Pier 2,4756.04,Pioneer St & Van Brunt St,4169.04,40.698458,-73.997178,40.679043,-74.011169,casual
9BD45E00E64275EF,classic_bike,2023-06-24 13:54:10,2023-06-24 13:59:10,Henry St & Atlantic Ave,4531.05,Fulton St & Adams St,4637.06,40.69089272,-73.99612349,40.69241829257847,-73.98949474096298,member
4ABFFE4107482BA8,classic_bike,2023-06-28 08:17:46,2023-06-28 08:27:00,W 25 St & 6 Ave,6215.04,1 Ave & E 30 St,6079.03,40.74395411,-73.99144871,40.74144387,-73.97536082,member
A60D2BDF7E06E546,classic_bike,2023-06-16 08:29:20,2023-06-16 08:35:51,Fulton St & William St,5137.11,Lafayette St & Grand St,5422.09,40.709555149,-74.007130265,40.72028,-73.99879,member
08EDF18AC182C269,classic_bike,2023-06-08 16:53:38,2023-06-08 16:59:30,Graham Ave & Conselyea St,5291.05,Kingsland Ave & Nassau Ave,5613.04,40.715066791,-73.944590926,40.72577,-73.94173,member
693ACCBD8C23D1CE,classic_bike,2023-06-02 07:19:51,2023-06-02 07:36:55,E 72 St & York Ave,6889.12,6 Ave & W 33 St,6364.07,40.766446233,-73.953527331,40.74901271,-73.98848395,member
714C5153C8A12D3D,classic_bike,2023-06-05 19:53:43,2023-06-05 20:05:32,Pinehurst Ave & W 187 St,8458.03,Riverside Dr & W 153 St,8108.02,40.855331,-73.937878,40.832164,-73.949702,member
2446C5D65321CC14,classic_bike,2023-06-04 12:14:02,2023-06-04 12:59:48,Central Park West & W 68 St,7079.06,5 Ave & E 87 St,7323.09,40.7734066,-73.97782542,40.78232260730881,-73.95987510681152,casual
FFB77E1D8D4EC1C1,electric_bike,2023-06-09 17:14:39,2023-06-09 17:21:51,DeKalb Ave & S Portland Ave,4546.04,Sterling Pl & 5 Ave,4208.01,40.68981035,-73.97493121,40.678970070475735,-73.97855266928671,member
4A4FC341DEBA6AF3,electric_bike,2023-06-29 06:39:27,2023-06-29 06:53:02,Southern Blvd & E 175 St,8196.02,Grand Concourse & E 161 St,8021.11,40.839335,-73.886445,40.82713380423556,-73.9227358996868,member
15089D551BA3AF49,classic_bike,2023-06-20 06:45:07,2023-06-20 06:54:02,Amsterdam Ave & W 73 St,7260.09,Broadway & W 56 St,6847.02,40.77966809007312,-73.98093044757842,40.7652654,-73.98192338,member
54442053B0DC2756,classic_bike,2023-06-22 19:33:01,2023-06-22 19:34:07,9 Ave & W 22 St,6266.06,W 22 St & 8 Ave,6224.03,40.7454973,-74.00197139,40.74475148,-73.99915362,member
964646EEDD46FB32,classic_bike,2023-06-15 08:26:43,2023-06-15 08:32:10,Metropolitan Ave & Meeker Ave,5300.05,Graham Ave & Withers St,5403.04,40.71413311,-73.95234386,40.7169811,-73.94485918,member
627EC034CA112E04,classic_bike,2023-06-05 03:30:06,2023-06-05 03:30:18,E 20 St & Park Ave,6055.08,E 20 St & Park Ave,6055.08,40.73827428,-73.98751968,40.73827428,-73.98751968,member
6234BBAC42A25F44,classic_bike,2023-06-04 18:46:31,2023-06-04 18:56:24,Marcy Ave & Lafayette Ave,4476.03,Division Ave & Hooper St,5045.05,40.690142274,-73.947880507,40.70684203101325,-73.9544353965357,casual
EF59E5BB8F4A0A94,classic_bike,2023-06-26 20:09:52,2023-06-26 20:30:08,Old Fulton St,4903.08,Sterling Pl & Bedford Ave,3993.03,40.702750564,-73.993727922,40.672695,-73.954131,member
EE1E1CE4BDA91D4B,classic_bike,2023-06-02 21:52:42,2023-06-02 22:12:34,Stuyvesant Ave & Hart St,4689.08,Franklin Ave & St Marks Ave,4107.05,40.694439292,-73.934273481,40.6758324,-73.9561677,member
88AFC64859451562,classic_bike,2023-06-04 11:01:23,2023-06-04 11:03:02,W 37 St & 10 Ave,6611.02,Hudson Blvd W & W 36 St,6611.07,40.75660359,-73.9979009,40.75676475086503,-73.99971440439913,member
93492577E1931A5C,classic_bike,2023-06-05 15:13:58,2023-06-05 15:38:57,E 74 St & 1 Ave,6953.08,Riverside Dr & W 91 St,7524.16,40.7689738,-73.95482273,40.79313480986663,-73.97700369358063,member
1C2381395912DEFE,classic_bike,2023-06-11 18:30:06,2023-06-11 18:35:45,Clark St & Henry St,4789.03,Henry St & Remsen St,4645.04,40.69760127,-73.99344559,40.69400964865994,-73.99465128779411,member
1FF691C23DAE4943,classic_bike,2023-06-23 23:06:56,2023-06-23 23:28:58,Grand St & Havemeyer St,5267.08,Monroe St & Marcus Garvey Blvd,4467.03,40.71286844,-73.95698119,40.686722,-73.938988,casual
25422EEE66439DF3,classic_bike,2023-06-21 19:53:11,2023-06-21 20:02:13,6 Ave & W 33 St,6364.07,Perry St & Greenwich Ave,5955.12,40.74901271,-73.98848395,40.735918,-74.000939,member
B872159D6A5752D9,classic_bike,2023-06-27 18:55:59,2023-06-27 19:13:46,Mott St & Prince St,5561.04,Vesey St & Church St,5216.06,40.72317958,-73.99480012,40.71221958009051,-74.01047229766846,member
4B5B9DD184A49CFF,electric_bike,2023-06-11 17:58:27,2023-06-11 18:15:18,Dean St & Franklin Ave,4107.13,3 Ave & Schermerhorn St,4437.01,40.67759206937376,-73.955637216568,40.68683208,-73.9796772,member
45BBEDB58A71C5D1,electric_bike,2023-06-05 07:58:22,2023-06-05 08:25:52,Vesey Pl & River Terrace,5297.02,W 44 St & 5 Ave,6551.02,40.7153379,-74.01658354,40.75500254,-73.98014437,member
7074B7DA298772AA,classic_bike,2023-06-15 22:07:52,2023-06-15 22:24:56,Rivington St & Chrystie St,5453.01,1 Ave & E 62 St,6753.08,40.72110063,-73.9919254,40.7612274,-73.96094022,member
5811AC284D08EE14,classic_bike,2023-06-14 19:43:26,2023-06-14 19:50:22,W 25 St & 6 Ave,6215.04,E 25 St & 1 Ave,6004.07,40.74395411,-73.99144871,40.7381765,-73.97738662,member
3426DE0CF9DCF3D3,docked_bike,2023-06-10 16:45:53,2023-06-10 18:01:20,Albany St & Greenwich St,5145.02,W 42 St & 6 Ave,6517.08,40.709267,-74.013247,40.75492,-73.98455,casual
5A682D416462CDCC,classic_bike,2023-06-12 07:49:37,2023-06-12 07:53:22,Madison St & Malcolm X Blvd,4416.10,Monroe St & Marcus Garvey Blvd,4467.03,40.68713,-73.93008,40.686722,-73.938988,member
36AA298156B078C9,classic_bike,2023-06-06 22:13:42,2023-06-06 22:25:37,10 Ave & W 14 St,6157.04,Mott St & Prince St,5561.04,40.74198159994023,-74.00831580162048,40.72317958,-73.99480012,member
A314B7FF0747B728,classic_bike,2023-06-22 18:15:07,2023-06-22 18:35:00,West St & Chambers St,5329.03,Vesey St & Church St,5216.06,40.71754834,-74.01322069,40.71221958009051,-74.01047229766846,member
D5D078BDD2FFD67A,classic_bike,2023-06-21 13:42:45,2023-06-21 13:44:47,Pier 40 - Hudson River Park,5696.03,Pier 40 - Hudson River Park,5696.03,40.7277140777778,-74.01129573583603,40.7277140777778,-74.01129573583603,member
11858D053564C649,docked_bike,2023-06-15 16:42:14,2023-06-15 17:08:36,Buffalo Ave & E New York Ave,3814.01,Buffalo Ave & E New York Ave,3814.01,40.66591,-73.92602,40.66591,-73.92602,casual
29B4D38B6F057F57,classic_bike,2023-06-26 08:14:42,2023-06-26 08:23:15,8 Ave & W 52 St,6816.07,W 42 St & 6 Ave,6517.08,40.76370739,-73.9851615,40.75492,-73.98455,member
455584A7BA3EFAD2,classic_bike,2023-06-28 11:51:29,2023-06-28 12:02:38,E 77 St & 1 Ave,7020.02,2 Ave & E 122 St,7622.12,40.771201134,-73.953136683,40.8006721,-73.9349,member
3FE5F824AB3C0A13,classic_bike,2023-06-02 06:52:31,2023-06-02 06:56:48,Carlton Ave & St Marks Ave,4199.13,Cumberland St & Lafayette Ave,4428.02,40.679164171,-73.971898794,40.68753406,-73.97265183,casual
E132D8A6DB27AB28,classic_bike,2023-06-23 00:30:56,2023-06-23 02:27:22,Nagle Ave & Ellwood St,8528.05,Nagle Ave & Thayer St,8563.06,40.860197067,-73.928624749,40.861382,-73.925591,casual
76DC9314FC6A3231,classic_bike,2023-06-12 12:04:48,2023-06-12 12:14:10,N 10 St & Berry St,5450.01,Driggs Ave & N Henry St,5542.04,40.720253,-73.957082,40.72325,-73.94308,member
E91F78A8FD045DB0,classic_bike,2023-06-30 17:55:07,2023-06-30 20:34:30,W 145 St & Amsterdam Ave,7997.08,W 70 St & Amsterdam Ave,7207.08,40.825028062,-73.947137594,40.77748046,-73.98288594,member
9DC5E8641F52B3ED,classic_bike,2023-06-19 00:17:34,2023-06-19 00:32:35,Court St & State St,4488.08,Congress St & Hicks St,4497.09,40.6902375,-73.99203074,40.6893952,-73.9995126,casual
B2E630E0F718F77A,electric_bike,2023-06-11 21:29:51,2023-06-11 22:11:18,Frederick Douglass Blvd & W 139 St,7876.07,1 Ave & E 62 St,6753.08,40.81900581806558,-73.94476890563965,40.7612274,-73.96094022,member
B5C8C3F3271EF7D9,classic_bike,2023-06-16 22:13:05,2023-06-16 22:40:04,N 15 St & Wythe Ave,5520.09,Ralph Ave & Fulton St,4220.02,40.724055,-73.955736,40.67922,-73.92192,member
8E09CF066A29F9C3,classic_bike,2023-06-13 21:19:37,2023-06-13 21:20:15,3 St & 7 Ave,3905.15,3 St & 7 Ave,3905.15,40.6703837,-73.97839676,40.6703837,-73.97839676,member
2E41E74181C625C7,electric_bike,2023-06-21 15:10:44,2023-06-21 15:13:54,E 53 St & Lexington Ave,6617.09,E 53 St & Madison Ave,6659.03,40.75828065,-73.97069431,40.7597108,-73.97402311,member
A5986E54CD76D321,classic_bike,2023-06-06 15:00:54,2023-06-06 15:04:03,Dyckman St & Staff St,8655.02,Nagle Ave & Thayer St,8563.06,40.868877769,-73.931605935,40.861382,-73.925591,member
C64810F2CF6CCA89,classic_bike,2023-06-27 10:06:44,2023-06-27 10:14:27,Grand St & Greene St,5500.02,Forsyth St & Grand St,5382.07,40.72170005235607,-74.00238141417502,40.71779817737835,-73.99316132068634,casual
A17281F5AABE4267,electric_bike,2023-06-15 20:21:34,2023-06-15 20:28:27,W 10 St & Washington St,5847.06,11 Ave & W 27 St,6425.04,40.73342399437081,-74.00851495563984,40.751396,-74.005226,member
EB81CB711477D1C3,classic_bike,2023-06-04 22:15:42,2023-06-04 22:17:38,9 Ave & W 22 St,6266.06,W 20 St & 10 Ave,6306.01,40.7454973,-74.00197139,40.745686,-74.005141,member
9D58DB1AB64E6C8F,classic_bike,2023-06-08 20:16:31,2023-06-08 20:24:30,31 St & Newtown Ave,6923.20,Steinway St & Ditmars Blvd,7074.01,40.7675487799971,-73.9209334552288,40.772717,-73.906127,member
E26A4A510EA2DB6B,classic_bike,2023-06-18 12:28:02,2023-06-18 12:29:30,Manhattan Ave & Devoe St,5219.05,Devoe St & Lorimer St,5259.06,40.713532,-73.9459867,40.71335226222875,-73.9491033554077,member
8E24099869AA91F6,classic_bike,2023-06-24 13:34:08,2023-06-24 14:08:40,Amsterdam Ave & W 79 St,7311.02,W 46 St & 11 Ave,6795.01,40.7829391,-73.9786517,40.76341379,-73.99667444,casual
649477B12C333A36,classic_bike,2023-06-19 17:14:48,2023-06-19 17:29:38,10 Ave & W 14 St,6157.04,W 34 St & 11 Ave,6578.01,40.74198159994023,-74.00831580162048,40.75594159,-74.0021163,member
C1EE7B4FDBF1607F,classic_bike,2023-06-10 13:42:10,2023-06-10 13:49:22,7 Ave & Central Park South,6912.01,Columbus Ave & W 72 St,7175.05,40.766506553,-73.979767799,40.7770575,-73.97898475,casual
9C5CC77B0C50D94B,classic_bike,2023-06-26 15:07:32,2023-06-26 15:42:05,Little West St & 1 Pl,5001.08,10 Ave & W 14 St,6157.04,40.70569849,-74.016848207,40.74198159994023,-74.00831580162048,casual
C1296311FACE4F4C,electric_bike,2023-06-04 12:53:49,2023-06-04 13:16:22,2 Ave & E 72 St,6925.09,Lenox Ave & W 130 St,7753.13,40.7687620293096,-73.95840793848038,40.8107922,-73.9430681,member
F94CF689A7291F7C,classic_bike,2023-06-14 12:54:45,2023-06-14 12:57:19,Liberty St & Broadway,5105.01,Broadway & Morris St,5033.01,40.70905623,-74.01043382,40.705945132708806,-74.01321887969969,member
B3F9F5FB7415FD4E,classic_bike,2023-06-29 18:19:25,2023-06-29 18:20:20,E 48 St & 5 Ave,6626.01,E 48 St & 5 Ave,6626.01,40.75724567911726,-73.97805914282799,40.75724567911726,-73.97805914282799,member
FEF8D92E33805A81,classic_bike,2023-06-16 06:50:05,2023-06-16 06:52:35,Liberty St & Broadway,5105.01,Water St &  Fletcher St,5024.10,40.70905623,-74.01043382,40.706410755236135,-74.00559738278389,member
08187DC32315FA7C,classic_bike,2023-06-03 18:28:22,2023-06-03 19:06:39,Sullivan St & Washington Sq,5721.01,Myrtle Ave & Fleet Pl,4628.07,40.73049736,-73.99888885,40.693534,-73.981909,member
7FFA0F149DA812AC,classic_bike,2023-06-01 16:33:43,2023-06-01 16:34:36,E 160 St & Tinton Ave,7931.05,E 160 St & Tinton Ave,7931.05,40.820302,-73.903944,40.820302,-73.903944,member
5217E00197738A00,classic_bike,2023-06-15 17:02:40,2023-06-15 19:27:58,Parade Pl & Crooke Ave,3376.02,Parade Pl & Crooke Ave,3376.02,40.651935101,-73.965367913,40.651847,-73.965248,casual
BD02744FDEE7A488,classic_bike,2023-06-01 19:06:01,2023-06-01 19:24:00,N 7 St & Driggs Ave,5340.01,S 4 St & Roebling St,5195.06,40.716967,-73.956388,40.710709,-73.959724,casual
85BED40AF3537A0E,classic_bike,2023-06-22 18:45:26,2023-06-22 18:50:35,West Broadway & Watts St,5569.07,Vesey St & Church St,5216.06,40.723059535,-74.003096461,40.71221958009051,-74.01047229766846,member
F85F46F0031A9125,classic_bike,2023-06-08 21:05:59,2023-06-08 21:11:51,W 146 St & Broadway,8018.09,Broadway & Moylan Pl,7823.03,40.826969,-73.949738,40.8143256,-73.9590255,member
AAC703AD58CC2C18,classic_bike,2023-06-13 16:52:04,2023-06-13 17:05:02,N 5 St & Wythe Ave,5419.04,Greenpoint Ave & Manhattan Ave,5785.05,40.718389,-73.961501,40.73026,-73.95394,member
5280905C42A6DFBE,classic_bike,2023-06-25 07:03:47,2023-06-25 07:08:18,W 56 St & 10 Ave,6955.01,W 70 St & Amsterdam Ave,7207.08,40.768522859,-73.988779426,40.77748046,-73.98288594,member
15DCC1A075334AF8,classic_bike,2023-06-02 18:24:42,2023-06-02 18:25:08,E 16 St & Irving Pl,5938.11,E 16 St & Irving Pl,5938.11,40.735367055605394,-73.98797392845154,40.735367055605394,-73.98797392845154,member
AE42D153465D4645,classic_bike,2023-06-02 15:02:47,2023-06-02 15:09:09,W 20 St & 7 Ave,6182.02,Washington St & Barrow St,5847.08,40.74238787,-73.99726235,40.73191132323174,-74.008769094944,member
C001257B071C7E57,classic_bike,2023-06-12 11:55:19,2023-06-12 12:12:42,Vesey Pl & River Terrace,5297.02,River Ter & Warren St,5368.03,40.715247273,-74.01653862,40.71759894980997,-74.01587963104248,casual
B51F5AAE28B3A28B,classic_bike,2023-06-20 17:54:01,2023-06-20 17:58:31,Amsterdam Ave & W 82 St,7360.10,Columbus Ave & W 72 St,7175.05,40.78512609,-73.97682786,40.7770575,-73.97898475,member
55980A2FB931B64D,classic_bike,2023-06-14 23:07:09,2023-06-14 23:23:34,Amsterdam Ave & W 73 St,7260.09,Adam Clayton Powell Blvd & W 123 St,7704.04,40.77966809007312,-73.98093044757842,40.8078316,-73.949373,member
A9A45AC67636023C,classic_bike,2023-06-11 11:45:45,2023-06-11 12:04:15,Bond St & Fulton St,4479.06,Stuyvesant Ave & Hart St,4689.08,40.6896218879,-73.9830426872,40.69465,-73.9343,member
E091561EABCF8898,classic_bike,2023-06-18 12:48:23,2023-06-18 12:56:24,46 Ave & 5 St,6286.02,49 Ave & 21 St,6128.04,40.74731,-73.95451,40.74252,-73.948852,member
2431EE42594DB490,electric_bike,2023-06-07 18:19:26,2023-06-07 18:19:52,W 37 St & 10 Ave,6611.02,W 37 St & 10 Ave,6611.02,40.75660359,-73.9979009,40.75660359,-73.9979009,member
F68A6124DA8C48CE,electric_bike,2023-06-28 15:18:45,2023-06-28 15:33:53,3 Ave & E 62 St,6762.04,Central Park West & W 85 St,7354.01,40.76312584,-73.96526895,40.78476,-73.969862,member
9135DB523BA23DFB,electric_bike,2023-06-10 16:59:04,2023-06-10 17:02:14,W 42 St & 6 Ave,6517.08,6 Ave & W 33 St,6364.07,40.75492,-73.98455,40.74901271,-73.98848395,member
AF8F6445FBC63CC7,classic_bike,2023-06-28 14:38:43,2023-06-28 14:45:52,E 56 St & Madison Ave,6732.01,W 45 St & 8 Ave,6676.02,40.761573,-73.972628,40.75929124,-73.98859651,member
A82B0E846AAA412E,classic_bike,2023-06-25 15:41:31,2023-06-25 15:58:11,W 82 St & Central Park West,7304.08,W 70 St & Amsterdam Ave,7207.08,40.78275,-73.97137,40.77748046,-73.98288594,casual
0060908092342D94,classic_bike,2023-06-09 12:39:09,2023-06-09 12:57:36,Hudson St & Reade St,5359.10,E 47 St & 1 Ave,6498.09,40.716522574,-74.00924325,40.75206862,-73.96784384,member
9C78C3A847CCBC51,classic_bike,2023-06-18 21:44:43,2023-06-18 22:01:49,Morris Ave & E 163 St,8036.05,Morris Ave & E 163 St,8036.05,40.827146411,-73.917665601,40.827230499624726,-73.91765579597632,member
24E678B41A0E1CB5,electric_bike,2023-06-15 20:30:01,2023-06-15 20:41:05,W 37 St & 10 Ave,6611.02,W 20 St & 10 Ave,6306.01,40.75660359,-73.9979009,40.745686,-74.005141,casual
6260303D5B8742C6,electric_bike,2023-06-27 11:13:41,2023-06-27 11:23:17,West Thames St,5114.06,Pier 40 - Hudson River Park,5696.03,40.70834698,-74.01713445,40.7277140777778,-74.01129573583603,member
D7455162B5D34FD1,classic_bike,2023-06-08 19:21:02,2023-06-08 19:26:52,Broadway & W 25 St,6173.08,E 16 St & Irving Pl,5938.11,40.74286877312112,-73.98918628692627,40.735367055605394,-73.98797392845154,member
C28556DE819FFFF2,classic_bike,2023-06-26 20:23:10,2023-06-26 20:31:20,Washington Ave & E 163 St,7995.04,Jerome Ave & Anderson Ave,8061.01,40.824,-73.91089,40.830179,-73.928747,member
FF6A83BAB3EAF7BF,classic_bike,2023-06-27 18:22:08,2023-06-27 18:35:24,E 77 St & 1 Ave,7020.02,E 55 St & 2 Ave,6650.07,40.77095553869235,-73.95356208096926,40.75797322,-73.96603308,member
43807EAD11252BFB,classic_bike,2023-06-25 06:51:27,2023-06-25 06:58:04,W 111 St & 5 Ave,7587.16,W 100 St & Manhattan Ave,7538.14,40.779525033333336,-73.95751928333334,40.795,-73.9645,member
118A4E84F32FA276,classic_bike,2023-06-13 18:23:29,2023-06-13 18:32:54,Court St & Nelson St,4077.07,Wolcott St & Dwight St,4054.02,40.6763947,-73.99869893,40.6753274,-74.0100698,member
4998086EC3776719,classic_bike,2023-06-04 16:01:48,2023-06-04 16:06:03,W 44 St & 11 Ave,6756.05,W 34 St & 11 Ave,6578.01,40.761802077,-73.996440053,40.75594159,-74.0021163,member
D74D4CB332A51899,classic_bike,2023-06-12 13:29:10,2023-06-12 13:44:54,35 St & 23 Ave,7047.07,28 St & 36 Ave,6614.01,40.77301508291382,-73.91119033098221,40.757186,-73.932719,casual
F091134B337B7D45,classic_bike,2023-06-10 11:46:58,2023-06-10 11:53:28,Broadway & Morris St,5033.01,West St & Chambers St,5329.03,40.705863476,-74.013015628,40.71754834,-74.01322069,member
62AA9B8E591DEB59,classic_bike,2023-06-03 09:56:43,2023-06-03 09:59:51,W 29 St & 9 Ave,6416.06,W 24 St & 7 Ave,6257.03,40.7500727,-73.99839279,40.74487634,-73.99529885,member
DD2FF434D2F98FD9,classic_bike,2023-06-12 15:43:32,2023-06-12 15:47:22,W 17 St & 8 Ave,6148.02,9 Ave & W 18 St,6190.08,40.74177603,-74.00149746,40.74317449,-74.00366443,casual
035E59D9AB76E4AB,electric_bike,2023-06-14 18:11:05,2023-06-14 18:21:41,E 10 St & Avenue A,5659.05,MacDougal St & Prince St,5687.04,40.72740794,-73.98142006,40.72710258,-74.00297088,member
42B0D482C0482FD4,classic_bike,2023-06-12 16:21:25,2023-06-12 16:39:44,North Moore St & Greenwich St,5470.12,Broadway & E 14 St,5905.12,40.72019521437465,-74.0103006362915,40.73454567,-73.99074142,member
38B64737D85D0F37,classic_bike,2023-06-03 08:37:52,2023-06-03 08:47:16,Warren St & Smith St,4371.01,Fulton St & Adams St,4637.06,40.68542400997018,-73.99127773940563,40.69241829257847,-73.98949474096298,casual
6A78E52FC792AB16,classic_bike,2023-06-02 23:29:36,2023-06-02 23:31:38,Grand Ave & W Fordham Rd,8571.02,Buchanan Pl & Grand Ave,8535.01,40.862945676,-73.903195262,40.85834,-73.90626,member
30EDA6B65BC8B707,classic_bike,2023-06-13 13:52:04,2023-06-13 14:17:07,5 Ave & E 72 St,7100.07,Central Park West & W 72 St,7141.07,40.772671938,-73.967018604,40.77579376683666,-73.9762057363987,casual
117287E14A083C26,electric_bike,2023-06-08 19:19:38,2023-06-08 19:34:02,E 10 St & 2 Ave,5746.02,Water St &  Fletcher St,5024.10,40.72970805644994,-73.9865979552269,40.706410755236135,-74.00559738278389,member
3B5114D3627D5C62,electric_bike,2023-06-21 19:44:48,2023-06-21 20:00:57,11 Ave & W 27 St,6425.04,1 Ave & E 18 St,5854.09,40.751396,-74.005226,40.73381219196632,-73.98054420948029,casual
560E9F9370F89B17,classic_bike,2023-06-06 18:18:13,2023-06-06 18:24:55,E 75 St & 3 Ave,6991.12,1 Ave & E 62 St,6753.08,40.77109158,-73.957566857,40.7612274,-73.96094022,member
20C2DA40CBEFC0CC,classic_bike,2023-06-04 10:37:30,2023-06-04 11:02:44,Riverside Dr & Broadway,8616.06,12 Ave & W 125 St,7886.02,40.865386963,-73.927915573,40.818299,-73.960405,casual
C51F9CF4B6D37C48,classic_bike,2023-06-12 18:57:59,2023-06-12 19:08:39,Broadway & E 21 St,6098.10,6 Ave & W 34 St,6364.10,40.73988840858996,-73.98958593606949,40.74964,-73.98805,casual
F6F4C9FF1C152E5D,classic_bike,2023-06-10 20:33:03,2023-06-10 20:37:41,Fulton St & Williams Ave,4120.02,Broadway & Furman Ave,4244.06,40.67709,-73.9008,40.68139,-73.90756,member
2EC89019F72459D4,classic_bike,2023-06-11 12:21:13,2023-06-11 12:31:06,E 33 St & 5 Ave,6322.01,E 45 St & 3 Ave,6464.08,40.74765947,-73.98490707,40.75255434,-73.97282625,member
0C28C09BCC3DC709,classic_bike,2023-06-25 13:10:59,2023-06-25 13:18:22,Congress St & Clinton St,4455.1,Concord St & Bridge St,4781.03,40.68825516598005,-73.99545192718506,40.69766564,-73.98476437,member
46ED5482A1837556,classic_bike,2023-06-02 15:37:41,2023-06-02 15:49:49,West Drive & Prospect Park West,3651.04,Berkeley Pl & 7 Ave,4051.01,40.6610633719006,-73.97945255041122,40.675146838709786,-73.97523209452629,member
6AA221E910C03219,classic_bike,2023-06-04 13:56:30,2023-06-04 14:18:32,E 56 St & Madison Ave,6732.01,E 84 St & Park Ave,7243.04,40.761573,-73.972628,40.77862688,-73.95772073,casual
3B681F6302764B7D,classic_bike,2023-06-08 02:51:10,2023-06-08 03:19:24,W 17 St & 7 Ave,6107.08,W 17 St & 7 Ave,6107.08,40.74056423633952,-73.99852573871613,40.74056423633952,-73.99852573871613,member
7F4AE3DC3A748B0A,classic_bike,2023-06-01 20:58:34,2023-06-01 21:06:50,MacDougal St & Prince St,5687.04,Hudson St & Reade St,5359.10,40.72710258,-74.00297088,40.71625008,-74.0091059,member
D2035033ACCD1008,classic_bike,2023-06-03 15:13:13,2023-06-03 15:23:02,St. Nicholas Ave & W 157 St,8085.09,W Burnside Ave & University Ave,8425.01,40.832365155,-73.941053748,40.853686,-73.912498,member
E28FE40DA95F56B6,classic_bike,2023-06-28 00:44:04,2023-06-28 00:52:03,E 81 St & 1 Ave,7121.13,E 54 St & 1 Ave,6608.09,40.773731112,-73.952136636,40.756265,-73.964179,member
10C980D62E223AF4,classic_bike,2023-06-01 07:25:07,2023-06-01 07:30:43,Greene Av & Myrtle Av,4784.02,Monroe St & Patchen Ave,4491.09,40.698607802,-73.918927789,40.68814,-73.92693,member
AFD3D106A5CC9B46,classic_bike,2023-06-08 13:03:55,2023-06-08 13:10:38,Walton Ave & E 153 St,7945.07,Brook Ave & E 141 St,7740.08,40.82226932,-73.926984906,40.809619,-73.917875,member
103900A9BAD71D0D,classic_bike,2023-06-19 11:36:19,2023-06-19 11:43:46,Edgecombe Ave & W 141 St,7915.11,Lenox Ave & W 130 St,7753.13,40.820681,-73.945144,40.8107922,-73.9430681,member
6ACDC8AB593B429B,classic_bike,2023-06-22 19:18:14,2023-06-22 19:24:11,4 Ave & E 12 St,5788.15,Sullivan St & Washington Sq,5721.01,40.732647,-73.99011,40.73047747,-73.99906065,member
B2DFD163857DAF15,classic_bike,2023-06-29 22:47:39,2023-06-29 22:59:12,Delancey St & Eldridge St,5414.07,W 31 St & 7 Ave,6331.01,40.719536543,-73.991730094,40.749156,-73.9916,member
BF21B4C008A08128,classic_bike,2023-06-19 11:00:35,2023-06-19 11:28:30,Shore Blvd & Astoria Park,7271.01,Jackson Ave & 46 Rd,6203.02,40.77977,-73.923162,40.74524768,-73.94733276,member
03C46C1BA5F6AAA6,classic_bike,2023-06-03 07:18:24,2023-06-03 07:24:08,21 St & 31 Dr,6865.03,Queens Plaza North & Crescent St,6429.01,40.765851617,-73.930936694,40.75110165,-73.94073717,casual
5E353A16E52A55AB,electric_bike,2023-06-21 19:54:28,2023-06-21 20:06:54,E 85 St & York Ave,7146.04,3 Ave & E 62 St,6762.04,40.77536905,-73.94803392,40.76312584,-73.96526895,member
