ride_id,rideable_type,started_at,ended_at,start_station_name,start_station_id,end_station_name,end_station_id,start_lat,start_lng,end_lat,end_lng,member_casual
7880F6D79718A777,classic_bike,2023-06-07 14:48:17,2023-06-07 14:59:08,Flatbush Ave & Ocean Ave,3704.04,14 St & 7 Ave,3731.11,40.663657,-73.963014,40.663779,-73.98396846,casual
2BAA231260C5FAA7,classic_bike,2023-06-09 13:46:32,2023-06-09 13:52:24,Clinton St & Tillary St,4748.07,Front St & Jay St,4895.03,40.69623297129316,-73.99142056703568,40.702461,-73.986842,member
3275B5F6BF279FC0,classic_bike,2023-06-02 12:28:29,2023-06-02 12:37:19,Broadway & E 14 St,5905.12,6 Ave & Walker St,5430.10,40.73439455,-73.990793467,40.7197920901383,-74.0052238852195,member
BC296AB0714CA2A5,classic_bike,2023-06-10 19:28:11,2023-06-10 19:55:31,Centre St & Chambers St,5207.01,Barrow St & Hudson St,5805.05,40.71273266,-74.0046073,40.73172428,-74.00674436,casual
800D0A2E41BECD1C,classic_bike,2023-06-21 21:19:45,2023-06-21 21:39:38,Lexington Ave & E 36 St,6313.10,W 10 St & Washington St,5847.06,40.747496724,-73.978964448,40.73342399437081,-74.00851495563984,casual
C4F81279D395CB5E,classic_bike,2023-06-15 12:21:43,2023-06-15 12:35:42,W 44 St & 11 Ave,6756.05,W 30 St & 8 Ave,6373.07,40.761681557,-73.996485233,40.74965268472847,-73.9952078461647,casual
0717200309258D8C,classic_bike,2023-06-24 19:35:32,2023-06-24 19:50:13,Cleveland Pl & Spring St,5492.05,University Pl & E 14 St,5905.14,40.722103786686034,-73.99724900722504,40.734814,-73.992085,member
AA50EFB1F4375846,classic_bike,2023-06-06 08:34:35,2023-06-06 08:44:24,Christopher St & Greenwich St,5847.01,Lispenard St & Broadway,5391.06,40.73291553,-74.00711384,40.71939226,-74.00247214,member
17D1298F860C66B5,classic_bike,2023-06-27 22:27:15,2023-06-27 22:57:23,Broadway & W 168 St,8226.06,Hamilton Pl & W 140 St,7959.18,40.84075892,-73.939897895,40.822756,-73.951346,member
230C517E452DD16F,classic_bike,2023-06-07 14:00:30,2023-06-07 14:10:19,6 Ave & Broome St,5610.09,8 Ave & W 16 St,6072.11,40.72431,-74.00473,40.740983,-74.001702,member
458F6BB404975FF8,classic_bike,2023-06-08 17:52:41,2023-06-08 17:56:38,W 51 St & 6 Ave,6740.1,W 56 St & 6 Ave,6809.07,40.7606597,-73.98042047,40.76340613,-73.97722479,member
E79A3C76BCC54B67,classic_bike,2023-06-28 07:45:56,2023-06-28 07:52:05,Cooper Square & Astor Pl,5712.03,E 7 St & Ave C,5545.01,40.72951496224949,-73.99075269699097,40.72412944090093,-73.97901266813278,member
93293CE5F9BB4698,classic_bike,2023-06-22 18:34:03,2023-06-22 18:40:50,N 6 St & Bedford Ave,5379.10,N 11 St & Kent Ave,5489.04,40.71745169,-73.95850939,40.72248188638219,-73.95921930670738,casual
55A8CBD0A273826D,classic_bike,2023-06-02 15:39:41,2023-06-02 15:53:09,E 77 St & 3 Ave,7092.06,W 56 St & 6 Ave,6809.07,40.77314236,-73.95856158,40.76340613,-73.97722479,member
FC643FE5E9812299,classic_bike,2023-06-24 20:12:55,2023-06-24 20:35:47,S 4 St & Rodney St,5156.05,Bond St & Fulton St,4479.06,40.70934,-73.95608,40.6896218879,-73.9830426872,member
0128F9A4015EA6B8,classic_bike,2023-06-11 11:56:22,2023-06-11 12:24:46,Columbus Ave & W 72 St,7175.05,Central Park S & 6 Ave,6876.04,40.776769757,-73.979104042,40.76590936,-73.97634151,casual
066E64FA18CB23DA,classic_bike,2023-06-18 17:12:21,2023-06-18 17:17:21,Devoe St & Morgan Ave,5282.02,Graham Ave & Grand St,5178.06,40.713811,-73.93515,40.711863,-73.944024,member
8649C1BD1832B608,classic_bike,2023-06-24 16:18:48,2023-06-24 16:20:19,Sheridan Ave & E 168 St,8160.03,Grand Concourse & E 166 St,8092.06,40.835407972,-73.915652394,40.83196,-73.91956,member
D5799B9309315758,classic_bike,2023-06-25 17:30:18,2023-06-25 17:54:33,9 Ave & W 18 St,6190.08,West End Ave & W 60 St,7059.08,40.742996931,-74.003890276,40.77237,-73.99005,member
B2189D4788EFB017,classic_bike,2023-06-02 05:41:05,2023-06-02 05:50:11,Fulton St & Broadway,5175.08,Vesey Pl & River Terrace,5297.02,40.711066,-74.009447,40.7153379,-74.01658354,member
D49F6D59827AD86E,classic_bike,2023-06-21 17:33:40,2023-06-21 17:49:36,E 40 St & Park Ave,6432.11,W 34 St & Hudson Blvd E,6535.04,40.750756,-73.978326,40.75516719072139,-74.00059908628464,member
130C0C7FCA4D4F07,classic_bike,2023-06-22 19:04:41,2023-06-22 19:27:15,E 102 St & 1 Ave,7407.13,Broadway & W 142 St,7981.16,40.786918759,-73.941452026,40.824686,-73.951947,casual
7F348B886A341B2E,classic_bike,2023-06-29 17:30:30,2023-06-29 17:41:24,W 56 St & 8 Ave,6884.03,W 31 St & 7 Ave,6331.01,40.765995622,-73.982349277,40.749156,-73.9916,member
92C7F19690557A24,electric_bike,2023-06-24 20:57:27,2023-06-24 21:01:46,W 70 St & Amsterdam Ave,7207.08,Amsterdam Ave & W 66 St,7149.05,40.77748046,-73.98288594,40.7746671,-73.98470567,member
DA5F5E52F571FC69,classic_bike,2023-06-28 20:42:02,2023-06-28 20:50:39,6 Ave & W 33 St,6364.07,W 4 St & 7 Ave S,5880.02,40.74901271,-73.98848395,40.73401143,-74.00293877,member
B10838C58EA4C2F7,classic_bike,2023-06-23 18:44:37,2023-06-23 18:52:38,W 11 St & 6 Ave,5914.03,6 Ave & Walker St,5430.10,40.735084295,-73.997861981,40.7197920901383,-74.0052238852195,member
E9510072F391096A,classic_bike,2023-06-13 14:07:44,2023-06-13 14:13:12,Lexington Ave & E 24 St,6089.07,E 16 St & 5 Ave,6022.04,40.74025878,-73.98409214,40.73726186,-73.99238967,member
6790EFFBE0CCFF52,classic_bike,2023-06-12 23:00:45,2023-06-12 23:10:24,1 Ave & E 30 St,6079.03,1 Ave & E 16 St,5779.08,40.74144387,-73.97536082,40.73221853,-73.98165557,member
A8AD81A43E2B0AD5,classic_bike,2023-06-24 14:00:02,2023-06-24 14:10:09,9 Ave & W 18 St,6190.08,E 17 St & Broadway,5980.07,40.74317449,-74.00366443,40.73704984,-73.99009296,member
A029108561BEA1F3,classic_bike,2023-06-27 17:05:50,2023-06-27 17:13:41,Lafayette Ave & Stuyvesant Ave,4576.11,Suydam St & Knickerbocker Ave,4939.07,40.6919925157634,-73.9325501024723,40.702013,-73.923769,member
29B8341892A94920,classic_bike,2023-06-05 19:20:05,2023-06-05 19:25:30,E 81 St & Park Ave,7188.1,3 Ave & E 72 St,7028.04,40.77677702,-73.9590097,40.7699426,-73.96060712,member
46ACA12D3353EE94,classic_bike,2023-06-29 15:57:34,2023-06-29 16:09:25,1 Ave & E 62 St,6753.08,E 41 St & Madison Ave (SE corner),6432.10,40.7612274,-73.96094022,40.752049,-73.979635,casual
CFD00474D0712684,classic_bike,2023-06-12 17:22:08,2023-06-12 17:33:11,W 16 St & The High Line,6233.05,W 34 St & Hudson Blvd E,6535.04,40.74334935,-74.00681753,40.75516719072139,-74.00059908628464,member
8C16DB794A99C21E,classic_bike,2023-06-05 08:33:27,2023-06-05 08:44:46,E Houston St & Columbia St,5436.11,E 11 St & 1 Ave,5746.14,40.71978635452822,-73.97871628403664,40.72953837,-73.98426726,casual
8AD823CF7B46C97D,classic_bike,2023-06-21 15:59:05,2023-06-21 16:06:52,E 7 St & Ave C,5545.01,Broadway & E 14 St,5905.12,40.72412944090093,-73.97901266813278,40.73454567,-73.99074142,member
9AD3F99C0BBEDC05,classic_bike,2023-06-01 17:31:30,2023-06-01 17:41:38,E 51 St & Lexington Ave,6659.01,E 74 St & 1 Ave,6953.08,40.75714758,-73.97207836,40.7689738,-73.95482273,member
214CC24795D056B7,classic_bike,2023-06-26 17:58:18,2023-06-26 18:06:39,E 4 St & 2 Ave,5593.04,Clinton St & Cherry St,5190.09,40.7262807,-73.98978041,40.711471394469264,-73.98672603070736,casual
229E2A79D678B394,classic_bike,2023-06-23 15:54:32,2023-06-23 16:05:11,6 Ave & W 34 St,6364.10,W 44 St & 11 Ave,6756.05,40.74964,-73.98805,40.762009,-73.996975,member
061E864755F3B996,classic_bike,2023-06-02 11:48:32,2023-06-02 12:04:00,W 21 St & 6 Ave,6140.05,8 Ave & W 52 St,6816.07,40.74173969,-73.99415556,40.76370739,-73.9851615,member
7B50E33F6FE37226,electric_bike,2023-06-21 15:21:53,2023-06-21 15:43:58,E 68 St & Madison Ave,6932.15,Broadway & E 21 St,6098.10,40.7691572,-73.96703464,40.73988840858996,-73.98958593606949,member
4B58FE8A136EDBB7,classic_bike,2023-06-30 18:03:23,2023-06-30 18:11:22,E 40 St & Park Ave,6432.11,9 Ave & W 45 St,6717.06,40.750721693,-73.978499889,40.76019252,-73.9912551,casual
FA87D2DEFA2454FE,electric_bike,2023-06-01 11:29:07,2023-06-01 11:31:55,W 42 St & 8 Ave,6602.05,Broadway & W 41 St,6560.01,40.7575699,-73.99098507,40.75513557,-73.98658032,member
6B4D9EE903258957,classic_bike,2023-06-27 23:07:32,2023-06-27 23:18:29,W 22 St & 10 Ave,6306.06,E 4 St & 2 Ave,5593.04,40.746726751,-74.004022002,40.7262807,-73.98978041,member
9A59A6325C9F710A,classic_bike,2023-06-14 07:04:47,2023-06-14 07:06:09,Broadway & W 41 St,6560.01,6 Ave & W 45 St,6593.15,40.755325198,-73.986748934,40.756951,-73.982631,member
00A5C9F5F55DE613,classic_bike,2023-06-01 18:38:50,2023-06-01 18:38:55,Rivington St & Chrystie St,5453.01,Rivington St & Chrystie St,5453.01,40.72110063,-73.9919254,40.72110063,-73.9919254,member
A40D0136FB97728D,classic_bike,2023-06-25 15:18:19,2023-06-25 15:24:58,Vesey St & Church St,5216.06,Franklin St & W Broadway,5430.08,40.71221958009051,-74.01047229766846,40.71911552,-74.00666661,casual
9DD10A57B3077006,classic_bike,2023-06-11 13:06:11,2023-06-11 13:56:16,McKibbin St & Manhattan Ave,4996.08,St. Johns Pl & Kingston Ave,3943.03,40.70510918,-73.94407279,40.67113,-73.94222,casual
54B93EEBFA556E71,classic_bike,2023-06-20 11:36:12,2023-06-20 11:52:56,South St & Pike St,5159.07,Bus Slip & State St,4889.06,40.70991806921533,-73.99161100387573,40.701907,-74.013942,casual
09062966D9255BFD,classic_bike,2023-06-01 14:42:02,2023-06-01 14:42:04,Greenpoint Ave & 47 St,6134.03,Greenpoint Ave & 47 St,6134.03,40.7424,-73.91808,40.7424,-73.91808,member
09C32CA051931383,classic_bike,2023-06-30 22:32:20,2023-06-30 22:46:19,E 54 St & 1 Ave,6608.09,E 72 St & York Ave,6889.12,40.756186724,-73.964195967,40.76663814,-73.95348296,member
1394BC48BECFFE48,electric_bike,2023-06-15 18:16:58,2023-06-15 18:19:33,Broadway & Kent Ave,5134.09,Kent Ave & Grand St,5388.01,40.710888,-73.968329,40.716425,-73.96594,member
BD0C1A4B9F4F0530,classic_bike,2023-06-25 11:03:00,2023-06-25 11:11:14,Central Park W & W 91 St,7453.01,W 64 St & Thelonious Monk Circle,7123.04,40.788790107,-73.966581464,40.77515953434235,-73.98918695747852,member
B7E1D4F96D1692CF,classic_bike,2023-06-20 10:29:04,2023-06-20 10:43:03,Grand Army Plaza & Plaza St West,4010.15,Ft. Hamilton Pkwy & E 5 St,3240.15,40.6729679,-73.97087984,40.649037,-73.97673,member
7A0B96003656114B,classic_bike,2023-06-14 04:04:41,2023-06-14 04:14:59,South St & Whitehall St,4846.01,Clinton St & Cherry St,5190.09,40.70122128,-74.01234218,40.711471394469264,-73.98672603070736,member
D63A2A684113EC0D,classic_bike,2023-06-01 09:48:20,2023-06-01 10:14:56,5 Ave & E 63 St,6904.06,W 10 St & Washington St,5847.06,40.766368,-73.971518,40.73342399437081,-74.00851495563984,member
704C0B77DCACA564,classic_bike,2023-06-06 19:36:09,2023-06-06 19:51:24,W 37 St & 5 Ave,6398.06,11 Ave & W 59 St,7059.01,40.750490308,-73.983459234,40.77149671054441,-73.99046033620834,member
7C096AF1E6B3FAFE,classic_bike,2023-06-01 07:03:08,2023-06-01 07:08:58,W 59 St & 10 Ave,7023.04,Broadway & W 48 St,6708.04,40.770495415,-73.98781848,40.76017739537783,-73.98486793041229,casual
515B91F8D968FEAD,classic_bike,2023-06-29 18:34:22,2023-06-29 18:52:06,W 34 St & 11 Ave,6578.01,E 20 St & FDR Dr,5886.13,40.75594159,-74.0021163,40.733208626522426,-73.9756813647,member
77533DD1ABFDD046,classic_bike,2023-06-13 09:39:20,2023-06-13 09:45:16,Clinton Ave & Flushing Ave,4762.04,DeKalb Ave & Vanderbilt Ave,4461.04,40.69794,-73.96986848,40.68940747,-73.96885458,member
8EF9A0383D05BB36,classic_bike,2023-06-17 14:29:30,2023-06-17 15:07:14,W 16 St & The High Line,6233.05,Little West St & 1 Pl,5001.08,40.74334935,-74.00681753,40.70569254,-74.01677685,member
E72DF2D213167AA5,classic_bike,2023-06-08 07:47:06,2023-06-08 07:52:55,E 7 St & Ave C,5545.01,E 13 St & 2 Ave,5820.08,40.72412944090093,-73.97901266813278,40.73153937464073,-73.9853024482727,member
686B8BA48C85031D,classic_bike,2023-06-24 11:31:41,2023-06-24 11:34:21,Union Ave & Jackson St,5300.06,Hope St & Union Ave,5187.03,40.7160751,-73.952029,40.71167351,-73.95141312,member
2DF9FD85C57D16C7,classic_bike,2023-06-21 05:24:51,2023-06-21 05:33:54,6 Ave & W 34 St,6364.10,W 34 St & Hudson Blvd E,6535.04,40.74964,-73.98805,40.75516719072139,-74.00059908628464,member
58DA104833708F08,classic_bike,2023-06-10 22:00:03,2023-06-10 22:10:31,St Marks Pl & 2 Ave,5669.1,W 12 St & Hudson St,5997.10,40.7284186,-73.98713956,40.73752993301071,-74.00558933615685,member
0B420C9486B0EC79,classic_bike,2023-06-04 10:26:22,2023-06-04 10:34:00,West End Ave & W 94 St,7524.09,W 110 St & Amsterdam Ave,7646.04,40.7941654,-73.974124,40.802692,-73.96295,member
EAAB105C0A18CB2F,electric_bike,2023-06-30 17:44:23,2023-06-30 17:52:29,8 Ave & W 33 St,6450.12,W 46 St & 11 Ave,6795.01,40.751551,-73.993934,40.76341379,-73.99667444,casual
0287BDE6AED97B91,electric_bike,2023-06-20 12:16:16,2023-06-20 12:34:22,3 Ave & E 112 St,7543.15,Edgecombe Ave & W 145 St,7976.08,40.795508,-73.941606,40.823498,-73.94386,casual
2D2A24DB2AA447E9,classic_bike,2023-06-11 21:50:34,2023-06-11 21:50:35,E 13 St & 2 Ave,5820.08,E 13 St & 2 Ave,5820.08,40.731470704,-73.985255361,40.73153937464073,-73.9853024482727,member
399DAC30AB0F36C4,classic_bike,2023-06-29 08:08:09,2023-06-29 08:31:48,Wyckoff Av & Jefferson St,5051.01,Front St & Jay St,4895.03,40.707165,-73.923711,40.702461,-73.986842,casual
4C572E424B6B8D65,electric_bike,2023-06-30 15:30:21,2023-06-30 15:43:02,West St & Chambers St,5329.03,10 Ave & W 14 St,6157.04,40.71754834,-74.01322069,40.74198159994023,-74.00831580162048,casual
2577D8AA7BEA7866,classic_bike,2023-06-20 17:25:50,2023-06-20 17:36:11,E 59 St & Madison Ave,6801.01,West End Ave & W 60 St,7059.08,40.76350532,-73.97109243,40.77237,-73.99005,member
79F37EEE70496271,classic_bike,2023-06-08 11:54:32,2023-06-08 11:59:02,36 St & 3 Ave,3460.02,5 Ave & 41 St,3306.03,40.6557374,-74.006724358,40.649983,-74.005144,member
FC6394C3A3DD3991,classic_bike,2023-06-24 19:22:44,2023-06-24 20:00:34,Union St & 4 Ave,4175.15,47 St & 3 Ave,3243.02,40.677312613,-73.982612848,40.649143,-74.012384,casual
AD4C36A41A50DF9E,classic_bike,2023-06-12 09:13:50,2023-06-12 09:25:38,E 47 St & Park Ave,6584.12,E 9 St & 5 Ave,5872.10,40.754821301,-73.97485137,40.73275887045087,-73.99581670761108,member
8BFBA41AF40D756C,classic_bike,2023-06-11 03:22:21,2023-06-11 03:27:05,Melrose St & Broadway,4801.04,George St & Wilson Ave,4906.07,40.697481,-73.935877,40.702997,-73.92997,casual
88C17A62BCE5DD14,classic_bike,2023-06-01 17:18:00,2023-06-01 17:22:23,E 118 St & Madison Ave,7640.04,Park Ave & E 124 St,7682.01,40.801577687,-73.944494367,40.8045555,-73.9396861,member
2589EE480921A4A4,classic_bike,2023-06-03 10:04:45,2023-06-03 10:08:56,E 2 St & Avenue B,5515.02,E 6 St & 2 Ave,5669.12,40.722172022,-73.983636022,40.72737869323223,-73.98840844631195,member
717619197D1CD696,classic_bike,2023-06-06 17:39:18,2023-06-06 18:33:39,North Moore St & Greenwich St,5470.12,E 84 St & 1 Ave,7180.02,40.72019521437465,-74.0103006362915,40.77565541,-73.95068615,member
4F5B8BAFC3D2E7FD,classic_bike,2023-06-22 15:54:14,2023-06-22 16:22:52,Myrtle Ave & Fleet Pl,4628.07,Norfolk St & Broome St,5374.01,40.693546772,-73.982020855,40.7172274,-73.98802084,member
F9AF0B4F828456C4,classic_bike,2023-06-07 12:23:35,2023-06-07 12:26:19,E 16 St & Irving Pl,5938.11,Broadway & E 14 St,5905.12,40.735367055605394,-73.98797392845154,40.73454567,-73.99074142,member
6E1E0CBE9B45C749,electric_bike,2023-06-21 21:12:49,2023-06-21 21:17:32,1 Ave & E 68 St,6822.09,E 88 St & 1 Ave,7235.13,40.76500525,-73.95818491,40.778301,-73.9488134,member
1117CD4AC7835525,classic_bike,2023-06-03 17:32:15,2023-06-03 17:58:04,Frederick Douglass Blvd & W 117 St,7688.12,Park Ave & E 124 St,7682.01,40.805159,-73.954692,40.8045555,-73.9396861,casual
6EF8C038A9D99E3A,classic_bike,2023-06-11 18:18:16,2023-06-11 18:51:48,W 87 St & West End Ave,7484.05,W 34 St & Hudson Blvd E,6535.04,40.789622,-73.97757,40.75516719072139,-74.00059908628464,casual
15FB324DC078FAE9,electric_bike,2023-06-09 03:53:21,2023-06-09 04:10:23,6 Ave & W 45 St,6593.15,3 Ave & E 100 St,7414.17,40.756951,-73.982631,40.7877214,-73.94728331,member
C937B05100170256,classic_bike,2023-06-09 21:37:28,2023-06-09 21:55:00,Madison Ave & E 26 St,6131.12,E 7 St & Ave C,5545.01,40.742684734875695,-73.98671329021454,40.72412944090093,-73.97901266813278,member
1AB34A871B60FB2C,classic_bike,2023-06-26 21:59:12,2023-06-26 22:05:33,Cooper Square & Astor Pl,5712.03,Rivington St & Chrystie St,5453.01,40.72951496224949,-73.99075269699097,40.72110063,-73.9919254,member
DE41A00771C0BFF3,classic_bike,2023-06-16 23:45:20,2023-06-16 23:54:38,W 15 St & 7 Ave,6030.06,W 31 St & 7 Ave,6331.01,40.73935542,-73.99931783,40.749156,-73.9916,member
3E3FD3936372A928,classic_bike,2023-06-03 10:28:27,2023-06-03 10:44:17,W 92 St & Broadway,7502.01,Amsterdam Ave & W 79 St,7311.02,40.7921,-73.9739,40.7829391,-73.9786517,member
EBF73B639BD176C7,classic_bike,2023-06-23 22:40:56,2023-06-23 22:45:26,E 72 St & York Ave,6889.12,E 84 St & 1 Ave,7180.02,40.76663814,-73.95348296,40.77565541,-73.95068615,member
00CEB79FCDD8C96C,electric_bike,2023-06-20 18:04:57,2023-06-20 18:11:26,W 13 St & 5 Ave,5947.04,1 Ave & E 16 St,5779.08,40.735445,-73.99431,40.73221853,-73.98165557,member
80471E3D2B1F1482,classic_bike,2023-06-04 16:27:42,2023-06-04 16:32:17,E 115 St & Madison Ave,7599.02,E 115 St & Lexington Ave,7599.09,40.7989445,-73.944846,40.797911,-73.9423,member
3AB38EB5E817B0B9,classic_bike,2023-06-08 23:20:59,2023-06-08 23:29:24,Broadway & E 14 St,5905.12,9 Ave & W 18 St,6190.08,40.73454567,-73.99074142,40.74317449,-74.00366443,member
B69E393EE28D4828,classic_bike,2023-06-05 19:28:10,2023-06-05 19:35:43,E 81 St & Park Ave,7188.1,Central Park West & W 72 St,7141.07,40.77677702,-73.9590097,40.77579376683666,-73.9762057363987,member
DC2C0802CBAB7C80,classic_bike,2023-06-30 21:00:09,2023-06-30 21:16:29,Manhattan Av & Leonard St,5442.09,Kent Ave & Grand St,5388.01,40.72084,-73.94844,40.716425,-73.96594,casual
8F0AC936F2E284A0,classic_bike,2023-06-05 17:36:08,2023-06-05 17:54:37,E 58 St & 1 Ave (NE Corner),6682.03,W 31 St & 7 Ave,6331.01,40.75892386377695,-73.96226227283478,40.749156,-73.9916,member
41581C08C9C6629D,electric_bike,2023-06-23 06:01:36,2023-06-23 06:05:10,W 70 St & Amsterdam Ave,7207.08,West End Ave & W 60 St,7059.08,40.77748046,-73.98288594,40.77237,-73.99005,casual
6D6E058216365230,classic_bike,2023-06-28 15:56:44,2023-06-28 16:12:13,University Pl & E 8 St,5755.14,Stanton St & Mangin St,5326.06,40.731566787,-73.994892716,40.71782143,-73.97628939,member
D7093A73B5F0CC67,classic_bike,2023-06-29 09:52:19,2023-06-29 09:59:27,Grand Concourse & E 196 St,8635.08,Tiebout Ave & E Fordham Road,8546.06,40.86767,-73.89286,40.861915,-73.894831,casual
7321842FDBC5CCCC,classic_bike,2023-06-02 16:56:03,2023-06-02 16:58:14,Lenox Ave & W 117 St,7655.22,E 118 St & Madison Ave,7640.04,40.80256331,-73.949175477,40.8014866,-73.9442507,member
753A51C9F55455CA,electric_bike,2023-06-08 21:16:32,2023-06-08 21:47:57,Frederick Douglass Blvd & W 115 St,7658.13,Amsterdam Ave & W 152 St,8069.01,40.8038654,-73.9559308,40.829523,-73.944279,casual
9A02D6F46D886B3E,classic_bike,2023-06-11 20:11:23,2023-06-11 20:14:03,12 St & 4 Ave,3882.01,14 St & 7 Ave,3731.11,40.668684125,-73.990693808,40.663779,-73.98396846,member
90183EFB769546EC,classic_bike,2023-06-27 13:56:57,2023-06-27 13:59:45,E 13 St & 2 Ave,5820.08,1 Ave & E 18 St,5854.09,40.73153937464073,-73.9853024482727,40.73381219196632,-73.98054420948029,member
EC6C1F962F8B8B8D,classic_bike,2023-06-20 18:35:32,2023-06-20 18:42:06,Lexington Ave & E 29 St,6164.09,W 31 St & 7 Ave,6331.01,40.743165493,-73.982144356,40.749156,-73.9916,member
DF80C31290C2DA16,classic_bike,2023-06-18 14:50:44,2023-06-18 15:15:07,Central Park W & W 97 St,7538.18,7 Ave & Central Park South,6912.01,40.79249519495111,-73.96417066463071,40.7667405590595,-73.9790689945221,casual
83033079120F424F,classic_bike,2023-06-08 14:55:00,2023-06-08 14:59:41,31 St & Newtown Ave,6923.20,21 St & 31 Dr,6865.03,40.7675487799971,-73.9209334552288,40.7659,-73.930819,member
E2BE8A8180960631,electric_bike,2023-06-08 12:47:27,2023-06-08 12:52:34,W 111 St & 5 Ave,7587.16,Park Ave & E 124 St,7682.01,40.79752078124756,-73.9489397406578,40.8045555,-73.9396861,member
4D9FB182A82D4A20,classic_bike,2023-06-23 21:08:40,2023-06-23 21:42:26,W 67 St & Broadway,7116.04,Broadway & E 14 St,5905.12,40.774801135,-73.98261404,40.73454567,-73.99074142,member
753C21A17E4C749C,classic_bike,2023-06-10 12:18:45,2023-06-10 12:35:19,Spring St & Hudson St,5653.12,W 15 St & 10 Ave,6115.09,40.72583996792375,-74.0076532959938,40.74275382865903,-74.00747358798981,casual
B54FE66B375F85CE,classic_bike,2023-06-23 08:19:27,2023-06-23 08:22:10,9 Ave & W 22 St,6266.06,8 Ave & W 16 St,6072.11,40.7454973,-74.00197139,40.740983,-74.001702,member
2DD7DFDE86CB49E9,docked_bike,2023-06-18 19:24:32,2023-06-18 19:50:36,Pier 40 - Hudson River Park,5696.03,West St & Liberty St,5184.08,40.727714,-74.011296,40.711444,-74.014847,casual
583583676FF94C28,classic_bike,2023-06-05 10:26:06,2023-06-05 10:32:52,Fulton St & Waverly Ave,4345.11,Flushing Ave & Vanderbilt Ave,4762.05,40.68323865460341,-73.96599590778351,40.69795031569544,-73.97077560424805,member
80AFCFD89DE13CA4,classic_bike,2023-06-27 19:34:56,2023-06-27 19:53:31,E 138 St & Willow Ave,7654.04,W 147 St & Adam Clayton Powell Blvd,7971.07,40.804168,-73.911545,40.82281,-73.937413,member
073F4398C707F94C,classic_bike,2023-06-06 20:39:38,2023-06-06 20:48:22,5 Ave & E 72 St,7100.07,Central Park West & W 85 St,7354.01,40.77282817,-73.96685276,40.78476,-73.969862,casual
2CB6D19CA590D274,classic_bike,2023-06-28 16:25:13,2023-06-28 16:47:54,W 25 St & 6 Ave,6215.04,Clinton St & Cherry St,5190.09,40.743558049,-73.991631031,40.711471394469264,-73.98672603070736,member
AB7539787DF4FF36,classic_bike,2023-06-27 17:23:01,2023-06-27 17:33:31,W 33 St & 10 Ave,6492.04,W 18 St & 6 Ave,6064.08,40.75377336836039,-73.99937599897385,40.73971301,-73.99456405,member
7A8DDB44EFACC19D,electric_bike,2023-06-26 19:39:24,2023-06-26 19:52:31,Vesey Pl & River Terrace,5297.02,University Pl & E 14 St,5905.14,40.7153379,-74.01658354,40.734814,-73.992085,member
E15212888991B479,electric_bike,2023-06-07 16:56:26,2023-06-07 17:08:34,W 20 St & 5 Ave,6098.02,Rivington St & Chrystie St,5453.01,40.73972989238724,-73.99103969335556,40.72110063,-73.9919254,member
630A093A9E1AC384,classic_bike,2023-06-20 18:08:29,2023-06-20 18:14:40,Cliff St & Fulton St,5065.14,Market St & Cherry St,5198.04,40.70838,-74.00495,40.71076228,-73.99400398,member
F8E56140235CBCB1,electric_bike,2023-06-28 07:31:26,2023-06-28 07:38:32,E 4 St & Ave B,5515.08,Broadway & E 21 St,6098.10,40.72334683218016,-73.98265913128853,40.73988840858996,-73.98958593606949,member
66ACDEB7858A234D,classic_bike,2023-06-19 09:46:51,2023-06-19 09:53:58,Madison St & Cypress Ave,4807.02,Knickerbocker Ave & Halsey St,4623.02,40.700642824,-73.907391548,40.693,-73.90824,casual
07FA9CC03A9AD420,classic_bike,2023-06-03 10:21:00,2023-06-03 10:31:24,Fulton St & William St,5137.11,Cherry St,5181.04,40.70960089363537,-74.00655090808868,40.71219906,-73.97948148,member
D65B1DF7F066B3C6,classic_bike,2023-06-19 21:18:41,2023-06-19 21:33:55,Lexington Ave & E 36 St,6313.1,E 5 St & Ave A,5626.06,40.7475739589548,-73.9788007736206,40.72479007746337,-73.98430064320564,member
2C836A2054E7E71F,classic_bike,2023-06-26 01:00:00,2023-06-26 01:04:18,Madison Ave & E 99 St,7443.01,E 97 St & 3 Ave,7365.08,40.78948541553215,-73.95242929458618,40.7859201,-73.94860294,member
57456AF094E02205,classic_bike,2023-06-02 23:16:54,2023-06-02 23:36:54,E 40 St & Park Ave,6432.11,Great Jones St,5636.11,40.750756,-73.978326,40.72743423,-73.99379025,member
9660760BA0DC9249,classic_bike,2023-06-07 19:54:34,2023-06-07 20:03:18,Lexington Ave & E 36 St,6313.1,W 47 St & 9 Ave,6786.02,40.747479796,-73.979090691,40.76153045158114,-73.99007007479668,member
BD19CEAF343AABCB,classic_bike,2023-06-28 17:20:44,2023-06-28 17:30:44,Madison St & Clinton St,5190.07,Centre St & Worth St,5279.03,40.71269042,-73.98776323,40.71494807,-74.00234482,member
F89A5D3397508E1E,classic_bike,2023-06-22 19:00:45,2023-06-22 19:03:28,N 7 St & Driggs Ave,5340.01,Driggs Ave & S 2 St,5235.10,40.716967,-73.956388,40.712628,-73.960575,member
30D90305596658E0,classic_bike,2023-06-11 16:13:22,2023-06-11 16:22:45,Broadway & Whipple St,4883.03,Flushing Ave & Vanderbilt Ave,4762.05,40.701658368,-73.943833828,40.69795031569544,-73.97077560424805,member
6AE1C79757671C25,classic_bike,2023-06-01 18:56:59,2023-06-01 19:10:42,Jerome Ave & W 193 St,8619.02,Jerome Ave & W 193 St,8619.02,40.86651206,-73.898010612,40.86659,-73.89794,member
DE830FA1BB3AB7B9,electric_bike,2023-06-04 18:19:29,2023-06-04 18:29:22,Clinton St & Tillary St,4748.07,Pacific St & Smith St,4446.03,40.69623297129316,-73.99142056703568,40.687880939612775,-73.98939281702042,casual
3349835E73DCD334,classic_bike,2023-06-17 14:09:47,2023-06-17 15:07:13,Roosevelt Island Tramway,6599.01,Roosevelt Island Tramway,6599.01,40.757284,-73.9536,40.757284,-73.9536,casual
A4C94139E66F984C,electric_bike,2023-06-04 23:34:57,2023-06-04 23:48:05,7 Ave & W 55 St,6847.05,Central Park W & W 103 St,7577.27,40.764126,-73.980973,40.79558954105342,-73.96188408136368,member
6F57EEDB8E2B34AF,classic_bike,2023-06-29 19:41:33,2023-06-29 19:48:53,W 37 St & 10 Ave,6611.02,Broadway & W 53 St,6779.05,40.756791115,-73.998148084,40.76344058,-73.98268129,member
9C3BDDA9555C0DF0,classic_bike,2023-06-21 07:23:58,2023-06-21 07:31:23,31 Ave & 34 St,6819.15,Vernon Blvd & 31 Ave,7003.06,40.763154,-73.920827,40.7692475,-73.9354504,member
FBE755A5469D26CC,classic_bike,2023-06-22 18:00:02,2023-06-22 18:29:46,Kent Ave & Grand St,5388.01,E 9 St & 5 Ave,5872.10,40.716422915,-73.965891361,40.73275887045087,-73.99581670761108,casual
AF51BD3A75E17B99,classic_bike,2023-06-20 17:36:52,2023-06-20 17:47:28,W 51 St & 6 Ave,6740.1,W 53 St & 10 Ave,6890.01,40.7606597,-73.98042047,40.76669671,-73.99061728,member
8302D381C862EF92,classic_bike,2023-06-02 12:08:57,2023-06-02 12:36:49,W 22 St & 8 Ave,6224.03,7 Ave & Central Park South,6912.01,40.74475148,-73.99915362,40.7667405590595,-73.9790689945221,casual
B00F77902089B6F7,classic_bike,2023-06-07 17:35:13,2023-06-07 17:49:21,6 Ave & W 45 St,6593.15,W 22 St & 10 Ave,6306.06,40.756951,-73.982631,40.74691959,-74.00451887,member
1794E629C7521953,classic_bike,2023-06-14 11:50:01,2023-06-14 11:58:01,River Ter & Warren St,5368.03,Liberty St & Broadway,5105.01,40.71759894980997,-74.01587963104248,40.70905623,-74.01043382,member
32335D97F0835125,classic_bike,2023-06-20 11:50:00,2023-06-20 13:39:57,Hudson St & W 13 St,6115.06,8 Ave & W 16 St,6072.11,40.74005708567285,-74.0052741765976,40.740983,-74.001702,casual
3C33319645AAC272,classic_bike,2023-06-06 11:53:53,2023-06-06 12:27:18,Bronx Shore Comfort Station,7618.01,E 118 St & 3 Ave,7611.02,40.800600886,-73.924005508,40.799139,-73.9389152,member
19C4B712710B469E,classic_bike,2023-06-08 12:49:21,2023-06-08 12:52:48,W 42 St & Dyer Ave,6644.07,W 42 St & 6 Ave,6517.08,40.758749843,-73.993562818,40.75492,-73.98455,member
7C618DBB5B6EB234,classic_bike,2023-06-30 09:06:26,2023-06-30 09:09:29,Washington Park,4546.05,Lafayette Ave & Ft Greene Pl,4470.09,40.691912651,-73.973760247,40.68700231292619,-73.97664964199066,member
CC3CAC4692F6D2A3,electric_bike,2023-06-08 19:15:17,2023-06-08 19:21:42,7 St & 5 Ave,3914.02,West Drive & Prospect Park West,3651.04,40.6704922,-73.98541675,40.6610633719006,-73.97945255041122,member
0778B7A9F30BA515,classic_bike,2023-06-21 17:48:38,2023-06-21 18:06:11,Degraw St & 3 Ave,4217.06,Eastern Pkwy & Kingston Ave,3902.06,40.679735422,-73.984726667,40.66959,-73.94237,member
4BFC75EF3FC96A64,classic_bike,2023-06-16 23:30:27,2023-06-16 23:32:56,8 Ave & W 38 St,6526.05,W 42 St & 8 Ave,6602.05,40.75461,-73.99177,40.7575699,-73.99098507,member
33CB2C633D1D0DDF,classic_bike,2023-06-23 10:54:12,2023-06-23 10:59:30,DeKalb Ave & Hudson Ave,4513.06,Plaza St West & Flatbush Ave,4010.13,40.689842463,-73.981194854,40.6750207,-73.97111473,member
5BC07C09A5329989,classic_bike,2023-06-06 21:11:06,2023-06-06 21:13:26,University Pl & E 8 St,5755.14,Cooper Square & Astor Pl,5712.03,40.73143724085228,-73.99490341544151,40.72951496224949,-73.99075269699097,member
D265627F51B7B010,classic_bike,2023-06-23 17:59:44,2023-06-23 18:03:37,Lenox Ave & W 126 St,7720.03,St. Nicholas Ave & W 126 St,7756.1,40.808442,-73.9452087,40.8114323,-73.9518776,member
47CF82E03405F754,classic_bike,2023-06-09 18:05:27,2023-06-09 18:16:48,Broadway & Berry St,5164.05,Graham Ave & Grand St,5178.06,40.71036129922581,-73.96530389785767,40.711863,-73.944024,member
6320BFFE94935BF6,classic_bike,2023-06-03 06:55:13,2023-06-03 07:00:51,St Nicholas Ave & W 134 St,7837.3,W 116 St & Broadway,7713.11,40.816161752,-73.948289633,40.8082,-73.9641,member
F1A5F3C44B71742F,classic_bike,2023-06-29 22:16:16,2023-06-29 22:18:55,31 St & Ditmars Blvd,7144.02,21 Ave & Crescent St,7284.01,40.776168,-73.910485,40.780478,-73.912212,member
4D314D9A66C50C21,classic_bike,2023-06-22 14:33:37,2023-06-22 14:59:17,Southern Blvd & E 174 St,8163.05,E Mosholu Pkwy & Van Cortlandt Ave E,8778.01,40.836828828,-73.88790071,40.87656,-73.88366,member
3777BDC2D4937D33,classic_bike,2023-06-07 19:34:00,2023-06-07 19:49:02,E 48 St & 3 Ave,6541.03,Lafayette St & E 8 St,5788.13,40.755102038,-73.971947312,40.73020660529954,-73.99102628231049,casual
8466CCCB12A085B3,classic_bike,2023-06-07 09:17:35,2023-06-07 09:18:43,W 51 St & 6 Ave,6740.1,Broadway & W 51 St,6779.04,40.76091373,-73.980488777,40.76228826,-73.98336183,member
B719C7AFE946A7CD,classic_bike,2023-06-16 10:03:46,2023-06-16 10:06:24,Columbia St & Degraw St,4422.04,Atlantic Ave & Furman St,4614.04,40.6859296,-74.00242364,40.69165183,-73.9999786,member
E7896F51E19876CE,classic_bike,2023-06-28 20:35:33,2023-06-28 20:53:54,Kenmare St & Elizabeth St,5453.06,Bedford Ave & Nassau Ave,5550.05,40.72054,-73.9949,40.72311651,-73.95212324,member
10A7AC6E7FEF586C,classic_bike,2023-06-28 15:15:29,2023-06-28 15:32:28,2 Ave & E 29 St,6122.09,W 42 St & Dyer Ave,6644.07,40.741723895,-73.978095293,40.75898481399634,-73.99379968643188,casual
5520DC9D89F7AFDB,electric_bike,2023-06-07 17:16:36,2023-06-07 17:24:29,Vesey St & Church St,5216.06,Greenwich St & W Houston St,5730.08,40.71221958009051,-74.01047229766846,40.728846,-74.008591,member
8FB4E11784B99F38,classic_bike,2023-06-15 17:41:38,2023-06-15 17:57:01,6 Ave & W 33 St,6364.07,Broadway & W 58 St,6948.10,40.74901271,-73.98848395,40.76695317,-73.98169333,member
D8113300F213C67B,classic_bike,2023-06-27 20:13:54,2023-06-27 20:26:50,Walker St & Baxter St,5351.07,E 6 St & 2 Ave,5669.12,40.717411,-73.999573,40.72737869323223,-73.98840844631195,member
3BC8B765B4F662B9,electric_bike,2023-06-17 10:33:47,2023-06-17 10:35:46,43 St & Skillman Ave,6325.01,46 St & Queens Blvd,6209.08,40.74692675687384,-73.9208248257637,40.74349759836971,-73.91860529780388,member
835A97FCB131F865,classic_bike,2023-06-21 16:42:42,2023-06-21 16:51:14,Norfolk St & Broome St,5374.01,Vesey St & Church St,5216.06,40.717264056,-73.987899899,40.71221958009051,-74.01047229766846,member
5379668EFF66A7FC,classic_bike,2023-06-06 15:53:05,2023-06-06 16:00:09,Bergen St & Flatbush Ave,4281.08,Underhill Ave & Pacific St,4231.04,40.680944723477296,-73.97567331790923,40.6804836,-73.9646795,member
49DF341B49323D63,classic_bike,2023-06-26 12:16:37,2023-06-26 12:44:19,E 77 St & 1 Ave,7020.02,E 32 St & Park Ave,6280.12,40.77095553869235,-73.95356208096926,40.7457121,-73.98194829,member
D54A028295E00A69,electric_bike,2023-06-11 15:09:18,2023-06-11 15:10:18,Astoria Park S & Shore Blvd,7159.08,Astoria Park S & Shore Blvd,7159.08,40.7767,-73.927631,40.7767,-73.927631,casual
D55FC173A95E8116,electric_bike,2023-06-13 13:46:43,2023-06-13 13:47:29,Broadway & E 21 St,6098.1,Broadway & E 21 St,6098.1,40.73988840858996,-73.98958593606949,40.73988840858996,-73.98958593606949,member
7DB729F31E232F1C,classic_bike,2023-06-05 14:17:36,2023-06-05 14:24:07,E 9 St & 5 Ave,5872.10,E 23 St & 1 Ave,5929.01,40.732917547,-73.995639086,40.736502,-73.97809472,member
9788451A37C4155D,classic_bike,2023-06-30 17:35:14,2023-06-30 17:37:59,W 37 St & 10 Ave,6611.02,9 Ave & W 39 St,6644.08,40.75660359,-73.9979009,40.756403523272496,-73.99410143494606,member
5CFD17FAFFB343F9,classic_bike,2023-06-13 20:05:11,2023-06-13 20:39:18,Washington Park,4546.05,India St & Manhattan Ave,5826.02,40.6917823,-73.9737299,40.73232194,-73.9550858,casual
6081537D4CE335B0,classic_bike,2023-06-01 19:43:23,2023-06-01 19:56:58,Washington St & Laight St,5509.02,8 Ave & W 16 St,6072.11,40.72231,-74.0106,40.740983,-74.001702,member
32EC3B4AE3E7B233,docked_bike,2023-06-25 12:58:56,2023-06-25 13:42:09,Lafayette Ave & Ft Greene Pl,4470.09,Front St & Jay St,4895.03,40.687002,-73.97665,40.702461,-73.986842,casual
3867EB4FC35E3431,classic_bike,2023-06-15 05:23:34,2023-06-15 05:26:01,10 Ave & W 28 St,6459.04,W 34 St & Hudson Blvd E,6535.04,40.750505805,-74.001964569,40.75516719072139,-74.00059908628464,member
D30F71A2900F5CCC,classic_bike,2023-06-09 16:23:54,2023-06-09 16:43:22,Lafayette St & Jersey St,5561.06,W 31 St & 7 Ave,6331.01,40.72456089,-73.99565293,40.749156,-73.9916,member
B31834A55F264389,classic_bike,2023-06-04 05:45:10,2023-06-04 05:47:31,Hamilton Pl & W 140 St,7959.18,W 148 St & Amsterdam Ave,8033.09,40.822808981,-73.951298356,40.827075,-73.945909,member
C910BA4AF61DAACA,classic_bike,2023-06-07 22:59:23,2023-06-07 23:03:22,W 49 St & 8 Ave,6747.06,W 46 St & 11 Ave,6795.01,40.76227205,-73.98788205,40.76341379,-73.99667444,member
6747198EEFD4C209,classic_bike,2023-06-19 19:42:52,2023-06-19 19:53:21,W 56 St & 6 Ave,6809.07,E 72 St & Park Ave,6998.08,40.76340613,-73.97722479,40.77118287540658,-73.96409422159195,member
25A087513EC8926E,classic_bike,2023-06-11 11:44:00,2023-06-11 12:18:27,E 14 St & 1 Ave,5779.1,W 70 St & Amsterdam Ave,7207.08,40.731354117,-73.982752204,40.77748046,-73.98288594,member
145DC093B8460455,classic_bike,2023-06-20 18:38:07,2023-06-20 18:44:56,W 40 St & 7 Ave,6560.14,11 Ave & W 41 St,6726.01,40.754818,-73.988154,40.76030096,-73.99884222,member
C04470132165EB75,classic_bike,2023-06-11 15:37:29,2023-06-11 15:47:23,W 37 St & 10 Ave,6611.02,W 56 St & 10 Ave,6955.01,40.75660359,-73.9979009,40.768254,-73.988639,member
46849F4554EF3288,classic_bike,2023-06-26 08:55:02,2023-06-26 09:00:28,E 25 St & 2 Ave,6046.02,Broadway & E 21 St,6098.10,40.73912601,-73.97973776,40.73988840858996,-73.98958593606949,member
55AC1B0BA606E5C0,classic_bike,2023-06-14 16:48:28,2023-06-14 17:10:16,Madison Av & E 51 St,6659.09,E 102 St & 1 Ave,7407.13,40.758849144,-73.975263,40.7869946,-73.94164802,member
02AD34AD2481BC51,electric_bike,2023-06-04 16:22:08,2023-06-04 16:34:43,5 Ave & E 87 St,7323.09,W 89 St & Columbus Ave,7432.09,40.78232260730881,-73.95987510681152,40.7882213,-73.97041561,member
10C4E6E0C14ECCD7,electric_bike,2023-06-14 17:42:56,2023-06-14 17:46:00,1 Ave & E 68 St,6822.09,E 65 St & 2 Ave,6860.12,40.76500525,-73.95818491,40.76471851944339,-73.96222069859505,member
0E72DBA31F79A48C,classic_bike,2023-06-04 13:32:48,2023-06-04 13:52:34,Queens Plaza North & Crescent St,6429.01,31 Ave & Steinway St,6782.01,40.75110165,-73.94073717,40.7611488,-73.9170071,casual
6EE179B578231FF8,classic_bike,2023-06-24 18:10:54,2023-06-24 18:45:51,Caton Ave & Bedford Ave,3368.04,Smith St & 3 St,4151.01,40.65237,-73.95623,40.6787242,-73.99599099,casual
F95794DD618EEC3A,classic_bike,2023-06-24 11:18:49,2023-06-24 11:20:27,1 Ave & E 30 St,6079.03,2 Ave & E 29 St,6122.09,40.74144387,-73.97536082,40.74172351097472,-73.97809267044067,member
4FA5EB55EBD0C42D,classic_bike,2023-06-03 15:53:13,2023-06-03 16:00:52,E 67 St & Park Ave,6932.14,E 63 St & 3 Ave,6830.02,40.76780080148132,-73.96592080593109,40.763954,-73.9646,member
72B6B02815EE49D9,classic_bike,2023-06-30 04:46:57,2023-06-30 05:01:24,Greenpoint Ave & Manhattan Ave,5785.05,Bedford Ave & Nassau Ave,5550.05,40.730244994,-73.954108715,40.72311651,-73.95212324,member
A2CABFD28B167610,classic_bike,2023-06-11 08:45:25,2023-06-11 09:02:18,Ditmars Blvd & 79 St,6994.06,37 Ave & 35 St,6529.02,40.768727303,-73.890772581,40.7531106,-73.9279917,member
2680EE8443FD2607,classic_bike,2023-06-25 19:13:07,2023-06-25 19:14:43,Greenwich Ave & 8 Ave,6072.06,8 Ave & W 16 St,6072.11,40.7390169121,-74.0026376103,40.740983,-74.001702,member
4100709BBE4D356E,classic_bike,2023-06-25 09:18:56,2023-06-25 09:36:57,6 Ave & Broome St,5610.09,West St & Liberty St,5184.08,40.72431,-74.00473,40.711444,-74.014847,member
DC65BB67A83455C7,classic_bike,2023-06-08 21:24:03,2023-06-08 21:30:40,Broadway & E 19 St,6098.12,E 23 St & 1 Ave,5929.01,40.73866091428551,-73.98987293243407,40.736502,-73.97809472,member
5FC45BDCCBBD5861,classic_bike,2023-06-03 23:23:37,2023-06-03 23:32:54,Fulton St & Broadway,5175.08,South St & Whitehall St,4846.01,40.711066,-74.009447,40.70122128,-74.01234218,member
5D05A29BA632766D,classic_bike,2023-06-25 15:52:34,2023-06-25 17:09:57,Walker St & Baxter St,5351.07,Marcy Ave & Lafayette Ave,4476.03,40.717508078,-74.000115395,40.6900815,-73.947915,member
44400B14E192B345,electric_bike,2023-06-10 20:46:55,2023-06-10 21:03:43,E 13 St & 2 Ave,5820.08,E 72 St & Park Ave,6998.08,40.73153937464073,-73.9853024482727,40.77118287540658,-73.96409422159195,member
BC8333C83F3BDF75,classic_bike,2023-06-15 18:50:47,2023-06-15 19:13:25,Pulaski St & Marcus Garvey Blvd,4656.03,Cypress Ave & George St,4765.07,40.6933982,-73.939877,40.69812,-73.90271,casual
19982CA931D8D8EE,classic_bike,2023-06-10 11:01:42,2023-06-10 11:14:53,10 Ave & W 14 St,6157.04,W 42 St & Dyer Ave,6644.07,40.741725683,-74.008492827,40.75898481399634,-73.99379968643188,member
FAE8B57D9DB2BA74,classic_bike,2023-06-15 21:20:14,2023-06-15 21:27:00,N 12 St & Bedford Ave,5450.04,Hope St & Union Ave,5187.03,40.72079821,-73.95484712,40.71167351,-73.95141312,member
E8675E3E1B556E2B,classic_bike,2023-06-13 05:56:56,2023-06-13 06:19:56,Jerome Ave & W Fordham Rd,8586.09,Grand Concourse & E 192 St,8601.04,40.86294,-73.90108,40.86448,-73.89522,member
33E2FB2C21581846,classic_bike,2023-06-09 04:23:28,2023-06-09 04:26:13,Wilson Ave & Troutman St,4864.09,Hart St & Wyckoff Ave,4971.01,40.70166,-73.92754,40.704876,-73.919911,member
79D64070E111FC8B,classic_bike,2023-06-28 18:11:00,2023-06-28 18:11:05,Amsterdam Ave & W 66 St,7149.05,Amsterdam Ave & W 66 St,7149.05,40.774434209,-73.984713554,40.7746671,-73.98470567,member
9CB92267D4730D8B,classic_bike,2023-06-17 19:07:03,2023-06-17 19:09:57,Pike St & E Broadway,5270.05,Clinton St & Grand St,5303.06,40.71406667,-73.99293911,40.71559509,-73.9870295,member
C13A3A9A7194D25D,classic_bike,2023-06-04 07:55:04,2023-06-04 08:04:07,Westchester Ave & Longwood Ave,7909.07,Grand Concourse & East Mount Eden Ave,8265.09,40.819785595,-73.901103377,40.84301,-73.91172,member
E975C15DFF2908CA,classic_bike,2023-06-12 17:16:15,2023-06-12 17:20:54,W 31 St & 7 Ave,6331.01,9 Ave & W 45 St,6717.06,40.748821259,-73.991787434,40.76019252,-73.9912551,member
9C822CA2E9725530,classic_bike,2023-06-27 05:19:46,2023-06-27 05:21:53,Madison Ave & E 120 St,7667.04,Park Ave & E 124 St,7682.01,40.80295,-73.942954,40.8045555,-73.9396861,member
C9B34DDEA189D0B2,classic_bike,2023-06-14 20:20:50,2023-06-14 20:28:23,Broadway & W 56 St,6847.02,West End Ave & W 60 St,7059.08,40.765201688,-73.9827528,40.77237,-73.99005,member
888FB486447A62F3,classic_bike,2023-06-17 17:43:05,2023-06-17 18:05:52,Central Park S & 6 Ave,6876.04,Central Park S & 6 Ave,6876.04,40.76590936,-73.97634151,40.76590936,-73.97634151,casual
35F02324D86349E7,classic_bike,2023-06-13 19:48:29,2023-06-13 19:52:58,Morton St & Washington St,5772.05,8 Ave & W 16 St,6072.11,40.73115,-74.00887,40.740983,-74.001702,member
2AEA9C122F02065B,electric_bike,2023-06-19 19:48:58,2023-06-19 19:49:23,W 10 St & Washington St,5847.06,W 10 St & Washington St,5847.06,40.73342399437081,-74.00851495563984,40.73342399437081,-74.00851495563984,member
63F542BA13A90A1E,classic_bike,2023-06-25 22:16:08,2023-06-25 22:35:24,7 Ave & Park Pl,4125.07,Wilson Ave & Troutman St,4864.09,40.67413031666667,-73.9787402,40.70166,-73.92754,member
D8E935FC0486E2D9,classic_bike,2023-06-06 15:53:55,2023-06-06 16:08:18,2 Ave & E 31 St,6197.02,W 45 St & 8 Ave,6676.02,40.743121505,-73.977071524,40.75929124,-73.98859651,casual
C6CC5193F943D103,classic_bike,2023-06-09 16:17:37,2023-06-09 16:19:51,W 106 St & Amsterdam Ave,7634.01,W 107 St & Columbus Ave,7619.05,40.8008363,-73.9664492472,40.7997568,-73.9621128676,member
C61A279D428ECB17,electric_bike,2023-06-17 20:15:11,2023-06-17 20:39:07,Centre St & Worth St,5279.03,Bond St & Fulton St,4479.06,40.71494807,-74.00234482,40.6896218879,-73.9830426872,member
0B8D4F2D9A978D27,classic_bike,2023-06-04 03:14:51,2023-06-04 03:26:21,S 4 St & Roebling St,5195.06,Marcy Ave & Lafayette Ave,4476.03,40.710709,-73.959724,40.6900815,-73.947915,member
B44630B347FDF8D1,classic_bike,2023-06-13 18:15:21,2023-06-13 18:26:37,Amsterdam Ave & W 125 St,7800.03,W 106 St & Central Park West,7606.01,40.813358,-73.956461,40.7981856,-73.9605909006,member
1B13507633537258,classic_bike,2023-06-01 20:14:56,2023-06-01 20:22:10,Prospect Park W & 20 St,3507.04,36 St & 3 Ave,3460.02,40.656644702,-73.983855963,40.655716,-74.006664,member
F0810C8C98799A3B,classic_bike,2023-06-15 20:36:41,2023-06-15 20:49:31,Vesey St & Church St,5216.06,Allen St & Hester St,5342.10,40.71221958009051,-74.01047229766846,40.71605866,-73.99190759,member
00E8DEC1C59E98C7,classic_bike,2023-06-22 08:26:16,2023-06-22 08:33:21,W 27 St & 7 Ave,6247.06,W 18 St & 6 Ave,6064.08,40.746647,-73.993915,40.73971301,-73.99456405,member
712824E1BE6049F1,electric_bike,2023-06-04 11:18:30,2023-06-04 11:26:29,W 34 St & 11 Ave,6578.01,W 47 St & 9 Ave,6786.02,40.75594159,-74.0021163,40.76153045158114,-73.99007007479668,member
CCFE10A942BF8FA6,classic_bike,2023-06-07 19:43:41,2023-06-07 20:10:19,8 Ave & W 27 St,6297.07,8 Ave & W 27 St,6297.07,40.747968,-73.996637,40.747968,-73.996637,member
33F0C055A565734F,classic_bike,2023-06-04 13:25:58,2023-06-04 14:36:17,W 4 St & 7 Ave S,5880.02,Old Fulton St,4903.08,40.73401143,-74.00293877,40.70277159,-73.99383605,member
869037E520285396,classic_bike,2023-06-09 20:32:45,2023-06-09 20:44:52,Tompkins Ave & Hopkins St,4850.04,McKibbin St & Bogart St,5059.02,40.699663877,-73.947122931,40.706237,-73.933871,casual
C54764E18749A919,classic_bike,2023-06-11 16:26:44,2023-06-11 16:34:34,S 3 St & Bedford Ave,5235.05,Banker St & Meserole Ave,5633.04,40.71260486,-73.96264403,40.72606,-73.95621,member
2947507A17D75467,classic_bike,2023-06-20 08:16:45,2023-06-20 08:27:13,Riverside Blvd & W 67 St,7183.03,7 Ave & Central Park South,6912.01,40.777507027547976,-73.98888587951659,40.7667405590595,-73.9790689945221,casual
885126C27EFC045F,classic_bike,2023-06-12 06:51:49,2023-06-12 06:52:54,E 50 St & Park Ave,6659.10,E 51 St & Lexington Ave,6659.01,40.757334,-73.974235,40.75714758,-73.97207836,member
662970BD1A5E0269,classic_bike,2023-06-30 15:55:48,2023-06-30 15:59:38,University Pl & E 8 St,5755.14,Lafayette St & Jersey St,5561.06,40.73143724085228,-73.99490341544151,40.72456089,-73.99565293,member
7D79301F7757032D,electric_bike,2023-06-09 18:51:37,2023-06-09 18:54:48,E 4 St & 2 Ave,5593.04,Lafayette St & Jersey St,5561.06,40.7262807,-73.98978041,40.72456089,-73.99565293,member
9F57E180C3D9EB44,classic_bike,2023-06-29 06:09:45,2023-06-29 06:11:57,Frederick Douglass Blvd & W 115 St,7658.13,St Nicholas Ave & Manhattan Ave,7723.01,40.8038654,-73.9559308,40.809725,-73.953149,member
691F606911666D89,classic_bike,2023-06-30 11:06:59,2023-06-30 11:10:30,7 Ave & Central Park South,6912.01,7 Ave & Central Park South,6912.01,40.7667405590595,-73.9790689945221,40.7667405590595,-73.9790689945221,casual
24483E2C882904A4,classic_bike,2023-06-28 19:34:22,2023-06-28 19:38:21,Suffolk St & Stanton St,5445.02,Bialystoker Pl & Delancey St,5335.03,40.72066442,-73.98517977,40.71622644,-73.98261206,member
D11720E06F7FFEB9,electric_bike,2023-06-21 13:37:26,2023-06-21 13:52:44,Clermont Ave & Park Ave,4692.01,Carlton Ave & Park Ave,4732.04,40.69573398,-73.97129668,40.69580705,-73.97355569,casual
799CC09D751CE173,classic_bike,2023-06-26 07:09:58,2023-06-26 07:19:13,E 10 St & Avenue A,5659.05,E 20 St & Park Ave,6055.08,40.72740794,-73.98142006,40.73827428,-73.98751968,member
B26003B8FB2714B3,classic_bike,2023-06-13 07:40:41,2023-06-13 07:46:37,Madison Av & E 51 St,6659.09,7 Ave & W 55 St,6847.05,40.75863,-73.97513,40.764126,-73.980973,member
327575B29D2C5BF0,classic_bike,2023-06-04 19:22:44,2023-06-04 19:26:24,Thompson St & Bleecker St,5721.07,Washington Square E,5755.09,40.72840059450829,-73.99968780577183,40.73049393,-73.9957214,member
CAEAB64CA0744265,classic_bike,2023-06-01 22:13:58,2023-06-01 22:14:00,Carlton Ave & Park Ave,4732.04,Carlton Ave & Park Ave,4732.04,40.69580705,-73.97355569,40.69580705,-73.97355569,member
F8789F3FD29D3929,classic_bike,2023-06-05 17:57:42,2023-06-05 18:05:45,St Marks Pl & 1 Ave,5626.13,Allen St & Hester St,5342.10,40.727870226,-73.985678673,40.71605866,-73.99190759,member
6D436C7FF9D3270D,electric_bike,2023-06-10 12:24:45,2023-06-10 13:02:52,Grove St & Broadway,4526.01,Stuyvesant Ave & Gates Ave,4458.06,40.69047,-73.923511,40.68834,-73.93306,member
15E76C57F463C85F,classic_bike,2023-06-26 10:29:55,2023-06-26 10:33:47,8 Ave & W 33 St,6450.12,W 45 St & 8 Ave,6676.02,40.751551,-73.993934,40.75929124,-73.98859651,member
AAD9678605612B6B,classic_bike,2023-06-02 16:59:17,2023-06-02 17:03:49,Kent Ave & N 7 St,5489.03,N 6 St & Bedford Ave,5379.10,40.720634341,-73.961449265,40.71745169,-73.95850939,member
EA679455E5939F84,classic_bike,2023-06-24 21:55:34,2023-06-24 22:23:19,Central Park S & 6 Ave,6876.04,31 St & Thomson Ave,6227.02,40.76590936,-73.97634151,40.74469738,-73.93540375,member
EE3B4668BF63EE91,classic_bike,2023-06-22 15:35:34,2023-06-22 15:42:22,E 30 St & Park Ave S,6206.08,E 23 St & 1 Ave,5929.01,40.74444921,-73.98303529,40.736502,-73.97809472,member
1E463FD5D7AC6FCA,classic_bike,2023-06-17 10:30:58,2023-06-17 10:33:55,Monroe St & Tompkins Ave,4434.06,Marcy Ave & Lafayette Ave,4476.03,40.686203,-73.944694,40.6900815,-73.947915,member
DCD7B55C95F54FD3,classic_bike,2023-06-15 19:56:51,2023-06-15 20:15:19,W 42 St & 6 Ave,6517.08,W 87 St & Amsterdam Ave,7458.03,40.754856467,-73.984622836,40.78839,-73.9747,member
BE059153881DD681,classic_bike,2023-06-03 20:26:06,2023-06-03 20:34:46,Allen St & Rivington St,5414.06,1 Ave & E 16 St,5779.08,40.72019576,-73.98997825,40.73221853,-73.98165557,member
CF799668D2A39890,classic_bike,2023-06-30 07:47:08,2023-06-30 08:46:54,31 Ave & 30 St,6857.09,Grand Army Plaza & Central Park S,6839.10,40.76465416,-73.923898697,40.7643971,-73.97371465,member
173B7BA7CCCAB1B1,classic_bike,2023-06-08 19:25:48,2023-06-08 20:17:54,Newton Rd & 44 St,6743.06,46 St & 28 Ave,6842.02,40.7596066,-73.914381027,40.763328,-73.908782,member
A22F9D987E1E722B,electric_bike,2023-06-30 20:15:43,2023-06-30 20:24:24,Lenox Ave & W 126 St,7720.03,W 147 St & Adam Clayton Powell Blvd,7971.07,40.808442,-73.9452087,40.82281,-73.937413,casual
D4442AA41B635181,classic_bike,2023-06-23 07:49:16,2023-06-23 08:17:57,Adelphi St & Myrtle Ave,4620.02,E 17 St & Broadway,5980.07,40.692971349,-73.971901417,40.73704984,-73.99009296,member
E43D2BB7BDC825EE,classic_bike,2023-06-15 11:57:10,2023-06-15 12:18:53,West End Ave & W 60 St,7059.08,10 Ave & W 14 St,6157.04,40.77237,-73.99005,40.74198159994023,-74.00831580162048,casual
88B451F81C8BE330,electric_bike,2023-06-28 20:18:00,2023-06-28 20:43:47,Amsterdam Ave & W 79 St,7311.02,Rivington St & Chrystie St,5453.01,40.7829391,-73.9786517,40.72110063,-73.9919254,member
81D0BBC54A5AE554,classic_bike,2023-06-18 16:18:19,2023-06-18 16:45:39,35 Ave & 37 St,6563.12,Roosevelt Island Tramway,6599.01,40.7557327,-73.9236611,40.757284,-73.9536,casual
EFB099D913BDD11A,electric_bike,2023-06-29 16:12:16,2023-06-29 16:15:27,University Pl & E 8 St,5755.14,Cooper Square & Astor Pl,5712.03,40.73143724085228,-73.99490341544151,40.72951496224949,-73.99075269699097,member
5C5B373447042043,classic_bike,2023-06-25 06:53:06,2023-06-25 07:02:02,10 Ave & W 14 St,6157.04,University Pl & E 14 St,5905.14,40.74198159994023,-74.00831580162048,40.734814,-73.992085,member
F4EB48EBD3C8A8BD,classic_bike,2023-06-06 07:26:16,2023-06-06 08:10:56,Bushwick Ave & Harman St,4640.01,E 77 St & 3 Ave,7092.06,40.693595648,-73.92528522,40.77314236,-73.95856158,member
480A0E1B25D51B86,classic_bike,2023-06-30 17:25:26,2023-06-30 17:38:23,E 17 St & Broadway,5980.07,W 42 St & Dyer Ave,6644.07,40.73704984,-73.99009296,40.75898481399634,-73.99379968643188,member
D46BB8E0CC9A145D,electric_bike,2023-06-23 08:21:12,2023-06-23 08:30:18,E 82 St & East End Ave,7049.04,E 58 St & 3 Ave,6762.02,40.7724607,-73.9468208,40.76095756,-73.96724467,member
972BE99BFCEE3ECD,classic_bike,2023-06-15 21:51:17,2023-06-15 21:56:21,10 Ave & W 14 St,6157.04,W 10 St & Washington St,5847.06,40.74198159994023,-74.00831580162048,40.73342399437081,-74.00851495563984,member
37A59C0736EF6324,classic_bike,2023-06-25 13:39:17,2023-06-25 15:04:33,E 85 St & York Ave,7146.04,5 Ave & E 78 St,7161.08,40.77536905,-73.94803392,40.77632142182271,-73.96427392959595,casual
331BCE80296D570A,classic_bike,2023-06-01 19:42:04,2023-06-01 20:00:07,W 51 St & Rockefeller Plaza,6700.14,Ave A & E 14 St,5779.11,40.75973805251143,-73.97811613976955,40.73031071000895,-73.98047178983688,member
A27AC73230785A5D,classic_bike,2023-06-11 11:41:11,2023-06-11 11:43:42,20 Ave & 21 St,7363.04,21 Ave & Crescent St,7284.01,40.784003,-73.912297,40.780478,-73.912212,member
979A19F5DD97F8C3,classic_bike,2023-06-11 16:11:42,2023-06-11 16:24:20,W 218 St & Indian Rd,8732.04,Bainbridge Ave & E 193 St,8582.02,40.873044014,-73.918245912,40.86389,-73.89246,member
342E1AB0E4DA6650,classic_bike,2023-06-29 18:46:48,2023-06-29 18:49:31,E 103 St & Lexington Ave,7463.09,3 Ave & E 100 St,7414.17,40.790201545,-73.947546959,40.7877214,-73.94728331,member
0A560E0742602470,classic_bike,2023-06-23 09:38:53,2023-06-23 09:52:16,W 70 St & Amsterdam Ave,7207.08,7 Ave & Central Park South,6912.01,40.77748046,-73.98288594,40.7667405590595,-73.9790689945221,casual
A611877D438851C1,electric_bike,2023-06-13 22:06:09,2023-06-13 22:22:00,E 43 St & 2 Ave,6422.08,E 72 St & York Ave,6889.12,40.75022392,-73.97121414,40.76663814,-73.95348296,member
F20E849698E8F1A3,classic_bike,2023-06-28 18:21:07,2023-06-28 18:30:01,Walker St & Baxter St,5351.07,Vesey St & Church St,5216.06,40.717411,-73.999573,40.71221958009051,-74.01047229766846,member
48166E3D4101410A,classic_bike,2023-06-19 19:38:27,2023-06-19 19:49:28,Brooklyn Ave & Prospect Pl,4057.04,St Johns Pl & Utica Ave,3966.01,40.67412,-73.94447,40.6705,-73.9308,casual
83E5B599CB980852,classic_bike,2023-06-22 17:13:53,2023-06-22 17:21:39,2 Ave & E 31 St,6197.02,E 11 St & 1 Ave,5746.14,40.74290902,-73.97706058,40.72953837,-73.98426726,member
A24FFF691426677D,classic_bike,2023-06-19 11:57:17,2023-06-19 12:26:05,West St & Chambers St,5329.03,7 Ave & Central Park South,6912.01,40.717855692,-74.012965679,40.7667405590595,-73.9790689945221,member
C4B4835D8CA6B202,classic_bike,2023-06-28 20:07:55,2023-06-28 20:20:15,W 104 St & Amsterdam Ave,7610.13,St. Nicholas Ave & W 126 St,7756.1,40.79904139288298,-73.96649479866028,40.8114323,-73.9518776,member
30DEEA623749CF45,classic_bike,2023-06-22 17:16:53,2023-06-22 18:57:04,E 167 St & Franklin Ave,8048.01,,,40.82896769,-73.905241132,40.84,-73.88,member
3915B1254EDA9BC7,classic_bike,2023-06-18 09:49:42,2023-06-18 09:49:44,Seaman Ave & Beak St,8650.11,Seaman Ave & Beak St,8650.11,40.86768043,-73.926213622,40.867505,-73.926363,member
DC6576EEFAFDAF25,classic_bike,2023-06-04 15:53:28,2023-06-04 16:10:09,W 37 St & 10 Ave,6611.02,W 59 St & 10 Ave,7023.04,40.75660359,-73.9979009,40.770513,-73.988038,member
54A5BA7AABE5EFCF,classic_bike,2023-06-13 11:26:40,2023-06-13 11:28:54,E 128 St & Madison Ave,7735.23,5 Ave & W 126 St,7701.21,40.80756,-73.939182,40.80722,-73.9418,member
62FA52F7A4C2A81B,classic_bike,2023-06-30 17:58:20,2023-06-30 18:03:04,4 Ave & E 12 St,5788.15,8 Ave & W 16 St,6072.11,40.732647,-73.99011,40.740983,-74.001702,member
825886D04A32B5A1,classic_bike,2023-06-18 12:36:23,2023-06-18 12:56:26,Van Buren St & Broadway,4568.01,Bedford Ave & Nassau Ave,5550.05,40.692,-73.92617,40.72311651,-73.95212324,casual
21809ECA16622A6B,classic_bike,2023-06-05 18:21:09,2023-06-05 18:25:26,Sterling Pl & 5 Ave,4208.01,5 Ave & 3 St,3987.06,40.678970070475735,-73.97855266928671,40.6728155,-73.98352355,casual
3A2A807B25F4C9BD,classic_bike,2023-06-21 13:49:03,2023-06-21 13:59:56,8 Ave & W 52 St,6816.07,8 Ave & W 16 St,6072.11,40.763765216,-73.984986901,40.740983,-74.001702,member
CFED310BE2F5352D,electric_bike,2023-06-13 22:08:17,2023-06-13 22:25:38,Queens Plaza North & Crescent St,6429.01,E 58 St & 3 Ave,6762.02,40.75110165,-73.94073717,40.76095756,-73.96724467,casual
BA4C9EA11EBFBC1A,classic_bike,2023-06-06 11:32:13,2023-06-06 11:37:14,Allen St & Stanton St,5484.09,Rutgers St & Henry St,5230.02,40.722055,-73.989111,40.71332151208186,-73.99009689688683,member
57ED206EB6B3FCC4,classic_bike,2023-06-03 16:59:20,2023-06-03 17:00:42,Broadway & W 41 St,6560.01,W 42 St & 6 Ave,6517.08,40.75513557,-73.98658032,40.75492,-73.98455,member
A0F518717FF77DB3,classic_bike,2023-06-04 04:27:14,2023-06-04 04:35:23,Stewart Ave & Johnson Ave,5123.07,Willoughby Ave & Myrtle Ave,4759.02,40.70869,-73.92587,40.69757,-73.93098,member
3781331ED750171F,classic_bike,2023-06-11 23:29:20,2023-06-11 23:46:44,Frederick Douglass Blvd & W 117 St,7688.12,Central Park West & W 85 St,7354.01,40.805159,-73.954692,40.78476,-73.969862,casual
F6DAC8CBD0A2ED9F,classic_bike,2023-06-20 19:39:55,2023-06-20 19:43:32,Lexington Ave & E 26 St,6089.08,E 23 St & 1 Ave,5929.01,40.741459,-73.983293,40.736502,-73.97809472,member
8D16C7799A946E81,classic_bike,2023-06-23 08:53:53,2023-06-23 09:02:57,E 72 St & Park Ave,6998.08,E 74 St & 1 Ave,6953.08,40.77118287540658,-73.96409422159195,40.7689738,-73.95482273,member
AC4A67E5B7179A68,classic_bike,2023-06-25 19:05:56,2023-06-25 19:13:30,Washington Pl & Broadway,5755.01,E 17 St & Broadway,5980.07,40.72903917,-73.99404649,40.73704984,-73.99009296,member
5EFFD6D7BA054347,classic_bike,2023-06-28 14:35:27,2023-06-28 14:48:56,8 Ave & W 24 St,6224.06,Lispenard St & Broadway,5391.06,40.745749712,-73.998042464,40.71939226,-74.00247214,casual
1E5DE6101EF74C55,classic_bike,2023-06-27 18:24:26,2023-06-27 18:31:54,45 Rd & 11 St,6319.01,43 Ave & 40 St,6292.03,40.747074604,-73.949871898,40.74562,-73.92402,member
AE4E12F0703662B7,classic_bike,2023-06-01 15:40:07,2023-06-01 15:53:45,E 19 St & 3 Ave,5938.01,6 Ave & W 33 St,6364.07,40.73624527,-73.98473765,40.74901271,-73.98848395,member
E95973F2A9F8EC43,classic_bike,2023-06-21 11:21:28,2023-06-21 11:45:14,48 Ave & 5 St,6212.04,Center Blvd & 48 Ave,6254.06,40.74436328706688,-73.9558732509613,40.745038,-73.957539,member
F7027BE474C5054C,classic_bike,2023-06-27 21:10:13,2023-06-27 21:33:54,Bergen St & Vanderbilt Ave,4157.10,Plaza St West & Flatbush Ave,4010.13,40.679492593,-73.967789292,40.6750207,-73.97111473,member
824A4FA2B67A1EBD,classic_bike,2023-06-29 16:53:04,2023-06-29 17:04:39,3 Ave & E 174 St,8241.07,Clay Ave & Claremont Pkwy,8225.05,40.842091203,-73.898566246,40.83999,-73.90549,member
9CA99344FEC703E4,classic_bike,2023-06-12 15:29:59,2023-06-12 16:00:15,Liberty St & Broadway,5105.01,E 74 St & 1 Ave,6953.08,40.709294796,-74.010778069,40.7689738,-73.95482273,member
0B09609FBE4B1A8C,classic_bike,2023-06-07 23:27:42,2023-06-08 00:45:25,10 St & 5 Ave,3842.08,,,40.668668985,-73.987006903,40.69,-73.93,member
475BBC13646D0543,classic_bike,2023-06-01 18:54:37,2023-06-01 19:09:12,Christopher St & Greenwich St,5847.01,West St & Liberty St,5184.08,40.73291553,-74.00711384,40.711444,-74.014847,member
CAA59CDEAFFBB71C,classic_bike,2023-06-14 10:47:52,2023-06-14 10:53:18,South End Ave & Albany St,5114.08,West St & Chambers St,5329.03,40.709957,-74.016538,40.71754834,-74.01322069,member
E0FFF7BDC7AF9A84,classic_bike,2023-06-04 14:52:54,2023-06-04 15:04:35,Central Park S & 6 Ave,6876.04,11 Ave & W 59 St,7059.01,40.765958309,-73.976400614,40.77149671054441,-73.99046033620834,casual
DB008CF6732F143E,classic_bike,2023-06-05 08:26:24,2023-06-05 08:45:25,Amsterdam Ave & W 73 St,7260.09,9 Ave & W 39 St,6644.08,40.77966809007312,-73.98093044757842,40.756403523272496,-73.99410143494606,member
1FA4F02DB2689DF5,classic_bike,2023-06-07 06:20:21,2023-06-07 06:33:46,Douglass St & 4 Ave,4175.14,Dock St & Front St,4903.09,40.679261804,-73.981595993,40.702709,-73.99253,member
8858695A0799128A,classic_bike,2023-06-13 10:27:16,2023-06-13 10:41:17,Central Park W & W 97 St,7538.18,Central Park S & 6 Ave,6876.04,40.79249519495111,-73.96417066463071,40.76590936,-73.97634151,casual
71808A2A521F07CB,classic_bike,2023-06-27 19:28:43,2023-06-27 19:31:44,Melrose St & Broadway,4801.04,Lafayette Ave & Stuyvesant Ave,4576.11,40.697481,-73.935877,40.6919925157634,-73.9325501024723,member
9E7C7D5D2D72586E,classic_bike,2023-06-25 15:40:46,2023-06-25 16:01:39,Park Ave & E 124 St,7682.01,E 88 St & 1 Ave,7235.13,40.8045555,-73.9396861,40.778301,-73.9488134,member
60556485C46C3E2E,classic_bike,2023-06-29 18:08:34,2023-06-29 18:14:12,E 47 St & Park Ave,6584.12,E 39 St & 2 Ave,6345.08,40.75510267,-73.97498696,40.74803319428767,-73.973827958107,member
CCF2B18E9ED1D2EB,classic_bike,2023-06-02 18:19:59,2023-06-02 18:25:13,Madison St & Clinton St,5190.07,Cherry St,5181.04,40.71269042,-73.98776323,40.71219906,-73.97948148,member
3519F32A4A5505AE,classic_bike,2023-06-18 11:04:32,2023-06-18 11:12:28,W 15 St & 6 Ave,5989.02,6 Ave & W 45 St,6593.15,40.738278985,-73.996562123,40.756951,-73.982631,member
F12E3C13D40A5F40,electric_bike,2023-06-19 19:07:56,2023-06-19 19:17:56,W 10 St & Washington St,5847.06,West St & Chambers St,5329.03,40.73342399437081,-74.00851495563984,40.71754834,-74.01322069,member
9B6C17ADC3A565E8,classic_bike,2023-06-17 16:24:02,2023-06-17 16:25:12,40 Ave & Crescent St,6462.05,24 St & 41 Ave,6505.09,40.7535992020056,-73.93795609474182,40.752474,-73.939991,member
F82577423D56FAA9,classic_bike,2023-06-05 19:21:04,2023-06-05 19:22:40,Chauncey St & Malcolm X Blvd,4228.06,Macon St & Patchen Ave,4301.04,40.680459261,-73.928296566,40.68374,-73.9261,member
A3DF6DC0115D7444,classic_bike,2023-06-22 22:49:37,2023-06-22 23:00:33,2 Ave & E 122 St,7622.12,Willis Ave & E 137 St,7726.02,40.719606633333335,-74.00876473333334,40.808384,-73.923604,member
525C1F27A84DB35D,classic_bike,2023-06-06 09:20:48,2023-06-06 09:39:39,E 65 St & 2 Ave,6860.12,Broadway & W 38 St,6560.15,40.76471851944339,-73.96222069859505,40.7529728216068,-73.98734897375107,member
3388800BE7E46DD5,classic_bike,2023-06-27 08:24:14,2023-06-27 08:50:51,Putnam Ave & Nostrand Ave,4327.09,St Marks Ave & Thomas S. Boyland St,4023.01,40.68402,-73.94977,40.67313,-73.91387,member
53A7A9A85C379FEA,classic_bike,2023-06-16 11:15:50,2023-06-16 11:35:54,Broadway & W 48 St,6708.04,Rivington St & Chrystie St,5453.01,40.760293841,-73.984158874,40.72110063,-73.9919254,member
D90BFC0B844CA689,classic_bike,2023-06-14 08:37:39,2023-06-14 08:45:04,E 85 St & York Ave,7146.04,E 81 St & 3 Ave,7154.07,40.77536905,-73.94803392,40.77573034,-73.9567526,member
87ECC2D1A29A1A6B,classic_bike,2023-06-26 15:37:58,2023-06-26 15:44:57,Leonard St & Church St,5359.11,Leonard St & Church St,5359.11,40.717571,-74.005549,40.717571,-74.005549,member
187B8E12EA2F75C8,classic_bike,2023-06-21 09:50:09,2023-06-21 09:57:49,E 20 St & 2 Ave,5971.08,University Pl & E 14 St,5905.14,40.73587678,-73.98205027,40.734814,-73.992085,member
E8EF2D925FF09DC1,classic_bike,2023-06-29 16:40:19,2023-06-29 16:42:21,E 149 St & Park Ave,7884.04,Morris Ave & E 153 St,7901.04,40.81821239,-73.925412655,40.820036,-73.921411,member
909305300C6387F5,classic_bike,2023-06-11 20:59:41,2023-06-11 21:21:53,11 Ave & W 27 St,6425.04,E 74 St & 1 Ave,6953.08,40.751170874,-74.005410314,40.7689738,-73.95482273,member
FE91726F5C08C095,electric_bike,2023-06-16 05:12:15,2023-06-16 05:35:07,E 65 St & 2 Ave,6860.12,E 65 St & 2 Ave,6860.12,40.76471851944339,-73.96222069859505,40.76471851944339,-73.96222069859505,member
59B37045E6EE7875,classic_bike,2023-06-19 22:16:26,2023-06-19 22:17:35,E 144 St & Brook Ave,7777.02,St. Ann's Ave & E 144 St,7755.03,40.811777472,-73.917141557,40.811112,-73.914932,member
1CEF2BD3DFDAC362,classic_bike,2023-06-14 09:27:00,2023-06-14 09:37:53,W 15 St & 10 Ave,6115.09,E 20 St & Park Ave,6055.08,40.74224925,-74.007101536,40.73827428,-73.98751968,member
128531F5707B8C9B,classic_bike,2023-06-08 17:10:45,2023-06-08 17:15:52,8 Ave & W 16 St,6072.11,W 15 St & 6 Ave,5989.02,40.740983,-74.001702,40.738046142482766,-73.99642959237099,casual
38BC59F25517B0DF,classic_bike,2023-06-02 13:46:17,2023-06-02 14:07:38,Kosciuszko St & Tompkins Ave,4553.04,Green St & McGuinness Blvd,5860.02,40.691264749,-73.945257664,40.73396,-73.95204,member
1AE94003651B80A8,classic_bike,2023-06-19 22:35:46,2023-06-19 23:00:07,8 Ave & W 24 St,6224.06,Adam Clayton Powell Blvd & W 118 St,7670.09,40.745781422,-73.998222113,40.804372,-73.951475,member
8D5AF08B35366611,classic_bike,2023-06-10 16:52:34,2023-06-10 17:01:21,W 15 St & 6 Ave,5989.02,6 Ave & W 33 St,6364.07,40.738046142482766,-73.99642959237099,40.74901271,-73.98848395,member
FD01E18592F6D6B5,classic_bike,2023-06-09 17:28:29,2023-06-09 17:38:10,E 15 St & 3 Ave,5863.07,Lafayette St & Jersey St,5561.06,40.734232,-73.986923,40.72456089,-73.99565293,member
8572B885BA38601B,classic_bike,2023-06-18 16:19:31,2023-06-18 16:32:14,Amsterdam Ave & W 79 St,7311.02,E 97 St & 3 Ave,7365.08,40.782774329,-73.978893638,40.7859201,-73.94860294,member
241996FA184F6F74,classic_bike,2023-06-26 01:26:32,2023-06-26 01:29:57,E Houston St & Columbia St,5436.11,E 7 St & Ave C,5545.01,40.71978635452822,-73.97871628403664,40.72412944090093,-73.97901266813278,member
A1257C8DBC62060E,classic_bike,2023-06-17 22:23:20,2023-06-17 22:31:21,Wards Meadow Comfort Station,7327.01,E 106 St & 1 Ave,7456.03,40.782941341,-73.930796385,40.7892529,-73.93956237,member
DC269233E2D6ACDC,classic_bike,2023-06-22 10:37:35,2023-06-22 10:55:52,W 21 St & 6 Ave,6140.05,9 Ave & W 45 St,6717.06,40.74173969,-73.99415556,40.76019252,-73.9912551,member
E17E146B34D89A70,classic_bike,2023-06-10 21:20:09,2023-06-10 21:55:32,West Drive & Prospect Park West,3651.04,Throop Ave & Myrtle Ave,4697.01,40.661210299,-73.979095101,40.69622937,-73.94371094,member
2636A0DB5054F618,classic_bike,2023-06-19 17:12:56,2023-06-19 17:14:15,E 102 St & 1 Ave,7407.13,E 106 St & 1 Ave,7456.03,40.7869946,-73.94164802,40.7892529,-73.93956237,casual
A10DDCE5FE39B269,classic_bike,2023-06-20 21:38:27,2023-06-20 21:59:51,Rivington St & Chrystie St,5453.01,India St & Manhattan Ave,5826.02,40.72110063,-73.9919254,40.73232194,-73.9550858,member
AD267D7D1DE881FA,classic_bike,2023-06-27 10:20:43,2023-06-27 10:30:53,E 40 St & Park Ave,6432.11,E 6 St & 2 Ave,5669.12,40.751011133,-73.978845716,40.72737869323223,-73.98840844631195,member
E7B79AA2A1CE3AAC,classic_bike,2023-06-01 19:56:47,2023-06-01 20:08:11,Center Blvd & 51 Ave,6179.07,Bedford Ave & Nassau Ave,5550.05,40.74336608027021,-73.95960688591003,40.72311651,-73.95212324,member
CB48BCDA64F2B84B,classic_bike,2023-06-06 12:27:02,2023-06-06 12:34:56,W 42 St & 8 Ave,6602.05,6 Ave & W 33 St,6364.07,40.7575699,-73.99098507,40.74901271,-73.98848395,member
ED06FD6DCF1570EE,classic_bike,2023-06-18 01:32:07,2023-06-18 01:43:37,Mott St & Prince St,5561.04,E 9 St & 5 Ave,5872.10,40.72317958,-73.99480012,40.73275887045087,-73.99581670761108,member
19BB7DF50A61B176,classic_bike,2023-06-08 15:38:40,2023-06-08 15:55:24,Eastern Pkwy & Nostrand Ave,3911.05,Tompkins Ave & Hopkins St,4850.04,40.669648647,-73.950267673,40.69957608,-73.94708417,member
61AFE627EA086B6E,classic_bike,2023-06-10 06:48:55,2023-06-10 06:51:41,Prospect Pl & Howard Ave,3991.04,St Johns Pl & Utica Ave,3966.01,40.672579765,-73.91977191,40.6705,-73.9308,member
0B6CA31DC5404AB0,classic_bike,2023-06-28 16:58:36,2023-06-28 17:06:44,E 16 St & Irving Pl,5938.11,W 31 St & 7 Ave,6331.01,40.735367055605394,-73.98797392845154,40.749156,-73.9916,member
F9831E54B6F9472C,classic_bike,2023-06-13 06:46:02,2023-06-13 06:53:33,Central Ave & Decatur St,4432.10,Madison St & Cypress Ave,4807.02,40.6882,-73.90798,40.70068,-73.90742,member
92F932459EB890A4,electric_bike,2023-06-01 22:38:40,2023-06-01 23:05:44,E 10 St & 2 Ave,5746.02,Kent Ave & Division Ave,5021.05,40.72970805644994,-73.9865979552269,40.706563674670925,-73.9683187007904,member
FE51BE6AA0529DD8,classic_bike,2023-06-01 09:08:31,2023-06-01 09:16:35,W 49 St & 8 Ave,6747.06,W 35 St & 8 Ave,6526.01,40.76227205,-73.98788205,40.752762088742045,-73.99280458705107,casual
6DE06C342D22B976,classic_bike,2023-06-13 10:48:04,2023-06-13 11:00:25,Carlton Ave & St Marks Ave,4199.13,Court St & State St,4488.08,40.67911856082165,-73.97176265716553,40.6902375,-73.99203074,member
6A3741CB889D70FC,classic_bike,2023-06-01 07:43:42,2023-06-01 08:01:38,11 Ave & W 41 St,6726.01,E 32 St & Park Ave,6280.12,40.76030096,-73.99884222,40.7457121,-73.98194829,member
8EEAA2DC976C8AF4,electric_bike,2023-06-02 15:13:40,2023-06-02 15:24:32,E 26 St & 3 Ave,6089.11,Broadway & W 41 St,6560.01,40.74069317733043,-73.98160636425018,40.75513557,-73.98658032,member
82B1E3CDA45A26F5,classic_bike,2023-06-13 18:08:58,2023-06-13 18:14:57,5 Ave & E 135 St,7769.06,Park Ave & E 124 St,7682.01,40.812191,-73.937838,40.8045555,-73.9396861,member
DC9D5FCB5C861787,classic_bike,2023-06-21 19:10:39,2023-06-21 19:12:00,E 72 St & York Ave,6889.12,E 74 St & 1 Ave,6953.08,40.76663814,-73.95348296,40.7689738,-73.95482273,member
67D50603B8F6611C,classic_bike,2023-06-13 17:24:30,2023-06-13 17:44:38,E 33 St & 1 Ave,6197.08,Barrow St & Hudson St,5805.05,40.743267894,-73.974454522,40.73172428,-74.00674436,member
80EA89E0372D9F7A,classic_bike,2023-06-20 06:21:12,2023-06-20 06:28:15,Kingston Ave & Park Pl,4016.03,Plaza St East & Flatbush Ave,4010.01,40.673158169,-73.941905499,40.673134,-73.969106,member
AC41DFEC9BDF8B33,classic_bike,2023-06-24 17:51:44,2023-06-24 18:10:24,Pearl St & York St,4895.15,Bergen St & Smith St,4446.01,40.70140463410644,-73.98768022656441,40.6867443,-73.99063168,member
5AB9429B67963DC9,classic_bike,2023-06-21 18:31:54,2023-06-21 19:04:56,N 7 St & Driggs Ave,5340.01,Hope St & Union Ave,5187.03,40.716967,-73.956388,40.71167351,-73.95141312,member
C23209E213B49C2A,classic_bike,2023-06-20 13:45:35,2023-06-20 13:50:59,Frederick Douglass Blvd & W 112 St,7631.23,St Nicholas Ave & Manhattan Ave,7723.01,40.801694,-73.957145,40.809725,-73.953149,casual
DDA0483CF271D661,classic_bike,2023-06-12 15:49:11,2023-06-12 16:04:12,E 81 St & 3 Ave,7154.07,31 St & Northern Blvd,6495.17,40.77572763,-73.956542015,40.75186951421875,-73.93349289894103,member
640839C601353DE2,electric_bike,2023-06-12 13:03:42,2023-06-12 13:22:13,2 Ave & E 31 St,6197.02,11 Ave & W 59 St,7059.01,40.74290902,-73.97706058,40.77149671054441,-73.99046033620834,member
216D75CCAA42969E,electric_bike,2023-06-25 12:51:43,2023-06-25 13:04:58,E 84 St & Park Ave,7243.04,E 65 St & 2 Ave,6860.12,40.77862688,-73.95772073,40.76471851944339,-73.96222069859505,member
2E8076B57F9557B5,classic_bike,2023-06-26 22:17:29,2023-06-26 22:31:09,Sullivan St & Washington Sq,5721.01,Rivington St & Ridge St,5406.02,40.73047747,-73.99906065,40.71850211,-73.98329859,member
1E9B2BAA138CE2A4,classic_bike,2023-06-15 21:32:24,2023-06-15 21:52:45,Madison Av & E 51 St,6659.09,Leonard St & Church St,5359.11,40.758762956,-73.974959493,40.717571,-74.005549,member
90EDF79898C868B1,electric_bike,2023-06-21 10:48:31,2023-06-21 11:00:25,W 36 St & 9 Ave,6569.07,E 58 St & 3 Ave,6762.02,40.75462324029105,-73.99516761302948,40.76095756,-73.96724467,member
5C828ECDF5C00A78,electric_bike,2023-06-03 22:03:10,2023-06-03 22:19:06,W 47 St & 10 Ave,6824.07,E 26 St & 3 Ave,6089.11,40.76269882,-73.99301222,40.74069317733043,-73.98160636425018,member
64BE3298E1B36EB5,classic_bike,2023-06-28 17:03:44,2023-06-28 17:08:06,Dean St & Franklin Ave,4107.13,Grand Ave & Bergen St,4190.06,40.67759206937376,-73.955637216568,40.678045,-73.962408,member
2D9D751B3DBD0DBE,classic_bike,2023-06-15 22:13:19,2023-06-15 22:17:50,E 2 St & Avenue B,5515.02,Ave A & E 14 St,5779.11,40.72217444,-73.98368779,40.73031071000895,-73.98047178983688,member
668C5F66432FE65B,classic_bike,2023-06-25 13:17:26,2023-06-25 13:33:21,Bergen St & Vanderbilt Ave,4157.10,Bay St & Court St,3931.09,40.679309845,-73.967801332,40.671409,-74.001328,member
A55127F06923A632,classic_bike,2023-06-16 17:52:37,2023-06-16 18:27:40,Eastern Pkwy & Kingston Ave,3902.06,Eastern Pkwy & Kingston Ave,3902.06,40.669638753,-73.94254458,40.66959,-73.94237,member
6D95AA15ED53A1A5,classic_bike,2023-06-21 17:56:34,2023-06-21 18:00:56,Broadway & E 21 St,6098.10,8 Ave & W 16 St,6072.11,40.73988840858996,-73.98958593606949,40.740983,-74.001702,member
647F46B57CFCAE66,classic_bike,2023-06-29 21:22:18,2023-06-29 21:28:45,E 25 St & 2 Ave,6046.02,Broadway & E 21 St,6098.1,40.73912601,-73.97973776,40.73988840858996,-73.98958593606949,casual
157118B222D5FEA5,classic_bike,2023-06-16 05:52:36,2023-06-16 05:55:12,4 Ave & 3 St,4028.04,Douglass St & 4 Ave,4175.14,40.673746,-73.985649,40.6792788,-73.98154004,member
5B6DA299B776F767,classic_bike,2023-06-08 17:33:15,2023-06-08 17:34:48,Madison St & Clinton St,5190.07,Canal St & Rutgers St,5303.08,40.71269042,-73.98776323,40.71427487,-73.98990025,member
8C5FB403907EBC22,electric_bike,2023-06-21 16:22:03,2023-06-21 16:25:39,Amsterdam Ave & W 73 St,7260.09,W 87 St & Amsterdam Ave,7458.03,40.77966809007312,-73.98093044757842,40.78839,-73.9747,member
FEB1562F78A889F6,electric_bike,2023-06-16 18:56:27,2023-06-16 19:00:09,1 Ave & E 94 St,7286.05,E 88 St & 1 Ave,7235.13,40.7817212,-73.94594,40.778301,-73.9488134,member
EF38FBE90C98B964,classic_bike,2023-06-25 17:17:54,2023-06-25 17:31:39,Norman St & Wyckoff Ave,4654.01,Knickerbocker Ave & Halsey St,4623.02,40.69521594,-73.903062582,40.693,-73.90824,member
14B021D840B13F85,electric_bike,2023-06-28 18:20:33,2023-06-29 19:20:22,11 Ave & W 27 St,6425.04,,,40.751396,-74.005226,,,member
A0DB44F788333647,classic_bike,2023-06-11 10:51:21,2023-06-11 10:57:33,W 53 St & 10 Ave,6890.01,W 56 St & 6 Ave,6809.07,40.76669671,-73.99061728,40.76340613,-73.97722479,member
491C19B8E4EFB61B,classic_bike,2023-06-29 08:20:36,2023-06-29 09:22:48,Prospect Park SW & Greenwood Ave,3385.06,E 58 St & 3 Ave,6762.02,40.709726683333336,-73.93124078333334,40.76095756,-73.96724467,member
897895E80F3C15F4,classic_bike,2023-06-27 21:08:31,2023-06-27 21:18:31,Broadway & W 58 St,6948.1,W 42 St & Dyer Ave,6644.07,40.76695317,-73.98169333,40.75898481399634,-73.99379968643188,member
801F08FC977F4094,classic_bike,2023-06-30 11:50:56,2023-06-30 12:32:22,Longfellow Ave & Aldus St,7983.02,Westchester Ave & Longwood Ave,7909.07,40.823092222,-73.887599587,40.819701,-73.901311,member
8B5EF9F87215E02A,classic_bike,2023-06-07 17:44:31,2023-06-07 17:47:55,E 20 St & FDR Dr,5886.13,Ave A & E 14 St,5779.11,40.733208626522426,-73.9756813647,40.73031071000895,-73.98047178983688,member
AE8D5F4954B410AE,classic_bike,2023-06-25 17:42:48,2023-06-25 17:44:05,34th Ave & Vernon Blvd,6873.01,34 Ave & 13 St,6836.07,40.76535380385866,-73.93986314535141,40.7638753,-73.9364848,member
4238EB041293780E,classic_bike,2023-06-11 18:08:09,2023-06-11 18:26:06,West St & Chambers St,5329.03,W 15 St & 10 Ave,6115.09,40.71754834,-74.01322069,40.74275382865903,-74.00747358798981,casual
50D33D3C28F7ECB7,classic_bike,2023-06-21 18:25:26,2023-06-21 18:36:31,Broadway & W 41 St,6560.01,Broadway & E 14 St,5905.12,40.75513557,-73.98658032,40.73454567,-73.99074142,member
016F254B4655FE1B,classic_bike,2023-06-03 13:30:57,2023-06-03 13:59:19,Grand St & Elizabeth St,5382.06,W 15 St & 10 Ave,6115.09,40.718822,-73.99596,40.74275382865903,-74.00747358798981,casual
C261ED0E98F87AE0,classic_bike,2023-06-29 18:10:59,2023-06-29 18:28:25,Macon St & Howard Ave,4408.07,Wyckoff Av & Stanhope St,4931.05,40.684522986,-73.920066714,40.703545,-73.917775,casual
29033730CFA2858E,classic_bike,2023-06-07 16:06:11,2023-06-07 16:08:07,Lafayette Ave & St James Pl,4494.04,Lafayette Ave & St James Pl,4494.04,40.688499331,-73.964804411,40.68851534,-73.9647628,member
30B1247586BA2088,classic_bike,2023-06-20 14:36:50,2023-06-20 15:14:54,W 163 St & Riverside Dr,8210.01,W 163 St & Riverside Dr,8210.01,40.839308977,-73.945525646,40.839278,-73.945446,member
A33A259C2B2B47EC,classic_bike,2023-06-29 07:06:01,2023-06-29 07:09:19,DeKalb Ave & Franklin Ave,4528.01,Marcy Ave & Lafayette Ave,4476.03,40.690604568,-73.95750761,40.6900815,-73.947915,member
FD9482AB55527BCF,classic_bike,2023-06-21 18:42:03,2023-06-21 18:56:19,W 52 St & 6 Ave,6740.01,Broadway & W 48 St,6708.04,40.76147747,-73.980686426,40.76017739537783,-73.98486793041229,casual
032B491B43F12BAC,classic_bike,2023-06-02 15:23:41,2023-06-02 15:38:18,E 33 St & 1 Ave,6197.08,Allen St & Hester St,5342.1,40.74322681432173,-73.97449783980846,40.71605866,-73.99190759,member
4705695A4076678A,electric_bike,2023-06-26 17:07:36,2023-06-26 17:16:18,6 Ave & W 34 St,6364.10,11 Ave & W 41 St,6726.01,40.74964,-73.98805,40.76030096,-73.99884222,member
FC48694AE718AF4C,electric_bike,2023-06-11 16:11:27,2023-06-11 16:52:30,Lexington Ave & E 111 St,7567.06,Rivington St & Chrystie St,5453.01,40.7954121,-73.9441232,40.72110063,-73.9919254,member
FE8DA087DF34C3B1,classic_bike,2023-06-20 12:57:44,2023-06-20 13:16:28,Stuyvesant Ave & Hart St,4689.08,Cypress Ave & George St,4765.07,40.694833636,-73.934238434,40.69812,-73.90271,casual
63DB5C1CE58DA53B,classic_bike,2023-06-14 07:20:23,2023-06-14 07:20:58,W 87 St & Amsterdam Ave,7458.03,W 87 St & Amsterdam Ave,7458.03,40.78839,-73.9747,40.78839,-73.9747,member
9CA5EE87E774C85A,classic_bike,2023-06-26 18:09:50,2023-06-26 18:14:53,E 32 St & Park Ave,6280.12,W 31 St & 7 Ave,6331.01,40.7457121,-73.98194829,40.749156,-73.9916,member
207357C297450D70,classic_bike,2023-06-06 15:20:41,2023-06-06 16:01:16,1 Ave & E 39 St,6303.01,Fort Washington Ave & W 183 St,8399.06,40.747201562,-73.971094489,40.852252,-73.937854,member
76C8A0166E9BD521,classic_bike,2023-06-19 17:01:41,2023-06-19 17:10:19,W 25 St & 8 Ave,6297.08,W 15 St & 10 Ave,6115.09,40.74649996333341,-73.99732626293645,40.74275382865903,-74.00747358798981,member
CA725896E5505BC0,classic_bike,2023-06-20 15:36:19,2023-06-20 15:37:17,W 34 St & Hudson Blvd E,6535.04,W 34 St & Hudson Blvd E,6535.04,40.75516719072139,-74.00059908628464,40.75516719072139,-74.00059908628464,casual
451E04DC85F1A71F,classic_bike,2023-06-07 12:31:36,2023-06-07 12:40:04,W 27 St & 7 Ave,6247.06,MacDougal St & Prince St,5687.04,40.746647,-73.993915,40.72710258,-74.00297088,member
08228E6CE5840C88,classic_bike,2023-06-14 18:02:27,2023-06-14 18:15:21,West St & Chambers St,5329.03,9 Ave & W 22 St,6266.06,40.71754834,-74.01322069,40.7454973,-74.00197139,member
BA7FCECD727A0D1B,classic_bike,2023-06-30 08:11:56,2023-06-30 09:03:09,E 33 St & 5 Ave,6322.01,Lexington Ave & E 24 St,6089.07,40.74765947,-73.98490707,40.74025878,-73.98409214,casual
95EDD37AE6DF1C8D,classic_bike,2023-06-10 11:56:39,2023-06-10 12:06:12,W 35 St & 8 Ave,6526.01,Broadway & E 21 St,6098.1,40.752762088742045,-73.99280458705107,40.73988840858996,-73.98958593606949,member
61021A90C878C744,classic_bike,2023-06-23 18:45:00,2023-06-23 19:50:14,,,,,40.68,-73.91,40.68,-73.91,casual
F9DF57410EC74101,classic_bike,2023-06-03 18:29:35,2023-06-03 18:58:03,27 St & Hunter St,6310.06,21 Ave & Crescent St,7284.01,40.7485,-73.941275,40.780478,-73.912212,casual
43282FC281F78B37,classic_bike,2023-06-10 11:19:29,2023-06-10 11:29:28,W 20 St & 10 Ave,6306.01,11 Ave & W 41 St,6726.01,40.745686,-74.005141,40.76030096,-73.99884222,member
D668BD68FDF0704E,classic_bike,2023-06-04 10:51:34,2023-06-04 10:51:54,Old Fulton St,4903.08,Old Fulton St,4903.08,40.70277159,-73.99383605,40.70277159,-73.99383605,casual
F334CD29216D041D,classic_bike,2023-06-25 12:55:26,2023-06-25 13:10:54,W 42 St & Dyer Ave,6644.07,W 27 St & 7 Ave,6247.06,40.75898481399634,-73.99379968643188,40.746647,-73.993915,member
EA00448CE2EFC354,classic_bike,2023-06-04 19:24:38,2023-06-04 19:34:34,West St & Chambers St,5329.03,10 Ave & W 14 St,6157.04,40.71754834,-74.01322069,40.74198159994023,-74.00831580162048,casual
01465FCA9AAD50BF,classic_bike,2023-06-28 14:28:35,2023-06-28 14:35:23,10 Ave & W 202 St,8543.01,Broadway & W 185 St,8416.07,40.861108422,-73.921716213,40.852538,-73.93441,member
6FFF39669B7B16D2,classic_bike,2023-06-08 08:26:30,2023-06-08 08:31:38,Vernon Blvd & 31 Ave,7003.06,36 Ave & 10 St,6737.03,40.7692475,-73.9354504,40.7614376,-73.9411265,casual
104166B0DB8E0F18,classic_bike,2023-06-30 20:50:40,2023-06-30 21:12:04,Franklin St & W Broadway,5430.08,Concord St & Bridge St,4781.03,40.71911552,-74.00666661,40.69766564,-73.98476437,member
F79DBDCA75AEDA66,classic_bike,2023-06-20 13:30:05,2023-06-20 13:36:31,W 15 St & 6 Ave,5989.02,E 23 St & 1 Ave,5929.01,40.738289118,-73.996572971,40.736502,-73.97809472,member
28CEBD55F7B6C059,classic_bike,2023-06-07 07:43:07,2023-06-07 07:46:34,Suydam St & Broadway,4689.03,Suydam St & Knickerbocker Ave,4939.07,40.695545197,-73.932222724,40.702013,-73.923769,member
69246EC7E9D94E19,classic_bike,2023-06-15 16:01:57,2023-06-15 16:19:00,W 21 St & 6 Ave,6140.05,12 Ave & W 40 St,6765.01,40.74173969,-73.99415556,40.76087502,-74.00277668,member
FE251C7ABC7A17D7,classic_bike,2023-06-28 16:08:36,2023-06-29 17:08:25,Bleecker St & Crosby St,5679.08,,,40.72615604980408,-73.99510189890862,,,casual
49C9DF25353F10AF,classic_bike,2023-06-01 14:15:09,2023-06-01 14:17:09,St Nicholas Ave & W 134 St,7837.3,St Nicholas Ave & W 137 St,7898.03,40.816022635,-73.948387265,40.818477,-73.947568,member
23A9ED10EEE7F5D5,classic_bike,2023-06-30 15:50:22,2023-06-30 15:58:26,Adams St & Prospect St,4821.10,Bond St & Fulton St,4479.06,40.701183677,-73.988764882,40.6896218879,-73.9830426872,member
C0F92ACBDACFD4FB,classic_bike,2023-06-23 07:18:51,2023-06-23 07:40:48,64 St & 51 Ave,5956.04,36 Ave & 10 St,6737.03,40.735813379,-73.901779652,40.7614376,-73.9411265,member
B30B01452C6DBD5D,classic_bike,2023-06-15 12:24:50,2023-06-15 12:33:57,Central Park West & W 72 St,7141.07,E 72 St & York Ave,6889.12,40.776034951,-73.976087689,40.76663814,-73.95348296,member
32BA1CE28402C290,classic_bike,2023-06-24 19:21:21,2023-06-24 19:21:22,W 31 St & 7 Ave,6331.01,W 31 St & 7 Ave,6331.01,40.748343229,-73.992011309,40.749156,-73.9916,member
02F92064A2D52BAB,classic_bike,2023-06-01 14:25:09,2023-06-01 14:33:51,E 53 St & 3 Ave,6617.02,W 42 St & 6 Ave,6517.08,40.757204175,-73.96952498,40.75492,-73.98455,member
912C2932917FC572,classic_bike,2023-06-29 20:12:22,2023-06-29 20:25:27,W 34 St & 11 Ave,6578.01,W 64 St & Thelonious Monk Circle,7123.04,40.75594159,-74.0021163,40.77515953434235,-73.98918695747852,member
6D3D80649E0C93F0,classic_bike,2023-06-12 10:14:18,2023-06-12 10:24:37,5 Ave & E 87 St,7323.09,E 82 St & East End Ave,7049.04,40.78232260730881,-73.95987510681152,40.7724607,-73.9468208,casual
380148582A7CE690,classic_bike,2023-06-09 19:59:42,2023-06-09 20:34:04,Driggs Ave & N 9 St,5411.08,Metropolitan Ave & Bedford Ave,5308.04,40.718195558,-73.955095887,40.71534825,-73.96024116,member
99621133DB80B288,classic_bike,2023-06-20 07:57:25,2023-06-20 08:14:27,W 34 St & 11 Ave,6578.01,MacDougal St & Prince St,5687.04,40.756119847,-74.002485991,40.72710258,-74.00297088,member
FF40C59CCC470AAE,classic_bike,2023-06-22 07:12:25,2023-06-22 07:22:11,Bedford Ave & Montgomery St,3736.03,West Drive & Prospect Park West,3651.04,40.665812731,-73.956870317,40.6610633719006,-73.97945255041122,member
8A8B67D96FF75197,classic_bike,2023-06-01 21:39:05,2023-06-01 21:48:38,W 31 St & 7 Ave,6331.01,11 Ave & W 41 St,6726.01,40.749156,-73.9916,40.76030096,-73.99884222,member
4C1869F09D1220BC,classic_bike,2023-06-22 16:49:45,2023-06-22 16:57:37,34 Ave & 38 St,6638.01,25 Ave & 41 St,6943.07,40.756913,-73.921631,40.767666,-73.910963,member
4C30BD561775B24D,classic_bike,2023-06-21 08:51:45,2023-06-21 08:54:16,Bank St & Hudson St,5922.08,Barrow St & Hudson St,5805.05,40.73652889,-74.00618026,40.73172428,-74.00674436,member
BFF661B90BEE4085,classic_bike,2023-06-25 19:22:31,2023-06-25 19:48:12,West End Ave & W 60 St,7059.08,11 Ave & W 41 St,6726.01,40.77237,-73.99005,40.76030096,-73.99884222,casual
6A3B804CE19C3BCE,classic_bike,2023-06-30 22:47:49,2023-06-30 22:52:31,Madison Ave & E 26 St,6131.12,E 17 St & Broadway,5980.07,40.742684734875695,-73.98671329021454,40.73704984,-73.99009296,casual
1084EC6B6E6EEDC6,classic_bike,2023-06-25 12:17:22,2023-06-25 12:22:02,W 56 St & 8 Ave,6884.03,Central Park S & 6 Ave,6876.04,40.765959181657976,-73.98313522338867,40.76590936,-73.97634151,member
59915AAC426AA9C8,classic_bike,2023-06-01 18:15:54,2023-06-01 18:24:23,Pearl St & Hanover Square,4993.02,Leonard St & Church St,5359.11,40.7047177,-74.00926027,40.717571,-74.005549,member
D4C3CE478959E300,classic_bike,2023-06-17 10:52:42,2023-06-17 11:13:40,Prospect Park SW & Greenwood Ave,3385.06,Clermont Ave & Lafayette Ave,4461.01,40.652563,-73.972573,40.68764484,-73.96968902,member
D59C945A291478A4,electric_bike,2023-06-12 17:53:59,2023-06-12 18:19:45,Fulton St & Broadway,5175.08,Plaza St West & Flatbush Ave,4010.13,40.711066,-74.009447,40.6750207,-73.97111473,member
AA0B8DA6032E6FD4,classic_bike,2023-06-20 13:44:18,2023-06-20 13:55:25,Home St & Westchester Ave,8020.01,Home St & Westchester Ave,8020.01,40.827629,-73.886659,40.827629,-73.886659,member
DDFE753B2CED0DAD,classic_bike,2023-06-27 16:51:59,2023-06-27 16:54:58,Carroll St & 6 Ave,4019.06,Garfield Pl & 8 Ave,3978.13,40.674121022,-73.978663087,40.6711978,-73.97484126,member
55E5F92A026175AE,classic_bike,2023-06-19 13:46:11,2023-06-19 14:21:42,E 91 St & 2 Ave,7286.01,W 135 St & Lenox Terrace Pl,7832.04,40.78115276427916,-73.94963040947914,40.813619,-73.939336,member
A00CF5FB5E9314A6,classic_bike,2023-06-09 18:57:44,2023-06-09 19:02:29,Willis Ave & E 137 St,7726.02,Bergen Ave & E 152 St,7858.02,40.808363557,-73.923658252,40.817166,-73.914737,member
AE95C0EAAC63EDC7,classic_bike,2023-06-22 15:00:31,2023-06-22 15:18:48,President St & Henry St,4307.13,Lafayette Ave & Ft Greene Pl,4470.09,40.682781696,-73.999800324,40.68700231292619,-73.97664964199066,member
66B0CE4139CE758A,classic_bike,2023-06-15 22:59:47,2023-06-15 23:03:09,Adam Clayton Powell Blvd & W 141 St,7893.05,W 147 St & Adam Clayton Powell Blvd,7971.07,40.819378853,-73.941073298,40.82281,-73.937413,member
7518BB1A84A072A1,classic_bike,2023-06-01 18:49:26,2023-06-01 18:53:39,Court St & State St,4488.08,Bergen St & Smith St,4446.01,40.6902375,-73.99203074,40.6867443,-73.99063168,member
2D0616AFB3DA120F,classic_bike,2023-06-29 21:00:58,2023-06-29 21:09:11,Market St & Henry St,5270.09,Ave A & E 14 St,5779.11,40.713328362,-73.994356036,40.73031071000895,-73.98047178983688,member
F32C30F261A01D3D,classic_bike,2023-06-28 21:28:39,2023-06-28 21:52:35,E 2 St & 2 Ave,5593.02,Lexington Ave & Classon Ave,4452.03,40.725028276,-73.990883708,40.68676793,-73.95928168,member
254F0EF4E73A2EEE,classic_bike,2023-06-08 11:00:10,2023-06-08 11:02:52,W 50 St & 10 Ave,6890.06,Broadway & W 48 St,6708.04,40.764763832,-73.992030025,40.76017739537783,-73.98486793041229,member
9884D329EB1600AC,classic_bike,2023-06-01 19:58:13,2023-06-01 20:04:13,W 27 St & 6 Ave,6215.07,10 Ave & W 28 St,6459.04,40.74526,-73.99062,40.75066386,-74.00176802,casual
C234AA6D5BA39FFE,classic_bike,2023-06-06 17:04:11,2023-06-06 17:23:38,E 58 St & 3 Ave,6762.02,11 Ave & W 41 St,6726.01,40.76095756,-73.96724467,40.76030096,-73.99884222,member
3B379494E43F7D5D,classic_bike,2023-06-13 16:48:55,2023-06-13 16:54:33,Vernon Blvd & 10 St,6937.07,21 St & 31 Dr,6865.03,40.7671863,-73.9373554,40.7659,-73.930819,member
93DC45BD1F71CD2E,classic_bike,2023-06-19 16:22:56,2023-06-19 16:38:58,Southpoint Park,6566.01,Roosevelt Island Tramway,6599.01,40.75364089,-73.958832502,40.757284,-73.9536,casual
3757EE3EE75CC46D,classic_bike,2023-06-19 16:44:51,2023-06-19 16:46:38,Broadway & Whipple St,4883.03,Tompkins Ave & Hopkins St,4850.04,40.7016657,-73.9437303,40.69957608,-73.94708417,member
701366451900E9BC,classic_bike,2023-06-07 07:55:52,2023-06-07 08:02:14,W Fordham Rd & Loring Pl N,8590.01,Goulden Ave & W 197 St,8707.01,40.86295,-73.90741,40.87156,-73.89714,member
5185A93D9DB81CE0,classic_bike,2023-06-08 17:12:09,2023-06-08 17:20:43,Broadway & W 25 St,6173.08,W 42 St & 6 Ave,6517.08,40.74286877312112,-73.98918628692627,40.75492,-73.98455,casual
88FB02713459E8E0,classic_bike,2023-06-12 07:51:53,2023-06-12 07:53:18,W 64 St & Thelonious Monk Circle,7123.04,West End Ave & W 60 St,7059.08,40.77515953434235,-73.98918695747852,40.77237,-73.99005,member
FC460C3F8AF805BD,classic_bike,2023-06-03 23:53:13,2023-06-04 00:00:09,Stagg St & Union Ave,5117.05,Bedford Ave & Nassau Ave,5550.05,40.70877084,-73.95095259,40.72311651,-73.95212324,member
82DEE4DCAAE0CEC7,classic_bike,2023-06-29 17:43:17,2023-06-29 17:53:24,W 100 St & Manhattan Ave,7538.14,Amsterdam Ave & W 79 St,7311.02,40.794966936,-73.964585423,40.7829391,-73.9786517,member
207B319EFDCA568B,classic_bike,2023-06-05 13:26:30,2023-06-05 13:31:23,Stockholm St & Wilson Ave,4824.03,Hart St & Wyckoff Ave,4971.01,40.699304,-73.923044,40.704876,-73.919911,member
818FE774C142555B,classic_bike,2023-06-21 08:38:12,2023-06-21 08:42:18,W 30 St & 10 Ave,6459.07,8 Ave & W 31 St,6450.05,40.752795339,-74.002835155,40.7505853470215,-73.9946848154068,member
631BC34C64826EA8,classic_bike,2023-06-06 18:07:41,2023-06-06 18:13:35,31 Ave & Crescent St,6893.1,Broadway & 12 St,6901.01,40.7658346,-73.9265474,40.7668,-73.9347774,member
CFAE26016EB24FF1,classic_bike,2023-06-10 10:20:34,2023-06-10 10:30:52,2 Ave & E 96 St,7338.02,E 82 St & East End Ave,7049.04,40.7839636,-73.9471673,40.7724607,-73.9468208,member
30C9B2183A336108,classic_bike,2023-06-25 10:02:13,2023-06-25 10:31:27,Albany Ave & Carroll St,3791.02,Eastern Pkwy & Troy Ave,3862.07,40.6667,-73.93972,40.66929,-73.93679,member
5CFC9202F2942C8F,classic_bike,2023-06-17 21:37:00,2023-06-17 21:40:26,E 60 St & York Ave,6682.08,E 72 St & York Ave,6889.12,40.759074807,-73.959191322,40.76663814,-73.95348296,member
136EDF2DD1B6B0D8,classic_bike,2023-06-01 18:08:32,2023-06-01 18:11:32,E 4 St & Ave B,5515.08,E 2 St & Avenue A,5553.10,40.72334683218016,-73.98265913128853,40.72307749068673,-73.98583620786667,member
4FE96226BEF6E3B9,classic_bike,2023-06-08 18:45:28,2023-06-08 18:55:41,E 44 St & 2 Ave,6422.09,Lexington Ave & E 24 St,6089.07,40.75118387463277,-73.97138714790344,40.74025878,-73.98409214,member
3BA8858EB422A13F,electric_bike,2023-06-26 21:24:05,2023-06-26 21:32:55,9 Ave & W 45 St,6717.06,W 31 St & 7 Ave,6331.01,40.76019252,-73.9912551,40.749156,-73.9916,casual
76B599151753976B,classic_bike,2023-06-09 12:54:04,2023-06-09 12:54:05,Bergen Ave & E 152 St,7858.02,Bergen Ave & E 152 St,7858.02,40.817166,-73.914737,40.817166,-73.914737,member
A3803CCA444D60A9,electric_bike,2023-06-06 08:54:41,2023-06-06 08:59:14,DeKalb Ave & S Portland Ave,4546.04,Washington Park,4546.05,40.68981035,-73.97493121,40.6917823,-73.9737299,casual
6C4E6BAADFF1B16E,electric_bike,2023-06-21 20:21:17,2023-06-21 20:32:42,Greenwich Ave & Charles St,5914.08,Lexington Ave & E 24 St,6089.07,40.735238,-74.000271,40.74025878,-73.98409214,member
2950AE47B1F3D78F,classic_bike,2023-06-07 08:09:30,2023-06-07 08:25:07,Macombs Rd & W 175 St,8344.04,Lincoln Ave & E 134 St,7712.06,40.847861171,-73.916455984,40.808484,-73.928803,member
1D9AADAEF63FF068,electric_bike,2023-06-22 06:36:48,2023-06-22 06:37:08,E 74 St & 1 Ave,6953.08,E 74 St & 1 Ave,6953.08,40.7689738,-73.95482273,40.7689738,-73.95482273,member
B6F9F4FFA2AB5E35,classic_bike,2023-06-03 20:02:03,2023-06-03 20:04:33,9 Ave & W 18 St,6190.08,8 Ave & W 16 St,6072.11,40.74317449,-74.00366443,40.740983,-74.001702,member
86523EF4B6D38A30,classic_bike,2023-06-25 14:48:31,2023-06-25 14:52:44,20 Ave & 38 St,7196.04,35 St & 21 Ave,7170.04,40.777112,-73.902382,40.776745,-73.906558,member
F42F52D625604558,classic_bike,2023-06-07 11:25:20,2023-06-07 11:33:12,Crescent St & 34 Ave,6759.15,Vernon Blvd & 31 Ave,7003.06,40.76108,-73.930562,40.7692475,-73.9354504,casual
485643883CDF9098,classic_bike,2023-06-10 18:19:01,2023-06-10 18:24:21,Fulton St & Broadway,5175.08,Vesey Pl & River Terrace,5297.02,40.711066,-74.009447,40.7153379,-74.01658354,member
82F27129DC937777,electric_bike,2023-06-03 16:36:29,2023-06-03 16:43:49,Leonard St & Nassau Ave,5550.09,Van Dam St & Greenpoint Ave,5883.06,40.7239567849954,-73.94984364509583,40.73443564069459,-73.93790781497955,member
05CD16493E388851,classic_bike,2023-06-15 08:01:38,2023-06-15 08:03:59,Graham Ave & Withers St,5403.04,Richardson St & N Henry St,5433.03,40.7169811,-73.94485918,40.71907891179564,-73.94223690032959,member
119F1556BD082DB5,classic_bike,2023-06-15 10:21:56,2023-06-15 10:48:50,W 49 St & 8 Ave,6747.06,W 45 St & 8 Ave,6676.02,40.762236714,-73.987776518,40.75929124,-73.98859651,member
B4DFA670CF4CDFA4,classic_bike,2023-06-23 18:18:20,2023-06-23 18:25:39,23 St & 31 Ave,6929.01,31 Ave & Steinway St,6782.01,40.76663971723091,-73.9286595582962,40.7611488,-73.9170071,member
8147132FD9F998EC,classic_bike,2023-06-06 08:28:55,2023-06-06 08:40:34,Prospect Pl & Nostrand Ave,4025.02,Plaza St West & Flatbush Ave,4010.13,40.67428,-73.9503,40.6750207,-73.97111473,member
46F3C43BE8A203DC,classic_bike,2023-06-16 19:09:15,2023-06-16 19:14:21,W 37 St & Broadway,6441.06,8 Ave & W 27 St,6297.07,40.75227093837409,-73.98770570755005,40.747968,-73.996637,member
3E59876B4DA7D7E4,classic_bike,2023-06-25 17:57:12,2023-06-25 18:09:27,E 13 St & 2 Ave,5820.08,William St & Pine St,5065.12,40.731392384,-73.984864354,40.70717936,-74.00887308,member
D9472C4BA80BE8E1,classic_bike,2023-06-18 15:36:48,2023-06-18 15:42:51,Amsterdam Ave & W 73 St,7260.09,Riverside Dr & W 82 St,7388.10,40.77966809007312,-73.98093044757842,40.78720869,-73.98128127,member
C3FCCFF85803A807,classic_bike,2023-06-14 18:12:56,2023-06-14 18:23:15,W 51 St & Rockefeller Plaza,6700.14,Amsterdam Ave & W 66 St,7149.05,40.75973805251143,-73.97811613976955,40.7746671,-73.98470567,member
CBF8E45ED903DBEB,classic_bike,2023-06-29 16:39:16,2023-06-29 16:40:08,10 Ave & W 14 St,6157.04,W 15 St & 10 Ave,6115.09,40.74198159994023,-74.00831580162048,40.74275382865903,-74.00747358798981,member
F63EBF983F166A13,classic_bike,2023-06-29 13:55:04,2023-06-29 14:13:48,Morton St & Washington St,5772.05,Amsterdam Ave & W 66 St,7149.05,40.731153488,-74.008301854,40.7746671,-73.98470567,member
0979AD02616474A5,classic_bike,2023-06-08 16:09:31,2023-06-08 16:15:02,E 32 St & Park Ave,6280.12,W 31 St & 7 Ave,6331.01,40.745216131,-73.9817698,40.749156,-73.9916,member
0A72E811B5725A82,classic_bike,2023-06-28 18:19:30,2023-06-28 18:26:27,31 Ave & 34 St,6819.15,Vernon Blvd & 31 Ave,7003.06,40.763154,-73.920827,40.7692475,-73.9354504,member
884ECCC55B39C2BD,classic_bike,2023-06-04 19:28:57,2023-06-04 19:41:18,E 4 St & 2 Ave,5593.04,Market St & Cherry St,5198.04,40.7262807,-73.98978041,40.71076228,-73.99400398,member
D3C6F5068D88768D,classic_bike,2023-06-23 14:31:45,2023-06-23 14:56:03,Concourse Village East & E 158 St,8000.02,Grand Concourse & E 164 St,8057.02,40.823662162,-73.919523358,40.829608,-73.921461,casual
85D426E43A3EEADE,classic_bike,2023-06-21 15:44:05,2023-06-21 15:49:10,W 43 St & 6 Ave,6593.14,11 Ave & W 41 St,6726.01,40.754965425,-73.983636618,40.76030096,-73.99884222,member
A43CF3EBDDED4F80,classic_bike,2023-06-07 17:33:51,2023-06-07 17:41:25,W 51 St & 6 Ave,6740.1,W 53 St & 10 Ave,6890.01,40.7606597,-73.98042047,40.76669671,-73.99061728,member
D0C05FF414D14830,classic_bike,2023-06-29 18:55:12,2023-06-29 18:58:19,W 43 St & 10 Ave,6756.01,11 Ave & W 41 St,6726.01,40.76009437,-73.99461843,40.76030096,-73.99884222,member
3F1A0284CC32B13D,classic_bike,2023-06-04 12:29:29,2023-06-04 12:48:31,Clermont Ave & Lafayette Ave,4461.01,Bedford Ave & Nassau Ave,5550.05,40.68764484,-73.96968902,40.72311651,-73.95212324,member
6A3A2507B584220D,classic_bike,2023-06-24 12:57:21,2023-06-24 13:02:39,1 Ave & E 16 St,5779.08,E 6 St & 2 Ave,5669.12,40.73221853,-73.98165557,40.72737869323223,-73.98840844631195,member
BA94F9D29DDCBBC7,classic_bike,2023-06-12 17:19:49,2023-06-12 17:25:29,University Pl & E 14 St,5905.14,W 15 St & 10 Ave,6115.09,40.734671593,-73.992079735,40.74275382865903,-74.00747358798981,member
FB4C1369FCC8DC69,classic_bike,2023-06-07 20:07:51,2023-06-07 20:20:25,E 13 St & Avenue A,5779.09,E 4 St & 2 Ave,5593.04,40.72966729392978,-73.98067966103554,40.7262807,-73.98978041,casual
80D8DDC15DB11571,classic_bike,2023-06-10 12:05:24,2023-06-10 12:09:39,E 9 St & 5 Ave,5872.10,E 17 St & Broadway,5980.07,40.73275887045087,-73.99581670761108,40.73704984,-73.99009296,member
730326E4290984CE,classic_bike,2023-06-14 09:50:50,2023-06-14 09:56:47,W 37 St & 5 Ave,6398.06,W 27 St & 7 Ave,6247.06,40.75038009,-73.98338988,40.746647,-73.993915,member
D34AD5E7F481D84E,classic_bike,2023-06-27 09:26:45,2023-06-27 09:32:39,W 22 St & 8 Ave,6224.03,Broadway & E 21 St,6098.1,40.74475148,-73.99915362,40.73988840858996,-73.98958593606949,member
FE96485CB324C70A,classic_bike,2023-06-28 18:21:50,2023-06-28 18:22:10,Broadway & W 48 St,6708.04,Broadway & W 48 St,6708.04,40.76017739537783,-73.98486793041229,40.76017739537783,-73.98486793041229,member
F8291CB24C0988B8,classic_bike,2023-06-22 16:33:10,2023-06-22 17:19:56,Withers St & Kingsland Ave,5362.08,Graham Ave & Grand St,5178.06,40.71773,-73.94051,40.711863,-73.944024,casual
17BF24CF36450C78,classic_bike,2023-06-03 14:10:29,2023-06-03 14:22:21,Division St & Bowery,5270.08,1 Ave & E 16 St,5779.08,40.714193,-73.996732,40.73221853,-73.98165557,member
D8A0FCCB3F6FA14A,classic_bike,2023-06-15 18:48:03,2023-06-15 19:00:33,E 97 St & 3 Ave,7365.08,Amsterdam Ave & W 66 St,7149.05,40.785874367,-73.948534489,40.7746671,-73.98470567,member
B1D4CD1F256CF4DE,electric_bike,2023-06-11 13:32:32,2023-06-11 13:40:02,Scholes St & Manhattan Ave,5108.01,Bayard St & Leonard St,5442.05,40.70870368,-73.9448625,40.71915571696044,-73.94885390996933,member
00E5612AFD9055F0,classic_bike,2023-06-16 13:12:33,2023-06-16 13:33:34,E 1 St & Bowery,5636.13,Lexington Ave & E 24 St,6089.07,40.72486122254819,-73.99213135242462,40.74025878,-73.98409214,member
286B29F6F47729EB,classic_bike,2023-06-09 10:32:11,2023-06-09 10:41:36,Leonard St & Church St,5359.11,E 4 St & 2 Ave,5593.04,40.717571,-74.005549,40.7262807,-73.98978041,member
DFEE7A8B35A283CD,classic_bike,2023-06-14 18:12:25,2023-06-14 18:20:17,31 Ave & 30 St,6857.09,38 Ave & 29 St,6538.11,40.7647,-73.9240312,40.75473,-73.93367,member
801B20AD38300F51,classic_bike,2023-06-05 20:29:50,2023-06-05 20:36:57,W 37 St & 10 Ave,6611.02,W 12 St & Hudson St,5997.10,40.756614566,-73.99809742,40.73752993301071,-74.00558933615685,member
9842C1B4C9D67291,classic_bike,2023-06-21 18:08:02,2023-06-21 18:28:56,W 21 St & 6 Ave,6140.05,West St & Liberty St,5184.08,40.74173969,-73.99415556,40.711444,-74.014847,member
ABDDF041650C8363,classic_bike,2023-06-13 20:18:21,2023-06-13 20:29:31,Rivington St & Ridge St,5406.02,E 13 St & 2 Ave,5820.08,40.71850211,-73.98329859,40.73153937464073,-73.9853024482727,member
81277352F4265E83,classic_bike,2023-06-15 10:37:15,2023-06-15 10:56:52,E 77 St & 3 Ave,7092.06,Park Ave & E 124 St,7682.01,40.773242831,-73.958662033,40.8045555,-73.9396861,member
6AFE4F7D18116F5B,classic_bike,2023-06-01 22:52:46,2023-06-01 23:02:39,W 34 St & 11 Ave,6578.01,West End Ave & W 60 St,7059.08,40.75594159,-74.0021163,40.77237,-73.99005,casual
06FCA874053E0319,classic_bike,2023-06-21 19:35:07,2023-06-21 20:19:23,Leonard St & Nassau Ave,5550.09,Driggs Ave & S 2 St,5235.10,40.7239567849954,-73.94984364509583,40.712628,-73.960575,casual
078C768DB03ACB10,electric_bike,2023-06-11 15:23:32,2023-06-11 15:28:47,Hazen St & 20 Ave,7032.06,31 St & Ditmars Blvd,7144.02,40.772092,-73.895166,40.776168,-73.910485,member
6E1B1D35484A3969,classic_bike,2023-06-09 14:09:24,2023-06-09 14:14:11,Scholes St & Manhattan Ave,5108.01,Graham Ave & Grand St,5178.06,40.70870368,-73.9448625,40.711863,-73.944024,member
175BFC74C333658D,classic_bike,2023-06-01 12:43:15,2023-06-01 13:00:25,W 4 St & 7 Ave S,5880.02,E 23 St & 1 Ave,5929.01,40.73401143,-74.00293877,40.736502,-73.97809472,member
A94BDFB247A41071,classic_bike,2023-06-11 13:25:58,2023-06-11 13:33:16,E 17 St & Broadway,5980.07,W 10 St & Washington St,5847.06,40.736905217,-73.989683747,40.73342399437081,-74.00851495563984,member
FAED4C21E81B5DB0,classic_bike,2023-06-16 00:25:18,2023-06-16 00:41:01,8 Ave & W 31 St,6450.05,E 22 St & 2 Ave,5971.09,40.7505853470215,-73.9946848154068,40.73716919369882,-73.98122549057007,member
A3237D4D386FB293,classic_bike,2023-06-16 11:47:31,2023-06-16 12:17:54,Atlantic Ave & Furman St,4614.04,Front St & Jay St,4895.03,40.69165183,-73.9999786,40.702461,-73.986842,casual
CBC4EC85E0D4FC12,classic_bike,2023-06-14 17:15:11,2023-06-14 17:32:45,11 Ave & W 59 St,7059.01,E 9 St & 5 Ave,5872.10,40.771644235,-73.990532637,40.73275887045087,-73.99581670761108,member
DA37C72A66390C2B,classic_bike,2023-06-10 15:36:14,2023-06-10 15:44:18,E 20 St & FDR Dr,5886.13,Broadway & E 21 St,6098.10,40.733208626522426,-73.9756813647,40.73988840858996,-73.98958593606949,member
38D27D5919BDBCA7,classic_bike,2023-06-18 13:11:36,2023-06-18 14:03:22,Van Sinderen Ave & Truxton St,4161.01,Central Park S & 6 Ave,6876.04,40.678604007,-73.903727055,40.76590936,-73.97634151,member
9EA1F570078CEEED,classic_bike,2023-06-24 09:55:37,2023-06-24 10:10:00,Caton Ave & Argyle Rd,3303.03,Plaza St East & Flatbush Ave,4010.01,40.649681,-73.967829,40.673134,-73.969106,member
9D57A98825C54886,classic_bike,2023-06-07 21:22:58,2023-06-07 21:28:49,5 Ave & 3 St,3987.06,Plaza St West & Flatbush Ave,4010.13,40.672810316,-73.983529449,40.6750207,-73.97111473,member
AD29CE5D5F74D750,classic_bike,2023-06-19 21:09:18,2023-06-19 21:27:21,W 59 St & 10 Ave,7023.04,Broadway & E 21 St,6098.10,40.77060926,-73.988401294,40.73988840858996,-73.98958593606949,member
F409F4A3991E8F05,classic_bike,2023-06-25 17:20:23,2023-06-25 17:28:05,9 Ave & W 45 St,6717.06,W 30 St & 8 Ave,6373.07,40.76019252,-73.9912551,40.74965268472847,-73.9952078461647,member
B72D39BB31ABF833,classic_bike,2023-06-03 13:23:49,2023-06-03 13:24:02,Ditmars Blvd & 79 St,6994.06,Ditmars Blvd & 79 St,6994.06,40.768769503,-73.890850663,40.768728,-73.890745,member
B8CFE201519BD736,classic_bike,2023-06-24 10:22:40,2023-06-24 10:34:02,FDR Drive & E 35 St,6230.04,E 45 St & 3 Ave,6464.08,40.743903399,-73.971375942,40.75255434,-73.97282625,casual
9711D67E7782E580,classic_bike,2023-06-23 18:24:31,2023-06-23 18:43:31,Washington Pl & 6 Ave,5838.09,11 Ave & W 41 St,6726.01,40.73224119,-74.00026394,40.76030096,-73.99884222,member
AD8527143ECDCF47,classic_bike,2023-06-13 22:20:32,2023-06-13 22:26:36,5 Ave & E 29 St,6248.06,University Pl & E 14 St,5905.14,40.7451677,-73.98683077,40.734814,-73.992085,member
8F605DF516A4815D,classic_bike,2023-06-21 17:13:56,2023-06-21 17:23:29,W 15 St & 6 Ave,5989.02,Broadway & W 41 St,6560.01,40.738046142482766,-73.99642959237099,40.75513557,-73.98658032,member
AC7E888D5F5FF3ED,classic_bike,2023-06-07 14:40:48,2023-06-07 14:51:10,E 43 St & Madison Ave,6551.11,9 Ave & W 18 St,6190.08,40.753611803,-73.979148507,40.74317449,-74.00366443,member
520CB7403660FAAE,classic_bike,2023-06-22 18:29:44,2023-06-22 18:34:33,Vernon Blvd & 50 Ave,6170.02,McGuinness Blvd & Eagle St,5977.01,40.74232744,-73.95411749,40.73555,-73.95284,member
3571F365BDECCFD8,classic_bike,2023-06-12 09:06:18,2023-06-12 09:17:03,E 3 St & 1 Ave,5553.03,E 17 St & Broadway,5980.07,40.72467721,-73.98783413,40.73704984,-73.99009296,member
89E29AB9AC5774A1,classic_bike,2023-06-22 16:16:58,2023-06-22 16:28:02,E 41 St & Madison Ave (SE corner),6432.1,W 67 St & Broadway,7116.04,40.75227046,-73.979371667,40.77492513,-73.98266566,member
DDB043B18BCD7015,classic_bike,2023-06-26 13:28:57,2023-06-26 13:37:26,W 24 St & 7 Ave,6257.03,E 9 St & 5 Ave,5872.10,40.74471271,-73.995559335,40.73275887045087,-73.99581670761108,member
B9A881DE71D77490,classic_bike,2023-06-29 18:01:59,2023-06-29 18:57:19,Bank St & Hudson St,5922.08,Broadway & W 160 St,8157.06,40.736534238,-74.00600481,40.835775,-73.9434,member
87D8E0FA3831E81E,classic_bike,2023-06-08 17:47:43,2023-06-08 17:53:19,Greenpoint Ave & Manhattan Ave,5785.05,Morgan Ave & Lombardy St,5503.01,40.730278015,-73.953998566,40.72226,-73.93889,member
CACE3A6A26AFF3D8,classic_bike,2023-06-29 18:16:29,2023-06-29 18:28:16,Waterbury St & Stagg St,5099.02,N 10 St & Berry St,5450.01,40.71019,-73.93734,40.720253,-73.957082,member
