ride_id,rideable_type,started_at,ended_at,start_station_name,start_station_id,end_station_name,end_station_id,start_lat,start_lng,end_lat,end_lng,member_casual
93F66C0BBC662941,classic_bike,2023-10-27 06:56:41,2023-10-27 07:22:20,Astoria Park S & Shore Blvd,7159.08,E 78 St & 2 Ave,7057.07,40.776542187,-73.927461505,40.7727966,-73.95577801,member
0F563143B0554C3A,classic_bike,2023-10-23 09:57:38,2023-10-23 10:07:37,W 44 St & 5 Ave,6551.02,W 52 St & 11 Ave,6926.01,40.754639745,-73.980779529,40.76727216,-73.99392888,member
3DD80C4CA5FCE82D,classic_bike,2023-10-17 10:23:32,2023-10-17 10:45:33,E 85 St & 3 Ave,7212.05,E 23 St & 1 Ave,5929.01,40.778074384,-73.954235196,40.736502,-73.97809472,member
07B713C97F7B35F6,classic_bike,2023-10-03 17:23:37,2023-10-03 17:34:53,St Marks Pl & 4 Ave,4249.10,Underhill Ave & Lincoln Pl,4042.08,40.681601167,-73.979935408,40.6740123,-73.9671457,member
F01309B626854CB1,electric_bike,2023-10-03 08:09:26,2023-10-03 10:22:45,Suffolk St & Stanton St,5445.02,Clinton St & Cherry St,5190.09,40.72066442,-73.98517977,40.711471394469264,-73.98672603070736,member
87AAB9CF0F812D16,classic_bike,2023-10-01 14:04:11,2023-10-01 14:06:57,Fort Washington Ave & W 173 St,8320.01,Cabrini Blvd & W 177 St,8358.10,40.84522,-73.940493,40.848282,-73.941343,member
5395BFC1C6A5BA29,classic_bike,2023-10-12 21:28:38,2023-10-12 21:57:52,Greene Ave & Throop Ave,4510.04,Bedford Ave & Maple St,3625.04,40.6894932,-73.942061,40.66035,-73.95679,casual
C73F8BBEC4B69B01,classic_bike,2023-10-03 09:42:30,2023-10-03 09:54:29,5 Ave & E 63 St,6904.06,W 52 St & 11 Ave,6926.01,40.766368,-73.971518,40.76727216,-73.99392888,member
31F92323861CCA6D,classic_bike,2023-10-25 07:33:44,2023-10-25 07:39:11,Adelphi St & Myrtle Ave,4620.02,Bergen St & Vanderbilt Ave,4157.10,40.692852855,-73.971846938,40.6794388,-73.9680438,member
38427E684E2E66CA,classic_bike,2023-10-10 11:56:54,2023-10-10 14:46:27,8 Ave & W 31 St,6450.05,W 22 St & 10 Ave,6306.06,40.750818968,-73.994551539,40.74691959,-74.00451887,casual
EBD6D63D36CA4A91,classic_bike,2023-10-01 19:41:26,2023-10-01 20:03:00,Broad St & Bridge St,4962.08,W 11 St & 6 Ave,5914.03,40.70365182,-74.01167797,40.73532427,-73.99800419,member
724425C15F509E69,classic_bike,2023-10-18 11:18:25,2023-10-18 11:31:29,Kent Ave & Division Ave,5021.05,Henry St & Atlantic Ave,4531.05,40.706301928,-73.968216419,40.69089272,-73.99612349,member
0A791E1AC2A368FC,classic_bike,2023-10-07 20:49:49,2023-10-07 20:53:10,Cadman Plaza E & Red Cross Pl,4821.06,Clinton St & Tillary St,4748.07,40.69991755,-73.98971773,40.69623297129316,-73.99142056703568,member
02474C34EC885E36,classic_bike,2023-10-22 15:29:51,2023-10-22 15:41:40,W 27 St & 7 Ave,6247.06,W 10 St & Washington St,5847.06,40.746647,-73.993915,40.73342399437081,-74.00851495563984,casual
774AADE0D3A9404E,classic_bike,2023-10-22 18:32:44,2023-10-22 18:44:41,1 Ave & E 6 St,5626.15,E 51 St & Lexington Ave,6659.01,40.726063609,-73.986173272,40.75714758,-73.97207836,member
E2239378009A4D7F,classic_bike,2023-10-01 09:35:06,2023-10-01 09:38:42,36 Ave & 10 St,6737.03,28 St & 36 Ave,6614.01,40.761426568,-73.941133976,40.757186,-73.932719,casual
C82B0007AA827FD0,classic_bike,2023-10-19 13:34:33,2023-10-19 13:39:00,Broadway & W 220 St,8715.01,Seaman Ave & Beak St,8650.11,40.872433066,-73.912762284,40.867505,-73.926363,member
FC1C0003ACAAB2D0,classic_bike,2023-10-05 18:56:38,2023-10-05 18:57:46,Bayard St & Leonard St,5442.05,Union Ave & N 12 St,5411.07,40.71915571696044,-73.94885390996933,40.71924,-73.95242,member
13289C4A92B37182,classic_bike,2023-10-30 17:41:42,2023-10-30 17:56:04,E 106 St & Madison Ave,7528.31,E 97 St & Madison Ave,7393.09,40.7934337,-73.94945003,40.787801,-73.953559,member
7549B513A2053BD8,classic_bike,2023-10-28 18:12:08,2023-10-28 19:43:50,University Pl & E 14 St,5905.14,67 St & Erik Pl,2733.03,40.734894156,-73.99228608600001,40.633385,-74.016562,member
F74126878972083E,classic_bike,2023-10-03 15:07:35,2023-10-03 15:15:39,Madison Ave & E 26 St,6131.12,W 31 St & 7 Ave,6331.01,40.742684734875695,-73.98671329021454,40.749156,-73.9916,member
A302CF6F9D8A1FA0,classic_bike,2023-10-26 21:45:47,2023-10-26 21:57:01,Greene St & Prince St,5602.06,Lexington Ave & E 24 St,6089.07,40.72511734422387,-73.99930492043495,40.74025878,-73.98409214,member
EE16B13897968507,classic_bike,2023-10-25 17:08:53,2023-10-25 17:18:36,Ralph Ave & Fulton St,4220.02,Monroe St & Bedford Ave,4368.05,40.67922,-73.92192,40.6851443,-73.95380904,member
26A9BB7221815C4F,classic_bike,2023-10-12 20:43:17,2023-10-12 20:56:54,Leonard St & Church St,5359.11,Grand St & Elizabeth St,5382.06,40.717571,-74.005549,40.718822,-73.99596,member
9592ACD3A9C4130D,classic_bike,2023-10-24 15:25:14,2023-10-24 15:35:34,3 Ave & E 174 St,8241.07,Bergen Ave & E 152 St,7858.02,40.842222452,-73.898559809,40.817166,-73.914737,member
3EE606860A47FA7C,classic_bike,2023-10-18 22:12:14,2023-10-18 22:20:24,E 47 St & 2 Ave,6498.10,8 Ave & W 49 St,6747.07,40.7533319,-73.970670462,40.76171227910671,-73.98655101656914,member
0818DB766E10C50C,classic_bike,2023-10-18 18:33:41,2023-10-18 18:44:46,Greenwich Ave & 8 Ave,6072.06,E 2 St & 2 Ave,5593.02,40.7390169121,-74.0026376103,40.72502876,-73.99069656,member
87D8FC73A817E45B,classic_bike,2023-10-29 20:09:42,2023-10-29 20:14:17,Grand Army Plaza & Central Park S,6839.10,Amsterdam Ave & W 66 St,7149.05,40.763510704,-73.973518968,40.7746671,-73.98470567,member
8A4E922F0981EC9C,classic_bike,2023-10-02 16:47:53,2023-10-02 16:51:16,Bayard St & Baxter St,5351.03,Howard St & Lafayette St,5422.04,40.71602118,-73.99974372,40.71910537,-73.99973337,member
64218981BBE2B5C5,classic_bike,2023-10-28 18:41:02,2023-10-28 18:41:44,E 97 St & Madison Ave,7393.09,E 97 St & Madison Ave,7393.09,40.787743926,-73.953526258,40.787801,-73.953559,member
087EBE8EFDAB25EF,classic_bike,2023-10-10 17:08:06,2023-10-10 17:17:40,Amsterdam Ave & W 119 St,7727.08,3 Ave & E 100 St,7414.17,40.808735967,-73.959702373,40.7877214,-73.94728331,member
9FBDAC1ECE5BA607,classic_bike,2023-10-03 14:42:54,2023-10-03 14:55:26,Intervale Ave & Kelly St,8044.09,Webster Ave & Ford St,8472.08,40.827426553,-73.896262169,40.85556,-73.89615,member
C736A099E818978C,classic_bike,2023-10-04 18:52:08,2023-10-04 18:56:03,Greenpoint Ave & West St,5752.09,Eagle St & Manhattan Ave,5902.07,40.729790926,-73.959070325,40.735217,-73.954926,member
06F0D5247F78FBD5,classic_bike,2023-10-17 11:13:57,2023-10-17 11:23:57,E 56 St & Madison Ave,6732.01,Amsterdam Ave & W 73 St,7260.09,40.761204481,-73.972731948,40.77966809007312,-73.98093044757842,member
155D9E6CCCD6537A,classic_bike,2023-10-19 17:51:50,2023-10-19 18:10:57,Washington Pl & Broadway,5755.01,Wythe Ave & Metropolitan Ave,5348.02,40.729168773,-73.993915796,40.716887,-73.963198,member
9939D1B7642FD2E1,classic_bike,2023-10-26 15:53:43,2023-10-26 15:53:49,E 118 St & 3 Ave,7611.02,E 118 St & 3 Ave,7611.02,40.799139,-73.9389152,40.799139,-73.9389152,member
CF53F0618B15B80F,classic_bike,2023-10-24 23:55:56,2023-10-25 00:07:26,E 7 St & Ave B,5584.05,W 15 St & 7 Ave,6030.06,40.7251285241158,-73.98131668567657,40.73935542,-73.99931783,member
A8B5871D54FEFA48,classic_bike,2023-10-22 09:51:15,2023-10-22 09:58:21,W 74 St & Columbus Ave,7230.10,E 67 St & Park Ave,6932.14,40.778564811,-73.977666974,40.76780080148132,-73.96592080593109,member
FEC29F402B1748AD,classic_bike,2023-10-04 04:11:19,2023-10-04 04:23:39,Madison St & Montgomery St,5262.09,Greenwich St & W Houston St,5730.08,40.713128924,-73.984667301,40.728846,-74.008591,member
17EBC7158CFACDC9,classic_bike,2023-10-21 14:41:49,2023-10-21 14:48:17,Butler St & Court St,4339.01,Warren St & Smith St,4371.01,40.6849894,-73.99440329,40.68542400997018,-73.99127773940563,casual
846BD2529B4FE19C,classic_bike,2023-10-26 20:37:40,2023-10-26 20:40:40,Lenox Ave & W 117 St,7655.22,Lenox Ave & W 126 St,7720.03,40.8025566,-73.9490782,40.808442,-73.9452087,member
328EB3EFC7CA9916,classic_bike,2023-10-21 23:17:43,2023-10-21 23:24:55,Jerome Ave & Bedford Park Blvd E,8734.02,Goulden Ave & W 197 St,8707.01,40.872974992,-73.889774323,40.87156,-73.89714,member
456AB781F03B49B6,classic_bike,2023-10-22 00:14:52,2023-10-22 00:21:16,Suydam St & Broadway,4689.03,Wyckoff Ave & Jefferson St,5051.01,40.695563078,-73.932130694,40.707165,-73.923711,member
A6A962F68E480ECD,classic_bike,2023-10-21 13:53:26,2023-10-21 14:04:15,Front St & Gold St,4927.04,Clark St & Henry St,4789.03,40.702288747,-73.982521892,40.69760127,-73.99344559,member
4DF375959BA18F28,classic_bike,2023-10-10 08:33:44,2023-10-10 08:38:35,Bridge St & Water St,4968.03,Clinton St & Tillary St,4748.07,40.702538371,-73.984708905,40.69623297129316,-73.99142056703568,member
4411E4110DF5D2D9,classic_bike,2023-10-03 20:28:48,2023-10-03 20:46:28,Kosciuszko St & Tompkins Ave,4553.04,Fulton St & Saratoga Ave,4179.03,40.69129765,-73.945151448,40.67853,-73.91642,casual
81ED4C87DDEB1003,classic_bike,2023-10-11 01:41:46,2023-10-11 01:43:06,Dock St & Front St,4903.09,Old Fulton St,4903.08,40.702709,-73.99253,40.70277159,-73.99383605,member
2A9BD27108ECD5C1,classic_bike,2023-10-09 10:42:19,2023-10-09 10:58:51,River Ter & Warren St,5368.03,Hudson St & W 13 St,6115.06,40.717530847,-74.016076326,40.74005708567285,-74.0052741765976,member
5A794AE3335E80A3,classic_bike,2023-10-28 15:38:07,2023-10-28 15:43:32,35 St & 34 Ave,6679.11,43 St & Broadway,6670.03,40.7580583,-73.9242751,40.7577284,-73.9166368,member
7A570508E8894920,electric_bike,2023-10-25 15:45:50,2023-10-25 15:49:52,Stanton St & Chrystie St,5523.02,Pike St & E Broadway,5270.05,40.72229346,-73.99147535,40.71406667,-73.99293911,member
A78F313CD4F62AFC,classic_bike,2023-10-18 07:50:03,2023-10-18 07:53:44,Willoughby Ave & Myrtle Ave,4759.02,White St & Moore St,4987.06,40.697667599,-73.93090713,40.704508,-73.9351,casual
FA8431529E2C1B6C,classic_bike,2023-10-17 16:49:17,2023-10-17 17:12:44,Henry St & Grand St,5294.04,3 Ave & Carroll St,4143.04,40.714219809,-73.981147051,40.677027,-73.9865,member
E7B3260B7EAD4BA3,classic_bike,2023-10-17 18:06:53,2023-10-17 18:40:58,Norman Ave & Leonard St,5666.11,Willoughby Ave & Hall St,4611.03,40.7259444,-73.950567722,40.69196035,-73.96536851,casual
A0127DD3D9F65DB9,classic_bike,2023-10-19 09:26:10,2023-10-19 10:14:06,FDR Drive & E 35 St,6230.04,FDR Drive & E 35 St,6230.04,40.744219,-73.97121214,40.744219,-73.97121214,casual
D5BE811BA9B66DBA,classic_bike,2023-10-13 12:03:57,2023-10-13 12:14:28,W 106 St & Central Park West,7606.01,Park Ave & E 124 St,7682.01,40.7981856,-73.9605909006,40.8045555,-73.9396861,member
390C80AD93E21BB5,classic_bike,2023-10-04 01:37:15,2023-10-04 01:53:45,S 4 St & Rodney St,5156.05,Underhill Ave & Lincoln Pl,4042.08,40.709386468,-73.95622921,40.6740123,-73.9671457,member
D4AD2CAB3929A0D8,electric_bike,2023-10-18 20:44:42,2023-10-18 20:54:10,Metropolitan Ave & Bedford Ave,5308.04,India St & Manhattan Ave,5826.02,40.71534825,-73.96024116,40.73232194,-73.9550858,member
D514137E9D9CD0BB,classic_bike,2023-10-11 11:52:59,2023-10-11 12:02:10,Lexington Ave & E 24 St,6089.07,E 14 St & Avenue B,5736.09,40.74025878,-73.98409214,40.72938685,-73.97772429,member
80A34339B0BFF6AA,classic_bike,2023-10-19 21:57:28,2023-10-19 22:22:28,6 Ave & W 33 St,6364.07,E 74 St & 1 Ave,6953.08,40.74901271,-73.98848395,40.7689738,-73.95482273,member
DF13D1E654D56069,classic_bike,2023-10-18 06:53:24,2023-10-18 07:02:16,FDR Drive & E 35 St,6230.04,W 42 St & 6 Ave,6517.08,40.74412179,-73.971168756,40.75492,-73.98455,member
119D7C279BC4E4EC,electric_bike,2023-10-15 13:16:25,2023-10-15 13:18:57,Walton Ave & E 153 St,7945.07,E 149 St & Morris Ave,7863.03,40.822351,-73.926907,40.81734,-73.922962,casual
420BAB0CE3947173,classic_bike,2023-10-10 07:18:53,2023-10-10 07:29:36,Ave A & E 14 St,5779.11,E 39 St & 2 Ave,6345.08,40.73031071000895,-73.98047178983688,40.74803319428767,-73.973827958107,member
B6691889874EEA12,classic_bike,2023-10-11 17:10:58,2023-10-11 17:23:00,Forsyth St & Grand St,5382.07,Peck Slip & South St,5096.12,40.71779817737835,-73.99316132068634,40.7075188830923,-74.00108054280281,member
FDB8E733EA8255A2,classic_bike,2023-10-04 18:42:41,2023-10-04 21:31:31,W 92 St & Broadway,7502.01,,,40.792273879,-73.97383368,40.74,-73.92,casual
4E080A5419FAC8E2,classic_bike,2023-10-10 12:53:29,2023-10-10 13:05:15,Johnson St & Brooklyn Bridge Blvd,4637.07,Clermont Ave & Park Ave,4692.01,40.695,-73.98917,40.69573398,-73.97129668,member
9A8AF5352B553F83,classic_bike,2023-10-13 14:54:50,2023-10-13 14:58:55,W 168 St & Ft Washington Ave,8226.07,Amsterdam Ave & W 152 St,8069.01,40.841855168,-73.941674471,40.829523,-73.944279,member
93B2B49406B075DD,classic_bike,2023-10-24 18:37:55,2023-10-24 18:41:39,E 51 St & 2 Ave,6575.03,E 39 St & 2 Ave,6345.08,40.755402923,-73.967538834,40.74803319428767,-73.973827958107,member
2C248D121A3D9EFC,classic_bike,2023-10-31 07:15:58,2023-10-31 07:28:51,11 Ave & W 59 St,7059.01,8 Ave & W 27 St,6297.07,40.771448374,-73.990584612,40.747968,-73.996637,member
4FBF9FD02362E869,classic_bike,2023-10-10 11:48:41,2023-10-10 11:58:16,W 56 St & 10 Ave,6955.01,11 Ave & W 41 St,6726.01,40.768254,-73.988639,40.76030096,-73.99884222,member
B59B00CDF2E24D5F,classic_bike,2023-10-04 18:51:16,2023-10-04 19:15:38,Emerson Pl & Myrtle Ave,4683.02,Douglass St & 3 Ave,4217.02,40.69363137,-73.96223558,40.6802133,-73.98432695,casual
FED13D90CC9E190C,classic_bike,2023-10-31 11:40:43,2023-10-31 11:49:51,E 51 St & 2 Ave,6575.03,Broadway & W 51 St,6779.04,40.755293,-73.967641,40.76228826,-73.98336183,member
45CAE60BC58A92A9,classic_bike,2023-10-14 00:45:36,2023-10-14 01:08:06,Madison St & Woodward Ave,4954.07,Lafayette Ave & Classon Ave,4452.01,40.704048038,-73.904197574,40.68900443,-73.96023854,member
AD64B4F6663E5CD1,classic_bike,2023-10-22 09:47:21,2023-10-22 10:01:49,E 14 St & Ave B,5736.09,W 31 St & 7 Ave,6331.01,40.72938685,-73.97772429,40.749156,-73.9916,member
6F7EF5C370A0C4AE,classic_bike,2023-10-23 09:06:47,2023-10-23 09:14:10,E 17 St & Broadway,5980.07,9 Ave & W 18 St,6190.08,40.73704984,-73.99009296,40.74317449,-74.00366443,member
6B67F28FD1F66DBD,electric_bike,2023-10-14 19:49:52,2023-10-14 19:52:30,Ave D & E 10 St,5575.13,Ave C & E 16 St,5769.06,40.72506551015475,-73.97515833377838,40.72984830346529,-73.97455215454102,member
B4B6DA6CC165DC2A,classic_bike,2023-10-02 09:23:35,2023-10-02 09:31:06,Vesey St & Church St,5216.06,Centre St & Worth St,5279.03,40.71221958009051,-74.01047229766846,40.71494807,-74.00234482,member
00261F3D9A51086C,classic_bike,2023-10-18 19:15:44,2023-10-18 19:50:25,E 9 St & Ave C,5616.01,E 16 St & 5 Ave,6022.04,40.72521311,-73.97768752,40.73726186,-73.99238967,member
0ECCC04C803992D1,classic_bike,2023-10-02 10:17:14,2023-10-02 10:30:14,Nostrand Ave & Myrtle Ave,4707.04,Clinton Ave & Myrtle Ave,4651.02,40.695193648,-73.952415109,40.693261,-73.968896,member
E365D257CE58BED1,classic_bike,2023-10-16 11:45:21,2023-10-16 11:52:09,E 1 St & Bowery,5636.13,E 6 St & Ave B,5584.04,40.72486122254819,-73.99213135242462,40.72453734,-73.98185424,member
1C9D105CAD87F64D,classic_bike,2023-10-22 21:09:12,2023-10-22 21:18:41,Washington Square E,5755.09,W 25 St & 6 Ave,6215.04,40.730243564,-73.995913506,40.74395411,-73.99144871,casual
15F9792ECCF22DE6,classic_bike,2023-10-31 09:22:16,2023-10-31 09:50:54,Knickerbocker Ave & Halsey St,4623.02,30 St & 48 Ave,6076.02,40.693,-73.90824,40.7413272,-73.937999,member
4E8CA86D4E2884DE,classic_bike,2023-10-18 16:47:59,2023-10-18 16:51:53,Graham Ave & Conselyea St,5291.05,Driggs Ave & N Henry St,5542.04,40.715062976,-73.944528103,40.72325,-73.94308,member
746A1BA34989F9EC,classic_bike,2023-10-01 12:22:33,2023-10-01 12:33:34,Amsterdam Ave & W 82 St,7360.10,Amsterdam Ave & W 73 St,7260.09,40.785495877,-73.976664782,40.77966809007312,-73.98093044757842,member
BFE0ED524B95844B,electric_bike,2023-10-21 10:02:33,2023-10-21 10:09:25,Clinton St & Grand St,5303.06,Great Jones St,5636.11,40.71559509,-73.9870295,40.72743423,-73.99379025,member
DB197EEC76E8350F,classic_bike,2023-10-08 11:42:59,2023-10-08 11:46:15,Harlem River Dr & W 155 St,8085.13,W 159 St & Edgecombe Ave,8119.05,40.830476,-73.939929,40.833303,-73.939326,member
9CAEB9C9FB759AC0,classic_bike,2023-10-28 15:34:27,2023-10-28 15:36:35,Hart St & Wyckoff Ave,4971.01,Wyckoff Ave & Jefferson St,5051.01,40.704876,-73.919911,40.707165,-73.923711,member
3F54BAE53D6051E2,classic_bike,2023-10-03 17:08:59,2023-10-03 17:20:34,Adam Clayton Powell Blvd & W 126 St,7738.04,Frederick Douglass Blvd & Harlem River Dr,8100.01,40.809283495,-73.947809935,40.830702,-73.936371,member
C2A5F625A3D266EE,classic_bike,2023-10-19 16:46:01,2023-10-19 16:49:59,2 Ave & E 96 St,7338.02,E 106 St & 1 Ave,7456.03,40.784140944,-73.947139025,40.7892529,-73.93956237,member
1A722E8E11391DCB,classic_bike,2023-10-31 08:01:43,2023-10-31 08:09:59,E 47 St & 2 Ave,6498.10,2 Ave & E 29 St,6122.09,40.75323098,-73.97032517,40.74172351097472,-73.97809267044067,member
CCF38201B24FBE05,classic_bike,2023-10-01 16:56:25,2023-10-01 16:57:29,E 12 St & 3 Ave,5788.12,4 Ave & E 12 St,5788.15,40.73223272,-73.98889957,40.732647,-73.99011,member
2D0BEE72AE62941F,classic_bike,2023-10-03 20:24:31,2023-10-03 20:28:12,9 Ave & W 18 St,6190.08,W 15 St & 7 Ave,6030.06,40.743234992,-74.003652811,40.73935542,-73.99931783,member
7EADFB36EE12A716,electric_bike,2023-10-01 07:59:43,2023-10-01 08:17:45,Classon Ave & St Marks Ave,4074.14,Front St & Jay St,4895.03,40.676513,-73.959431,40.702461,-73.986842,member
76B91E70FDA0F6CF,electric_bike,2023-10-26 07:31:52,2023-10-26 07:36:58,Ave D & E 10 St,5575.13,Stanton St & Norfolk St,5445.07,40.72506551015475,-73.97515833377838,40.720747,-73.986274,member
3F0A75903C80259F,classic_bike,2023-10-24 17:35:41,2023-10-24 17:56:56,E 31 St & 3 Ave,6239.08,North Moore St & Greenwich St,5470.12,40.743888736,-73.979616642,40.72019521437465,-74.0103006362915,member
DCD21B857168DC72,classic_bike,2023-10-21 12:05:06,2023-10-21 12:13:20,Adelphi St & Myrtle Ave,4620.02,Front St & Jay St,4895.03,40.692978024,-73.971956134,40.702461,-73.986842,member
535A2ABB4D70AF8D,classic_bike,2023-10-07 18:46:20,2023-10-07 18:58:40,Carlton Ave & St Marks Ave,4199.13,Flushing Ave & Vanderbilt Ave,4762.05,40.67911856082165,-73.97176265716553,40.69795031569544,-73.97077560424805,member
0B27F97A8D36E403,classic_bike,2023-10-18 19:16:28,2023-10-18 19:22:13,Eastern Pkwy & Franklin Ave,3919.07,Bergen St & Vanderbilt Ave,4157.10,40.670789838,-73.957494855,40.6794388,-73.9680438,member
7896FCCE3A8594A7,classic_bike,2023-10-19 11:58:33,2023-10-19 12:05:02,W 35 St & 8 Ave,6526.01,W 25 St & 6 Ave,6215.04,40.752761602,-73.992529035,40.74395411,-73.99144871,member
F5721EDA9B59E647,classic_bike,2023-10-16 21:34:59,2023-10-16 21:45:26,Vernon Blvd & 31 Ave,7003.06,36 St & Ditmars Blvd,7111.10,40.769122124,-73.935543895,40.774306,-73.908335,casual
7B847FEAA54F83D3,classic_bike,2023-10-06 16:16:29,2023-10-06 16:25:34,23 Rd & 31 St,7082.14,24 St & 41 Ave,6505.09,40.773392081,-73.913799524,40.752474,-73.939991,member
B5D121EF9E9A38C3,classic_bike,2023-10-19 07:17:16,2023-10-19 07:24:19,E 11 St & Ave B,5659.11,E 12 St & 3 Ave,5788.12,40.72746420692392,-73.97950418293476,40.73223272,-73.98889957,member
F98C5230564F995A,classic_bike,2023-10-10 15:55:29,2023-10-10 16:03:31,61 St & 39 Ave,6307.07,51 St & 43 Ave,6242.10,40.7471,-73.9028,40.74451,-73.91412,member
177B494A0CBD4E38,classic_bike,2023-10-13 16:27:23,2023-10-13 16:34:06,Grand St & Havemeyer St,5267.08,Union Ave & N 12 St,5411.07,40.712799668,-73.957055211,40.71924,-73.95242,member
4F711710BE35DF48,classic_bike,2023-10-12 13:48:04,2023-10-12 13:51:47,E 17 St & Broadway,5980.07,Washington Pl & Broadway,5755.01,40.73704984,-73.99009296,40.72903917,-73.99404649,member
9ED03CE623C32DCF,classic_bike,2023-10-30 18:08:37,2023-10-30 18:21:03,7 Ave & 17 St,3660.07,36 St & 3 Ave,3460.02,40.66093779493168,-73.98680448532104,40.655716,-74.006664,casual
03EBB9DA0F087D3A,classic_bike,2023-10-27 15:36:01,2023-10-27 15:42:14,Pike St & E Broadway,5270.05,Clinton St & Cherry St,5190.09,40.71406667,-73.99293911,40.711471394469264,-73.98672603070736,member
A610E2902A4B4F1E,classic_bike,2023-10-27 14:35:40,2023-10-27 14:48:38,Bleecker St & Crosby St,5679.08,S 4 St & Wythe Ave,5204.05,40.726163626,-73.99513948,40.71285887,-73.96590294,casual
9D848425FA30BDCB,classic_bike,2023-10-30 15:04:27,2023-10-30 15:26:22,E 53 St & Lexington Ave,6617.09,Little West St & 1 Pl,5001.08,40.757481337,-73.970468283,40.70569254,-74.01677685,member
2CB906D609079D06,classic_bike,2023-10-01 18:02:21,2023-10-01 18:09:02,West End Ave & W 60 St,7059.08,W 46 St & 11 Ave,6795.01,40.77237,-73.99005,40.76341379,-73.99667444,casual
C1F0BF57EFDB1ABB,classic_bike,2023-10-07 16:55:43,2023-10-07 17:03:53,E 16 St & 5 Ave,6022.04,Greenwich St & Perry St,5922.04,40.736963987,-73.992060542,40.73498,-74.00697,member
290FA49E9D3ACB0C,classic_bike,2023-10-02 15:38:09,2023-10-02 15:43:24,Meserole Ave & Manhattan Ave,5666.04,Jackson St & Leonard St,5332.10,40.727023244,-73.953011513,40.71638031973561,-73.94821286201477,member
30F80984A594C4E5,classic_bike,2023-10-19 11:57:49,2023-10-19 12:29:40,W 47 St & 6 Ave,6667.04,Clinton St & Tillary St,4748.07,40.758709311,-73.982855916,40.69623297129316,-73.99142056703568,member
B4D9535B302151E5,classic_bike,2023-10-15 15:03:18,2023-10-15 15:03:59,Yankee Ferry Terminal,4440.02,Yankee Ferry Terminal,4440.02,40.68706579875912,-74.01675585121666,40.68706579875912,-74.01675585121666,casual
14CB65772B7A1E04,classic_bike,2023-10-15 14:33:00,2023-10-15 14:39:39,Madison Ave & E 26 St,6131.12,W 15 St & 7 Ave,6030.06,40.742625713,-73.986792564,40.73935542,-73.99931783,member
E1D77B53DCF95F25,classic_bike,2023-10-23 17:15:11,2023-10-23 17:31:12,Lexington Ave & E 111 St,7567.06,E 88 St & Park Ave,7293.10,40.7954121,-73.9441232,40.781410700190015,-73.95595908164978,member
4CAB3319274DE1F6,classic_bike,2023-10-11 20:06:22,2023-10-11 20:11:00,Underhill Ave & Lincoln Pl,4042.08,Eastern Pkwy & Franklin Ave,3919.07,40.6740123,-73.9671457,40.6707767,-73.9576801,member
C86588774558C44B,classic_bike,2023-10-19 16:22:41,2023-10-19 16:53:25,Lenox Ave & W 111 St,7602.05,E 163 St & Union Ave,7970.05,40.7987859,-73.9523,40.822545,-73.901824,member
0CB2585590245D57,classic_bike,2023-10-07 10:09:08,2023-10-07 10:13:37,Parkside Ave & Parade Pl,3376.04,Prospect Ave & Greenwood Ave,3312.07,40.6532,-73.96639,40.651745,-73.975988,member
761B422A5A14BA0A,classic_bike,2023-10-31 16:24:31,2023-10-31 18:18:33,Broadway & W 168 St,8226.06,Popham Ave & W 174 St,8348.02,40.840756774,-73.939779758,40.847746,-73.922079,casual
2B896D8A178792DB,classic_bike,2023-10-18 08:34:10,2023-10-18 08:38:55,St Felix Ave & 61 St,4719.04,Norman St & Wyckoff Ave,4654.01,40.69715,-73.8936,40.69517,-73.90311,member
5FF64F5E0E7BFD00,classic_bike,2023-10-28 22:57:10,2023-10-28 23:13:28,E 75 St & 3 Ave,6991.12,2 Ave & E 29 St,6122.09,40.771153808,-73.957662582,40.74172351097472,-73.97809267044067,member
5FEF48E1D7C923FF,classic_bike,2023-10-13 07:30:50,2023-10-13 07:32:59,Frederick Douglass Blvd & W 112 St,7631.23,Central Park North & Adam Clayton Powell Blvd,7617.07,40.801694,-73.957145,40.799484,-73.955613,member
B9D4BF3DC0D60A9E,classic_bike,2023-10-26 17:49:06,2023-10-26 17:58:08,E 14 St & Ave B,5736.09,Lexington Ave & E 24 St,6089.07,40.72938685,-73.97772429,40.74025878,-73.98409214,member
B211F9355747D8DF,classic_bike,2023-10-22 16:55:39,2023-10-22 17:02:50,17 St & 5 Ave,3699.07,36 St & 3 Ave,3460.02,40.66342926,-73.990895033,40.655716,-74.006664,member
04096873CC9ADD7F,classic_bike,2023-10-17 00:18:22,2023-10-17 00:28:01,Columbus Ave & W 72 St,7175.05,W 100 St & Manhattan Ave,7538.14,40.777184725,-73.978994131,40.795,-73.9645,member
4F5EC401A4280E49,electric_bike,2023-10-12 17:50:48,2023-10-12 18:00:15,George St & Wilson Ave,4906.07,Central Ave & Decatur St,4432.10,40.702997,-73.92997,40.6882,-73.90798,member
B94967DE47D2B670,classic_bike,2023-10-06 07:08:59,2023-10-06 07:11:36,1 Ave & E 68 St,6822.09,E 65 St & 2 Ave,6860.12,40.76500525,-73.95818491,40.76471851944339,-73.96222069859505,member
A8C701C8F09EA7D4,classic_bike,2023-10-24 17:39:17,2023-10-24 18:09:59,E 23 St & 1 Ave,5929.01,23 Ave & 31 St,7082.08,40.736521959,-73.978211045,40.77423301703027,-73.91274864321404,member
E0FDF70E16804FF6,classic_bike,2023-10-24 13:38:42,2023-10-24 13:58:14,Lenox Ave & W 126 St,7720.03,W 100 St & Manhattan Ave,7538.14,40.808442,-73.9452087,40.795,-73.9645,member
7C0BEA601F5E3191,classic_bike,2023-10-31 09:43:27,2023-10-31 09:47:00,Frederick Douglass Blvd & W 117 St,7688.12,W 110 St & Amsterdam Ave,7646.04,40.805177569,-73.954682112,40.802692,-73.96295,member
839E3A380F3C67C1,classic_bike,2023-10-30 17:07:25,2023-10-30 17:16:05,E 91 St & 2 Ave,7286.01,E 67 St & Park Ave,6932.14,40.781490445,-73.950424552,40.76780080148132,-73.96592080593109,member
CA8E737B4A9731B5,classic_bike,2023-10-30 07:24:05,2023-10-30 07:30:20,Adelphi St & Myrtle Ave,4620.02,Lawrence St & Willoughby St,4596.09,40.693078399,-73.972017407,40.69236178,-73.98631746,member
3FBC843A5D36ACF6,classic_bike,2023-10-29 20:10:20,2023-10-29 20:25:06,Lewis Ave & Kosciuszko St,4617.01,Lewis Ave & Kosciuszko St,4617.01,40.69237074,-73.93705428,40.69237074,-73.93705428,member
210D20A8846071C8,classic_bike,2023-10-19 08:59:33,2023-10-19 09:12:06,E 55 St & 2 Ave,6650.07,FDR Drive & E 35 St,6230.04,40.75797322,-73.96603308,40.744219,-73.97121214,casual
A96EE6DE58495E70,classic_bike,2023-10-09 19:41:18,2023-10-09 19:52:09,W 29 St & 9 Ave,6416.06,2 Ave & E 29 St,6122.09,40.7500727,-73.99839279,40.74172351097472,-73.97809267044067,casual
BF80F481E61E73ED,classic_bike,2023-10-08 15:21:01,2023-10-08 15:27:48,11 Ave & W 41 St,6726.01,8 Ave & W 49 St,6747.07,40.760493279,-73.998627543,40.76171227910671,-73.98655101656914,member
AA5DA3D9DAD012A5,classic_bike,2023-10-24 11:42:35,2023-10-24 11:54:32,Forsyth St & Canal St,5270.07,Flushing Ave & Vanderbilt Ave,4762.05,40.715889692,-73.994234681,40.69795031569544,-73.97077560424805,member
59D971D9E791FE8C,classic_bike,2023-10-21 19:38:58,2023-10-21 19:59:09,E 53 St & 3 Ave,6617.02,W 42 St & 8 Ave,6602.05,40.75763227739443,-73.96930575370789,40.7575699,-73.99098507,member
F37BC07482BDE2D9,electric_bike,2023-10-19 22:39:10,2023-10-19 22:42:31,8 Ave & W 31 St,6450.05,8 Ave & W 31 St,6450.05,40.7505853470215,-73.9946848154068,40.7505853470215,-73.9946848154068,casual
C3D85BCBECA854B3,classic_bike,2023-10-16 15:32:04,2023-10-16 16:18:10,E 91 St & Park Ave,7344.05,E 91 St & Park Ave,7344.05,40.7835016,-73.955327,40.7835016,-73.955327,member
1B44F3A430AB04BE,classic_bike,2023-10-26 17:59:09,2023-10-26 19:13:01,Lenox Ave & W 126 St,7720.03,,,40.808272362,-73.945379496,40.79,-73.95,member
A30EE3DC44FB1B14,classic_bike,2023-10-10 13:02:04,2023-10-10 13:07:42,Lafayette St & E 8 St,5788.13,E 16 St & 5 Ave,6022.04,40.73020660529954,-73.99102628231049,40.73726186,-73.99238967,member
9C0CDAFF5FBF922A,classic_bike,2023-10-21 12:57:12,2023-10-21 13:34:26,DeKalb Ave & S Portland Ave,4546.04,E 81 St & 3 Ave,7154.07,40.689893961,-73.974649906,40.77573034,-73.9567526,member
97C1B8F3998CAFF5,electric_bike,2023-10-03 18:30:05,2023-10-03 18:31:10,Washington Pl & Broadway,5755.01,Washington Pl & Broadway,5755.01,40.72903917,-73.99404649,40.72903917,-73.99404649,member
721E71514B8BA83C,classic_bike,2023-10-29 08:40:23,2023-10-29 08:43:07,Carmine St & 6 Ave,5763.03,Greenwich St & W Houston St,5730.08,40.73038599,-74.00214988,40.728846,-74.008591,member
8EB886FD37EE0376,classic_bike,2023-10-03 17:25:58,2023-10-03 17:33:06,Broadway & W 29 St,6289.06,Perry St & Greenwich Ave,5955.12,40.7462009,-73.98855723,40.735918,-74.000939,member
45A63B90CD11772C,classic_bike,2023-10-28 11:06:17,2023-10-28 12:37:03,E 56 St & Madison Ave,6732.01,Peck Slip & South St,5096.12,40.761573,-73.972628,40.7075188830923,-74.00108054280281,casual
BB20134E214D0692,classic_bike,2023-10-11 08:07:46,2023-10-11 08:37:02,Murray St & West St,5329.08,E 88 St & Park Ave,7293.10,40.715149164,-74.012218714,40.781410700190015,-73.95595908164978,member
775AE3F27BDAC662,classic_bike,2023-10-25 05:40:32,2023-10-25 05:57:20,Parade Pl & Crooke Ave,3376.02,Flushing Ave & Vanderbilt Ave,4762.05,40.651959419,-73.965345144,40.69795031569544,-73.97077560424805,member
0A545B0660FE4C77,classic_bike,2023-10-17 18:32:12,2023-10-17 18:42:55,S 3 St & Bedford Ave,5235.05,Clinton Ave & Myrtle Ave,4651.02,40.712644696,-73.962799311,40.693261,-73.968896,member
B95BDE81438D9598,electric_bike,2023-10-31 19:43:07,2023-10-31 19:53:13,E 39 St & Lexington Ave,6389.09,Broadway & W 56 St,6847.02,40.7494985460252,-73.97729203113158,40.7652654,-73.98192338,member
EC865DED17C2AED3,classic_bike,2023-10-11 18:15:34,2023-10-11 18:22:43,10 Ave & W 14 St,6157.04,West St & Chambers St,5329.03,40.741684675,-74.008406758,40.71754834,-74.01322069,member
B3C14DE48DC074A7,classic_bike,2023-10-20 13:21:16,2023-10-20 13:26:17,Greenpoint Ave & West St,5752.09,N 10 St & Berry St,5450.01,40.72986567,-73.959134459,40.720253,-73.957082,member
405668BE20798579,classic_bike,2023-10-05 16:47:01,2023-10-05 16:51:31,E 84 St & Park Ave,7243.04,E 88 St & 1 Ave,7235.13,40.77862688,-73.95772073,40.778301,-73.9488134,member
7480A4F47B7BEA0C,classic_bike,2023-10-13 13:54:40,2023-10-13 14:04:20,Mercer St & Bleecker St,5679.05,E 7 St & Ave A,5626.07,40.727344155,-73.996638656,40.72621788,-73.98379855,member
DC2AB0FC92FCA813,classic_bike,2023-10-21 16:17:52,2023-10-21 16:46:55,7 Ave & Central Park South,6912.01,Central Park North & Adam Clayton Powell Blvd,7617.07,40.7667405590595,-73.9790689945221,40.799484,-73.955613,casual
B0A9EECB7F08569C,classic_bike,2023-10-04 14:19:21,2023-10-04 14:30:28,E 11 St & Avenue B,5659.11,E 33 St & 5 Ave,6322.01,40.727523327,-73.97973609,40.74765947,-73.98490707,casual
3A6F9AFC8CCB7F7A,classic_bike,2023-10-26 16:40:13,2023-10-26 16:41:35,W 41 St & 8 Ave,6602.03,W 42 St & 8 Ave,6602.05,40.75634253,-73.99002409,40.7575699,-73.99098507,member
A3608F153349982D,classic_bike,2023-10-28 12:12:17,2023-10-28 12:17:48,50 St & 30 Ave,6735.03,35 St & 30 Ave,6887.03,40.760083,-73.907107,40.76547569244953,-73.91811579465866,member
33A1D8AF495E4F16,classic_bike,2023-10-05 18:06:18,2023-10-05 18:24:39,39 St & 50 Ave,6025.08,Bedford Ave & Nassau Ave,5550.05,40.73824937345944,-73.92737478017807,40.72311651,-73.95212324,member
927B04E22E273ADF,classic_bike,2023-10-12 16:17:45,2023-10-12 16:25:01,Lexington Ave & E 29 St,6164.09,W 11 St & 6 Ave,5914.03,40.743132949,-73.982231021,40.73532427,-73.99800419,member
521DEBEC627B631B,classic_bike,2023-10-05 06:34:33,2023-10-05 06:36:57,Fulton St & Clermont Ave,4386.05,Hanson Pl & Ashland Pl,4395.07,40.68415748,-73.96922273,40.68506807308177,-73.97790759801863,member
0BF2551E4234C18C,classic_bike,2023-10-28 09:35:09,2023-10-28 09:45:37,6 Ave & 12 St,3803.05,S Portland Ave & Hanson Pl,4354.05,40.6663181,-73.9854617,40.68539567,-73.97431458,member
C0D13BBD510365F7,classic_bike,2023-10-26 19:26:03,2023-10-26 19:47:03,Nassau Ave & Russell St,5581.01,Driggs Ave & S 2 St,5235.10,40.725621581,-73.944261789,40.712628,-73.960575,member
594CFA148218927D,classic_bike,2023-10-24 23:18:13,2023-10-24 23:32:30,E 10 St & 2 Ave,5746.02,10 Ave & W 28 St,6459.04,40.72970805644994,-73.9865979552269,40.75066386,-74.00176802,member
B3BAF6F630623170,classic_bike,2023-10-12 09:41:20,2023-10-12 09:45:48,Ave A & E 14 St,5779.11,E 2 St & Ave A,5553.10,40.73031071000895,-73.98047178983688,40.72307749068673,-73.98583620786667,member
9F5BFAC5548869D9,classic_bike,2023-10-27 22:06:03,2023-10-27 22:21:34,Metropolitan Ave & Stewart Ave,5273.01,Willoughby Ave & Wyckoff Ave,5010.02,40.71401,-73.92793,40.705614,-73.92153,member
1CCF4BA1E74696A4,classic_bike,2023-10-02 10:47:40,2023-10-02 10:47:48,Washington Square E,5755.09,Washington Square E,5755.09,40.730277896,-73.995975375,40.73049393,-73.9957214,member
23A37E96DEA16660,classic_bike,2023-10-28 13:44:48,2023-10-28 13:58:39,Putnam Ave & Throop Ave,4392.04,S 3 St & Bedford Ave,5235.05,40.685173273,-73.941039205,40.71260486,-73.96264403,member
BB31D881320C9A7D,classic_bike,2023-10-09 19:56:34,2023-10-09 21:24:41,Bond St & Fulton St,4479.06,W 42 St & 6 Ave,6517.08,40.689450264,-73.983014584,40.75492,-73.98455,casual
F5218A550BB7ACC1,classic_bike,2023-10-31 11:48:33,2023-10-31 11:53:55,Mercer St & Spring St,5532.01,Grand St & Elizabeth St,5382.06,40.72362738,-73.99949601,40.718822,-73.99596,member
346873E06818B74D,classic_bike,2023-10-25 08:13:53,2023-10-25 08:22:26,2 Ave & E 29 St,6122.09,W 37 St & 5 Ave,6398.06,40.74172351097472,-73.97809267044067,40.75038009,-73.98338988,member
3496E4C4B650F579,classic_bike,2023-10-09 16:09:21,2023-10-09 16:13:59,1 Ave & E 18 St,5854.09,Broadway & E 19 St,6098.12,40.73381219196632,-73.98054420948029,40.73866091428551,-73.98987293243407,member
6B40787EB9668643,classic_bike,2023-10-10 15:27:28,2023-10-10 15:36:31,Jefferson St & Cypress Ave,5082.08,Willoughby Ave & Myrtle Ave,4759.02,40.708933473,-73.921561837,40.69757,-73.93098,member
0B73782E58990311,classic_bike,2023-10-06 18:53:16,2023-10-06 19:00:28,E 16 St & 5 Ave,6022.04,W Broadway & Spring St,5569.06,40.736848354,-73.992460489,40.72494672359416,-74.00165855884552,member
9879918D81F83FFA,classic_bike,2023-10-28 00:45:53,2023-10-28 00:55:07,W 35 St & 9 Ave,6569.09,Amsterdam Ave & W 60 St,7023.09,40.754164934,-73.996274114,40.77114812219016,-73.98699113854883,member
0B7EAC2383F9B889,classic_bike,2023-10-28 01:36:51,2023-10-28 01:42:51,30 Ave & 47 St,6774.13,35 St & 30 Ave,6887.03,40.761362672,-73.909541249,40.76547569244953,-73.91811579465866,member
3A90A2787897FF3D,classic_bike,2023-10-10 20:56:46,2023-10-10 21:03:02,Allen St & Stanton St,5484.09,E 20 St & 2 Ave,5971.08,40.721816778,-73.989201427,40.73587678,-73.98205027,casual
0640E43DDCB1DDEF,classic_bike,2023-10-23 18:10:54,2023-10-23 18:14:54,Willoughby Ave & Myrtle Ave,4759.02,Knickerbocker Ave & Thames St,5018.06,40.697561741,-73.930979967,40.70539,-73.92976,member
217584207BCDCA75,classic_bike,2023-10-27 10:35:08,2023-10-27 10:53:52,Broadway & Morris St,5033.01,Rivington St & Ridge St,5406.02,40.70647192,-74.013557673,40.71850211,-73.98329859,member
9583F49121F437E6,classic_bike,2023-10-10 11:53:30,2023-10-10 12:00:26,Schenectady Ave & Cortelyou Rd,3155.01,Clarkson Ave & Nostrand Ave,3472.03,40.64550066,-73.932720065,40.6555,-73.94975,member
19F9101ACC1118F8,classic_bike,2023-10-10 20:00:06,2023-10-10 20:10:34,Marcus Garvey Blvd & Macon St,4278.03,Clinton Ave & Myrtle Ave,4651.02,40.682589889,-73.938080668,40.693261,-73.968896,member
6450CB5F97691152,classic_bike,2023-10-02 17:43:45,2023-10-02 17:48:20,Clinton St & Grand St,5303.06,Grand St & Elizabeth St,5382.06,40.715737462,-73.986978769,40.718822,-73.99596,member
3351CE5A50B02A88,classic_bike,2023-10-09 16:17:56,2023-10-09 16:35:46,E 56 St & 3 Ave,6691.11,E 2 St & 2 Ave,5593.02,40.759075284,-73.967135906,40.72502876,-73.99069656,member
F9E4A46BC6006629,classic_bike,2023-10-04 07:25:03,2023-10-04 08:01:55,W 111 St & 5 Ave,7587.16,W 35 St & 9 Ave,6569.09,40.79752078124756,-73.9489397406578,40.75414519263519,-73.9960889518261,member
AD75E05F2BE3E3C8,classic_bike,2023-10-17 15:18:31,2023-10-17 15:30:12,Van Brunt St & Wolcott St,4095.03,Pacific St & Smith St,4446.03,40.677585006,-74.012450695,40.687880939612775,-73.98939281702042,member
8D39F67914CC8BEF,classic_bike,2023-10-26 15:01:43,2023-10-26 15:13:29,Morris Ave & McClellan St,8107.10,River Ave & McClellan St,8111.07,40.831584,-73.9149,40.83406,-73.92243,casual
08FA978A7D3B110A,classic_bike,2023-10-09 13:26:16,2023-10-09 13:43:33,Central Park West & W 68 St,7079.06,E 118 St & Madison Ave,7640.04,40.7734066,-73.97782542,40.8014866,-73.9442507,member
181EC35B41B115EA,classic_bike,2023-10-13 17:46:02,2023-10-13 19:01:17,Greenwich St & Hubert St,5470.10,W 18 St & 9 Ave,6190.03,40.721319,-74.010065,40.7435337324616,-74.00367558002472,casual
EEC31C0BDF5F8746,classic_bike,2023-10-02 15:59:46,2023-10-02 16:01:38,W 59 St & 10 Ave,7023.04,West End Ave & W 60 St,7059.08,40.770513,-73.988038,40.77237,-73.99005,member
33BF6964E18E6B08,classic_bike,2023-10-01 14:18:18,2023-10-01 14:32:16,W 25 St & 6 Ave,6215.04,Watts St & Greenwich St,5578.02,40.74395411,-73.99144871,40.72405549,-74.00965965,member
849B5F6854571177,classic_bike,2023-10-28 04:39:24,2023-10-28 04:41:58,Graham Ave & Herbert St,5403.05,Bushwick Ave & Powers St,5250.05,40.719274163,-73.945157647,40.71247661,-73.94100005,member
CA1B2D0A344268C4,classic_bike,2023-10-19 18:03:07,2023-10-19 18:21:50,Greene St & Prince St,5602.06,Wythe Ave & Metropolitan Ave,5348.02,40.725270152,-73.998887181,40.716887,-73.963198,member
A0229A1121A94F92,classic_bike,2023-10-09 13:47:49,2023-10-09 13:52:22,Vesey St & Church St,5216.06,North Moore St & Greenwich St,5470.12,40.71231389,-74.010484219,40.72019521437465,-74.0103006362915,member
405320543EBA2186,classic_bike,2023-10-11 18:08:42,2023-10-11 18:14:10,7 Ave S & Bleecker St,5805.07,Franklin St & W Broadway,5430.08,40.731948972,-74.003717899,40.71911552,-74.00666661,member
06E5F7B5760B18C8,classic_bike,2023-10-11 20:42:50,2023-10-11 20:59:42,E 33 St & 1 Ave,6197.08,38 Ave & 29 St,6538.11,40.743508935,-73.975060582,40.75473,-73.93367,member
647D2A9DCD90C146,classic_bike,2023-10-25 17:02:17,2023-10-25 17:20:50,W 34 St & Hudson Blvd E,6535.04,W 42 St & Dyer Ave,6644.07,40.75516719072139,-74.00059908628464,40.75898481399634,-73.99379968643188,member
56BE5AE212F6227A,classic_bike,2023-10-04 15:27:46,2023-10-04 15:45:16,Broadway & W 36 St,6441.01,E 23 St & 1 Ave,5929.01,40.751252413,-73.987579703,40.736502,-73.97809472,member
D40D0EFFB75A1B47,classic_bike,2023-10-17 21:48:21,2023-10-17 21:55:36,University Pl & E 14 St,5905.14,E 6 St & Ave B,5584.04,40.734814,-73.992085,40.72453734,-73.98185424,member
DDCE2FE48ECFB794,classic_bike,2023-10-27 13:51:57,2023-10-27 14:05:30,Willoughby Ave & Hall St,4611.03,Suydam St & Broadway,4689.03,40.69196035,-73.96536851,40.69544,-73.93223,casual
00B7B47FC51DB078,classic_bike,2023-10-08 02:54:13,2023-10-08 02:57:11,Lafayette Ave & Classon Ave,4452.01,DeKalb Ave & Vanderbilt Ave,4461.04,40.689024806,-73.960338354,40.68940747,-73.96885458,casual
36F2B55218DF7097,classic_bike,2023-10-29 00:31:47,2023-10-29 00:39:59,W 20 St & 7 Ave,6182.02,E 17 St & Broadway,5980.07,40.74238787,-73.99726235,40.73704984,-73.99009296,member
15E69CF61842A04A,classic_bike,2023-10-08 16:19:10,2023-10-08 16:38:50,Carlton Ave & Flushing Ave,4732.08,Central Ave & Decatur St,4432.10,40.697787,-73.973736,40.6882,-73.90798,member
5A353917F6F9F05C,classic_bike,2023-10-06 17:30:46,2023-10-06 17:48:13,W 87 St & West End Ave,7484.05,Park Ave & E 124 St,7682.01,40.789766788,-73.977519393,40.8045555,-73.9396861,member
E54BFF6BB7421A8D,classic_bike,2023-10-19 19:55:27,2023-10-19 19:59:13,E 25 St & 2 Ave,6046.02,E 20 St & 2 Ave,5971.08,40.73912601,-73.97973776,40.73587678,-73.98205027,member
440444CEDECDCA28,classic_bike,2023-10-02 16:38:50,2023-10-02 16:46:01,Jay St & York St,4895.09,Flushing Ave & Vanderbilt Ave,4762.05,40.70140317257725,-73.98672670125961,40.69795031569544,-73.97077560424805,member
E8D14E866841D70A,classic_bike,2023-10-28 20:11:30,2023-10-28 20:18:51,W 16 St & The High Line,6233.05,W 34 St & Hudson Blvd E,6535.04,40.743327379,-74.006859303,40.75516719072139,-74.00059908628464,member
F61DE39E84ED26C6,classic_bike,2023-10-12 16:26:19,2023-10-12 16:30:49,W 56 St & 10 Ave,6955.01,W 64 St & Thelonious Monk Circle,7123.04,40.768254,-73.988639,40.77515953434235,-73.98918695747852,member
7CD783939D9ADF61,classic_bike,2023-10-23 22:31:34,2023-10-23 22:44:35,W 64 St & Thelonious Monk Circle,7123.04,W 64 St & Thelonious Monk Circle,7123.04,40.774981737,-73.988914251,40.77515953434235,-73.98918695747852,casual
61FA90B43788F56F,classic_bike,2023-10-04 12:04:02,2023-10-04 12:12:23,2 Ave & E 29 St,6122.09,W 31 St & 7 Ave,6331.01,40.74172351097472,-73.97809267044067,40.749156,-73.9916,member
FA64CFA6C79335CB,classic_bike,2023-10-19 21:11:09,2023-10-19 21:23:34,E 17 St & Broadway,5980.07,Rivington St & Ridge St,5406.02,40.73704984,-73.99009296,40.71850211,-73.98329859,member
0D2491387057819A,classic_bike,2023-10-30 15:34:08,2023-10-30 16:17:59,W 56 St & 10 Ave,6955.01,W 89 St & Columbus Ave,7432.09,40.768279433,-73.988823533,40.7882213,-73.97041561,casual
4EC4737CFBAAC6EF,classic_bike,2023-10-05 22:07:54,2023-10-05 22:27:46,President St & 4 Ave,4101.17,Clark St & Henry St,4789.03,40.676757,-73.983262,40.69760127,-73.99344559,member
987490714C082596,classic_bike,2023-10-11 23:42:48,2023-10-11 23:49:10,Pike St & E Broadway,5270.05,Stanton St & Norfolk St,5445.07,40.71406667,-73.99293911,40.720747,-73.986274,member
8B37CCD445A0B99F,classic_bike,2023-10-30 09:44:48,2023-10-30 09:54:06,Forsyth St & Grand St,5382.07,Watts St & Greenwich St,5578.02,40.71779817737835,-73.99316132068634,40.72405549,-74.00965965,member
96837E8886E3FC14,classic_bike,2023-10-13 17:58:46,2023-10-13 18:05:23,Leonard St & Maujer St,5148.03,White St & Moore St,4987.06,40.710332155,-73.947015524,40.704508,-73.9351,member
9B55E14C0F345AAE,classic_bike,2023-10-22 12:09:07,2023-10-22 12:16:01,Cooper Square & Astor Pl,5712.03,E 6 St & Ave D,5506.14,40.729430079,-73.991102099,40.72228087,-73.97668709,member
C0193497527B8D4F,classic_bike,2023-10-04 09:07:55,2023-10-04 09:12:15,Wythe Ave & N 13 St,5558.04,S 4 St & Wythe Ave,5204.05,40.722525597,-73.957282424,40.71285887,-73.96590294,member
8268F5372F3FA01B,classic_bike,2023-10-11 01:40:40,2023-10-11 01:43:28,E 81 St & York Ave,7084.12,E 88 St & 1 Ave,7235.13,40.772749662,-73.949879289,40.778301,-73.9488134,member
44D1581B027A82C3,classic_bike,2023-10-10 18:33:55,2023-10-10 18:43:34,E 51 St & 2 Ave,6575.03,E 65 St & 2 Ave,6860.12,40.755293,-73.967641,40.76471851944339,-73.96222069859505,member
A6EF0A285CB09139,classic_bike,2023-10-18 22:10:57,2023-10-18 22:43:20,Riverside Dr & W 138 St,7942.21,W 25 St & 8 Ave,6297.08,40.823151946,-73.955868959,40.74649996333341,-73.99732626293645,casual
C786E95ACD8DD31F,classic_bike,2023-10-27 13:11:47,2023-10-27 13:15:55,W 37 St & 5 Ave,6398.06,W 31 St & 7 Ave,6331.01,40.750574112,-73.983907223,40.749156,-73.9916,member
B659AF51FCD294F5,classic_bike,2023-10-22 12:42:53,2023-10-22 12:49:30,Bridge St & Water St,4968.03,Washington Park,4546.05,40.722462533333335,-74.00584423333333,40.6917823,-73.9737299,member
DEF6ED90ED5D950F,classic_bike,2023-10-26 13:30:19,2023-10-26 13:35:04,St Nicholas Ave & W 126 St,7756.10,Old Broadway & W 133 St,7881.09,40.811467767,-73.951959848,40.818212,-73.955277,member
5966CE3D60641305,classic_bike,2023-10-17 19:34:52,2023-10-17 19:34:53,W 13 St & 5 Ave,5947.04,W 13 St & 5 Ave,5947.04,40.735445,-73.99431,40.735445,-73.99431,member
5E78E126CA4DEA3A,classic_bike,2023-10-10 15:07:48,2023-10-10 15:08:50,6 Ave & Walker St,5430.10,Franklin St & W Broadway,5430.08,40.7197920901383,-74.0052238852195,40.71911552,-74.00666661,member
63B1194B159C08C5,electric_bike,2023-10-01 12:02:52,2023-10-01 12:15:36,Hope St & Union Ave,5187.03,E 2 St & 2 Ave,5593.02,40.71167351,-73.95141312,40.72502876,-73.99069656,member
5A00E379D1835850,classic_bike,2023-10-27 19:15:11,2023-10-27 19:20:30,E 6 St & Ave B,5584.04,E 14 St & Ave B,5736.09,40.72453734,-73.98185424,40.72938685,-73.97772429,member
F93F1C19DF3E7A95,classic_bike,2023-10-15 06:53:04,2023-10-15 06:57:55,Wadsworth Ave & W 179 St,8336.02,Broadway & W 157 St,8123.06,40.848494291,-73.936086297,40.83402740143528,-73.94510813442648,member
2363036DC15A8F40,classic_bike,2023-10-24 12:01:19,2023-10-24 12:02:37,1 Ave & E 18 St,5854.09,E 23 St & 1 Ave,5929.01,40.733899951,-73.980528593,40.736502,-73.97809472,member
15787CE32F3D4D00,classic_bike,2023-10-12 19:20:01,2023-10-12 19:28:08,W 37 St & 5 Ave,6398.06,W 35 St & 9 Ave,6569.09,40.75038009,-73.98338988,40.75414519263519,-73.9960889518261,member
59D7C5A3C931AB60,classic_bike,2023-10-20 18:30:44,2023-10-20 18:40:54,Union St & 4 Ave,4175.15,Smith St & 9 St,4077.04,40.677320361,-73.982539415,40.6746957,-73.99785768,member
C1ACFF4D9E0E59E7,classic_bike,2023-10-01 00:05:08,2023-10-01 00:14:23,Nostrand Ave & Myrtle Ave,4707.04,Stagg St & Morgan Ave,5170.01,40.695284367,-73.952430606,40.710681,-73.93372,member
91AFCDCD746D4566,classic_bike,2023-10-26 13:19:44,2023-10-26 13:31:39,E 48 St & 5 Ave,6626.01,E 72 St & York Ave,6889.12,40.757143974,-73.978047371,40.76663814,-73.95348296,member
09504FA6CABEC9A6,classic_bike,2023-10-15 09:48:34,2023-10-15 10:06:24,E 25 St & 2 Ave,6046.02,Grand St & Elizabeth St,5382.06,40.73912601,-73.97973776,40.718822,-73.99596,member
CA1AE327C44AD7BD,classic_bike,2023-10-02 12:34:16,2023-10-02 12:37:28,Broadway & Kent Ave,5134.09,S 2 St & Kent Ave,5276.04,40.710888,-73.968329,40.714731,-73.966612,member
E06C50924ED2FEF6,classic_bike,2023-10-26 10:23:28,2023-10-26 10:34:40,Ave C & E 16 St,5769.06,E 39 St & 2 Ave,6345.08,40.72984830346529,-73.97455215454102,40.74803319428767,-73.973827958107,member
C210ABD0770477D7,classic_bike,2023-10-31 12:09:30,2023-10-31 12:19:07,E 17 St & Broadway,5980.07,E 7 St & Ave A,5626.07,40.73704984,-73.99009296,40.72621788,-73.98379855,member
E3AA162B8D4B6481,classic_bike,2023-10-24 17:28:40,2023-10-24 17:37:10,Hart St & Wyckoff Ave,4971.01,Fairview Ave & Linden St,5066.03,40.704935431,-73.919653654,40.70694,-73.90632,member
AF2EDC0F82132A4A,classic_bike,2023-10-16 08:00:08,2023-10-16 08:06:54,W 44 St & 5 Ave,6551.02,Broadway & W 56 St,6847.02,40.754491091,-73.980521083,40.7652654,-73.98192338,member
8576003677384851,classic_bike,2023-10-28 14:32:23,2023-10-28 14:56:20,E 20 St & FDR Dr,5886.13,W 42 St & 8 Ave,6602.05,40.733197093,-73.975499153,40.7575699,-73.99098507,member
C9F8051F3F228EB2,classic_bike,2023-10-06 07:58:37,2023-10-06 08:04:07,Lenox Ave & W 115 St,7627.10,Park Ave & E 124 St,7682.01,40.8011939,-73.9500739,40.8045555,-73.9396861,member
B0F7A6C2F584F6DE,classic_bike,2023-10-17 00:44:09,2023-10-17 00:57:38,Coffey St & Conover St,4137.10,4 Ave & 26 St,3596.04,40.677374244,-74.0158571,40.660079,-73.998633,member
B72AB5AF128BC811,classic_bike,2023-10-01 19:03:39,2023-10-01 19:19:08,Norfolk St & Broome St,5374.01,E 31 St & 3 Ave,6239.08,40.717180371,-73.988045096,40.74394314,-73.97966069,member
EFDF3EA1732DCAA3,electric_bike,2023-10-27 15:52:56,2023-10-27 15:59:55,Perry St & Greenwich Ave,5955.12,E 4 St & 2 Ave,5593.04,40.735918,-74.000939,40.7262807,-73.98978041,member
4712661357C7197A,classic_bike,2023-10-10 11:07:41,2023-10-10 11:38:37,E 91 St & Park Ave,7344.05,E 33 St & 5 Ave,6322.01,40.7835016,-73.955327,40.74765947,-73.98490707,member
2B620640CB74319B,classic_bike,2023-10-07 06:30:47,2023-10-07 06:39:13,W 42 St & Dyer Ave,6644.07,Hudson St & W 13 St,6115.06,40.758871555,-73.993624926,40.74005708567285,-74.0052741765976,member
897869ADCA4C0D94,classic_bike,2023-10-04 19:00:35,2023-10-04 19:01:33,W Burnside Ave & University Ave,8425.01,W Burnside Ave & University Ave,8425.01,40.853608966,-73.912553906,40.853686,-73.912498,member
3A46E7597F5A44EC,classic_bike,2023-10-06 10:41:30,2023-10-06 10:46:01,Motorgate,6814.01,Roosevelt Island Tramway,6599.01,40.7639089,-73.9477213,40.757284,-73.9536,member
DBD291FAF5589EC3,classic_bike,2023-10-21 17:07:19,2023-10-21 17:26:13,Park Circle & East Dr,3344.02,6 Ave & 21 St,3628.11,40.651566,-73.972212,40.66016,-73.990974,casual
BB1B3DEF11349C03,classic_bike,2023-10-12 07:35:23,2023-10-12 07:45:52,E 72 St & York Ave,6889.12,W 89 St & Columbus Ave,7432.09,40.766601205,-73.953567505,40.7882213,-73.97041561,member
BDE9ABD12F53E125,classic_bike,2023-10-06 15:20:36,2023-10-06 15:31:20,E 27 St & 1 Ave,6004.06,W 18 St & 6 Ave,6064.08,40.739445,-73.976806,40.73971301,-73.99456405,member
3C96376434AFF214,electric_bike,2023-10-03 13:31:33,2023-10-03 13:36:13,Pacific St & Nevins St,4362.04,Lawrence St & Willoughby St,4596.09,40.6853761,-73.98302136,40.69236178,-73.98631746,casual
3961B11B176110A7,classic_bike,2023-10-01 04:12:37,2023-10-01 04:28:00,Broadway & W 56 St,6847.02,W 52 St & 11 Ave,6926.01,40.765479684,-73.982465148,40.76727216,-73.99392888,member
14BF4449497FE4B5,classic_bike,2023-10-15 17:04:04,2023-10-15 17:14:42,Sullivan St & Washington Sq,5721.01,4 Ave & E 12 St,5788.15,40.73047747,-73.99906065,40.732647,-73.99011,casual
545E98F9F822F479,classic_bike,2023-10-22 12:53:25,2023-10-22 12:55:54,Grand St & Samuel Dickstein Plaza,5335.07,Norfolk St & Broome St,5374.01,40.71511871996496,-73.98417055606842,40.7172274,-73.98802084,member
180BC24C67645358,classic_bike,2023-10-27 18:38:43,2023-10-27 18:45:31,E 6 St & Ave D,5506.14,E 6 St & Ave D,5506.14,40.72230804,-73.976590633,40.72228087,-73.97668709,member
379C43240CC85EF2,classic_bike,2023-10-17 13:41:09,2023-10-17 13:49:10,Watts St & Greenwich St,5578.02,Grand St & Elizabeth St,5382.06,40.72405549,-74.00965965,40.718822,-73.99596,member
BD160CB63F2A996C,classic_bike,2023-10-08 10:59:39,2023-10-08 11:13:48,Little West St & 1 Pl,5001.08,Water St &  Fletcher St,5024.10,40.70569254,-74.01677685,40.706410755236135,-74.00559738278389,casual
262C756F194ED3AE,classic_bike,2023-10-17 08:26:59,2023-10-17 08:32:54,1 Ave & E 6 St,5626.15,Great Jones St,5636.11,40.72633085971696,-73.98616880178452,40.72743423,-73.99379025,member
864CA8B5F771A702,classic_bike,2023-10-25 18:28:52,2023-10-25 18:57:25,Frederick Douglass Blvd & W 115 St,7658.13,E 20 St & 2 Ave,5971.08,40.803849578,-73.955815315,40.73587678,-73.98205027,member
22A7070066297408,classic_bike,2023-10-14 02:07:28,2023-10-14 02:13:02,Cedar St & Evergreen Ave,4721.01,Hancock St & Malcolm X Blvd,4342.04,40.696798205,-73.928014159,40.68487,-73.9293,casual
BA961288BE2BE2DD,classic_bike,2023-10-29 19:42:29,2023-10-29 19:52:53,Boerum St & Broadway,5004.02,Grove St & Broadway,4526.01,40.705400109,-73.949672341,40.69047,-73.923511,casual
DC504FCF3D04E477,classic_bike,2023-10-28 01:39:40,2023-10-28 01:53:24,Division Ave & Hooper St,5045.05,Broadway & Hancock St,4441.06,40.70696342,-73.954375982,40.68663,-73.9168,member
5326D430E926EA00,classic_bike,2023-10-27 21:13:39,2023-10-27 21:26:21,Clinton St & Joralemon St,4605.04,Warren St & W Broadway,5288.09,40.69251883,-73.993360281,40.71473993,-74.00910627,casual
676A248725DABD28,classic_bike,2023-10-05 10:44:29,2023-10-05 10:47:57,43 St & Broadway,6670.03,34 Ave & 48 St,6554.05,40.7577284,-73.9166368,40.75388,-73.914952,casual
9C85A6B52CB09E8D,classic_bike,2023-10-19 09:28:55,2023-10-19 09:34:43,W 20 St & 10 Ave,6306.01,W 18 St & 6 Ave,6064.08,40.745686,-74.005141,40.73971301,-73.99456405,member
444AD1C474992D31,classic_bike,2023-10-19 09:35:20,2023-10-19 09:35:54,4 Ave & E 12 St,5788.15,E 12 St & 3 Ave,5788.12,40.732647,-73.99011,40.73223272,-73.98889957,member
7B31788AAA48E34B,classic_bike,2023-10-09 20:36:55,2023-10-09 20:52:24,Broadway & E 21 St,6098.10,E 39 St & 2 Ave,6345.08,40.73988840858996,-73.98958593606949,40.74803319428767,-73.973827958107,member
2F07D8C0567BD033,classic_bike,2023-10-18 17:10:10,2023-10-18 17:16:41,Frost St & Meeker Ave,5371.07,Wythe Ave & Metropolitan Ave,5348.02,40.71766197083994,-73.94880026578903,40.716887,-73.963198,member
4B1A045EAED5EC24,classic_bike,2023-10-27 11:48:03,2023-10-27 11:54:26,W 37 St & Broadway,6441.06,W 25 St & 6 Ave,6215.04,40.752617717,-73.988419652,40.74395411,-73.99144871,member
29491D6158C7BA5B,classic_bike,2023-10-21 21:40:31,2023-10-21 22:51:31,W 15 St & 7 Ave,6030.06,Stagg St & Union Ave,5117.05,40.73935542,-73.99931783,40.70877084,-73.95095259,member
3150E28545E7B50C,classic_bike,2023-10-14 13:29:17,2023-10-14 13:47:33,Central Park West & W 68 St,7079.06,W 27 St & 6 Ave,6215.07,40.7734066,-73.97782542,40.74526,-73.99062,member
9248034B81678327,classic_bike,2023-10-23 17:59:06,2023-10-23 18:02:35,1 Ave & E 39 St,6303.01,E 51 St & 1 Ave,6532.06,40.74716723,-73.971094608,40.75455731,-73.96592976,member
ADD04C3CC91954D2,classic_bike,2023-10-31 11:55:41,2023-10-31 11:58:45,Macon St & Nostrand Ave,4214.03,Monroe St & Bedford Ave,4368.05,40.680938482,-73.950111032,40.6851443,-73.95380904,member
0A82DCB1D2E44A96,classic_bike,2023-10-24 17:28:20,2023-10-24 17:31:08,New York Ave & Montgomery St,3728.05,Kingston Ave & Carroll St,3831.03,40.66484189,-73.948118687,40.66688,-73.9425,member
4A5E45F1A3C96DCE,classic_bike,2023-10-25 22:53:06,2023-10-25 22:54:53,Broadway & E 21 St,6098.10,E 17 St & Broadway,5980.07,40.73988840858996,-73.98958593606949,40.73704984,-73.99009296,member
022E84FB6467B7D4,classic_bike,2023-10-27 16:50:33,2023-10-27 17:05:41,W 104 St & Amsterdam Ave,7610.13,Amsterdam Ave & W 60 St,7023.09,40.799033642,-73.966507554,40.77114812219016,-73.98699113854883,member
226415712C83759A,classic_bike,2023-10-31 11:05:41,2023-10-31 11:09:25,Suffolk St & Stanton St,5445.02,E 2 St & 2 Ave,5593.02,40.72066442,-73.98517977,40.72502876,-73.99069656,member
42208B84439F0A51,electric_bike,2023-10-19 19:58:36,2023-10-19 20:10:13,W 27 St & 6 Ave,6215.07,W 10 St & Washington St,5847.06,40.74526,-73.99062,40.73342399437081,-74.00851495563984,member
3DF5824B3812000E,classic_bike,2023-10-26 13:19:42,2023-10-26 13:35:09,Cooper Square & Astor Pl,5712.03,W Broadway & Spring St,5569.06,40.72951496224949,-73.99075269699097,40.72494672359416,-74.00165855884552,member
784C552AAFEF1B4A,classic_bike,2023-10-04 09:12:26,2023-10-04 09:37:20,W 13 St & 5 Ave,5947.04,Henry St & Atlantic Ave,4531.05,40.735389709,-73.99431324,40.69089272,-73.99612349,member
438363E181B1D05B,classic_bike,2023-10-17 16:12:42,2023-10-17 16:20:44,31 Ave & 61 St,6654.05,30 Ave & 41 St,6812.06,40.757525,-73.901614,40.763422,-73.914142,casual
06F0CA004C28D052,classic_bike,2023-10-24 10:04:08,2023-10-24 10:06:58,E 91 St & Park Ave,7344.05,E 98 St & Park Ave,7443.17,40.7835016,-73.955327,40.78813,-73.95206,member
4C3D2808A8D1BD2E,classic_bike,2023-10-03 14:41:16,2023-10-03 14:46:38,W 17 St & 8 Ave,6148.02,Lexington Ave & E 24 St,6089.07,40.741767168,-74.001424551,40.74025878,-73.98409214,member
C7FBCE57DAD017B3,classic_bike,2023-10-18 16:41:24,2023-10-18 16:46:28,E 11 St & 1 Ave,5746.14,E 17 St & Broadway,5980.07,40.729577184,-73.984347582,40.73704984,-73.99009296,member
66D167DC16C214DB,classic_bike,2023-10-15 12:22:17,2023-10-15 12:33:11,E 13 St & 2 Ave,5820.08,Norfolk St & Broome St,5374.01,40.73153937464073,-73.9853024482727,40.7172274,-73.98802084,member
1E3B13AE1F3B4629,classic_bike,2023-10-14 11:32:23,2023-10-14 12:11:59,69 St & 38 Ave,6298.04,E 81 St & 3 Ave,7154.07,40.74694504524519,-73.89650255441666,40.77573034,-73.9567526,member
9E93E5642C0592D4,classic_bike,2023-10-25 10:26:08,2023-10-25 10:46:19,Yankee Ferry Terminal,4440.02,Soissons Landing,4590.01,40.68706579875912,-74.01675585121666,40.69231660719192,-74.01486575603485,member
0D562B0E324DD10D,classic_bike,2023-10-08 03:14:25,2023-10-08 03:38:01,Ave D & E 3 St,5436.09,E 14 St & 1 Ave,5779.10,40.72082834,-73.97793172,40.73139303364151,-73.98286700248718,casual
6EC33440B5CD90F4,classic_bike,2023-10-28 11:19:35,2023-10-28 11:36:34,Catherine St & Monroe St,5128.04,India St & Manhattan Ave,5826.02,40.711167336,-73.99679327,40.73232194,-73.9550858,member
F2432AF4CE32D62F,classic_bike,2023-10-12 16:12:29,2023-10-12 23:05:17,Walton Ave & E 151 St,7945.03,,,40.820766091,-73.927596927,40.83,-73.88,casual
C8B82991F50AAF5E,classic_bike,2023-10-31 13:33:25,2023-10-31 13:40:41,Rivington St & Chrystie St,5453.01,Rivington St & Ridge St,5406.02,40.72110063,-73.9919254,40.71850211,-73.98329859,member
1BCFB940E970A5A6,classic_bike,2023-10-24 17:57:27,2023-10-24 18:16:30,7 Ave & Central Park South,6912.01,Park Ave & E 124 St,7682.01,40.68214356666667,-73.95419668333334,40.8045555,-73.9396861,member
40B570D5EAD565F6,classic_bike,2023-10-30 06:30:20,2023-10-30 07:35:43,1 Ave & E 62 St,6753.08,,,40.761177063,-73.960728645,40.77,-73.96,member
1053356E259F3529,classic_bike,2023-10-19 17:15:04,2023-10-19 17:19:02,FDR Drive & E 35 St,6230.04,1 Ave & E 44 St,6379.03,40.743894458,-73.971403241,40.75001986,-73.96905301,member
01831ADB9C2F98DF,classic_bike,2023-10-03 08:40:32,2023-10-03 09:08:58,S 4 St & Rodney St,5156.05,Washington Square E,5755.09,40.70934,-73.95608,40.73049393,-73.9957214,member
5C8694A177E9329E,classic_bike,2023-10-03 19:16:42,2023-10-03 19:44:36,11 Ave & W 27 St,6425.04,Little West St & 1 Pl,5001.08,40.751396,-74.005226,40.70569254,-74.01677685,member
4B2B6796085259D0,classic_bike,2023-10-05 19:34:36,2023-10-05 19:45:58,5 Ave & 3 St,3987.06,DeKalb Ave & Vanderbilt Ave,4461.04,40.672753334,-73.983675361,40.68940747,-73.96885458,member
4F3C4E4DBED2794E,classic_bike,2023-10-16 06:39:21,2023-10-16 06:53:51,Rivington St & Ridge St,5406.02,W 25 St & 6 Ave,6215.04,40.718649149,-73.983275056,40.74395411,-73.99144871,member
87DD608DA840BC64,classic_bike,2023-10-08 12:36:45,2023-10-08 12:45:15,E 16 St & 5 Ave,6022.04,9 Ave & W 22 St,6266.06,40.73726186,-73.99238967,40.7454973,-74.00197139,member
43D9FB8AFD96465C,classic_bike,2023-10-10 22:09:29,2023-10-10 22:17:13,Lispenard St & Broadway,5391.06,Greenwich St & W Houston St,5730.08,40.71939226,-74.00247214,40.728846,-74.008591,member
059DAAD9E0C61B4F,classic_bike,2023-10-18 08:52:24,2023-10-18 09:05:28,E 88 St & Park Ave,7293.10,7 Ave & W 55 St,6847.05,40.781410700190015,-73.95595908164978,40.764126,-73.980973,member
E5B376D5C3F67884,classic_bike,2023-10-04 10:07:20,2023-10-04 10:20:01,Monroe St & Bedford Ave,4368.05,Grove St & Broadway,4526.01,40.6851443,-73.95380904,40.69047,-73.923511,member
152D4C377FAE7608,classic_bike,2023-10-01 17:37:24,2023-10-01 17:58:48,Allen St & Rivington St,5414.06,Stagg St & Morgan Ave,5170.01,40.719993353,-73.990059853,40.710681,-73.93372,casual
8E233102F971B565,classic_bike,2023-10-12 16:11:50,2023-10-12 16:18:48,5 Ave & E 78 St,7161.08,Columbus Ave & W 72 St,7175.05,40.776703954,-73.964044571,40.7770575,-73.97898475,member
9639908D5E2C7F32,classic_bike,2023-10-03 18:12:53,2023-10-03 18:23:18,E 17 St & Broadway,5980.07,10 Ave & W 28 St,6459.04,40.736956954,-73.989915013,40.75066386,-74.00176802,member
6A426D501986A16E,classic_bike,2023-10-31 16:39:06,2023-10-31 16:39:45,Park Ave & E 124 St,7682.01,Park Ave & E 124 St,7682.01,40.804685593,-73.939543128,40.8045555,-73.9396861,casual
256F3121172D225A,electric_bike,2023-10-18 09:22:44,2023-10-18 09:23:05,East End Ave & E 86 St,7113.08,East End Ave & E 86 St,7113.08,40.77518615,-73.94446054,40.77518615,-73.94446054,member
69D505B71A6E0AAB,classic_bike,2023-10-30 23:48:05,2023-10-30 23:52:05,Christopher St & Greenwich St,5847.01,9 Ave & W 18 St,6190.08,40.732952476,-74.007081985,40.74317449,-74.00366443,casual
58195DF2CD15AEC7,classic_bike,2023-10-13 19:08:43,2023-10-13 19:16:58,Brook Ave & E 138 St,7707.08,Grand Concourse & E 161 St,8021.11,40.80739224,-73.919291615,40.82713380423556,-73.9227358996868,member
242C922963F1B6C0,classic_bike,2023-10-10 17:15:25,2023-10-10 17:38:28,Broadway & W 56 St,6847.02,23 Ave & 27 St,7178.02,40.764654994,-73.981985211,40.776165,-73.9153175,member
B172095A4CE62AD2,classic_bike,2023-10-18 08:15:12,2023-10-18 08:20:43,Water St & Fletcher St,5024.10,Spruce St & Nassau St,5137.10,40.706776381,-74.00575304,40.71146364,-74.00552427,member
D8A9397BA9446D67,classic_bike,2023-10-14 02:02:28,2023-10-14 02:11:25,Hudson St & W 13 St,6115.06,4 Ave & E 12 St,5788.15,40.740346789,-74.00522244,40.732647,-73.99011,member
FB33F9E7E3B26EF9,classic_bike,2023-10-27 17:19:50,2023-10-27 17:27:35,W 10 St & Washington St,5847.06,West St & Chambers St,5329.03,40.733380437,-74.008325696,40.71754834,-74.01322069,casual
84BBD227C85F4DC6,classic_bike,2023-10-03 07:52:36,2023-10-03 08:10:05,W 180 St & Ft Washington Ave,8358.03,St. Nicholas Terrace & Convent Ave,7937.15,40.849936962,-73.938417077,40.821294,-73.947868,member
F70B06AE4040BB69,classic_bike,2023-10-03 17:45:07,2023-10-03 18:08:40,E 20 St & 2 Ave,5971.08,E 74 St & 1 Ave,6953.08,40.735784888,-73.981729269,40.7689738,-73.95482273,member
A688AA9179A4497B,classic_bike,2023-10-03 17:00:52,2023-10-03 17:11:58,W 26 St & 10 Ave,6382.05,Broadway & E 19 St,6098.12,40.749717753,-74.002950346,40.73866091428551,-73.98987293243407,member
D8C488D5D15C0B59,classic_bike,2023-10-31 10:44:18,2023-10-31 10:48:09,Somers St & Rockaway Ave,4170.08,Macon St & Howard Ave,4408.07,40.678720355,-73.911167741,40.68452,-73.92011,member
B661A093139093D6,classic_bike,2023-10-25 18:42:57,2023-10-25 18:55:52,University Pl & E 14 St,5905.14,E 2 St & Ave A,5553.10,40.734814,-73.992085,40.72307749068673,-73.98583620786667,member
3583E0284CA24DFB,electric_bike,2023-10-23 17:19:05,2023-10-23 17:30:45,E 39 St & Lexington Ave,6389.09,W 34 St & Hudson Blvd E,6535.04,40.7494985460252,-73.97729203113158,40.75516719072139,-74.00059908628464,casual
E2ADAD3204845150,classic_bike,2023-10-19 19:59:20,2023-10-19 20:05:10,Centre St & Worth St,5279.03,Rutgers St & Henry St,5230.02,40.71494807,-74.00234482,40.71332151208186,-73.99009689688683,casual
5383130CA1F4B2DC,classic_bike,2023-10-21 16:41:45,2023-10-21 16:49:53,10 St & 5 Ave,3842.08,7 Ave & 17 St,3660.07,40.6686273,-73.98700053,40.66093779493168,-73.98680448532104,member
F5FE35E008D28F19,classic_bike,2023-10-22 12:07:59,2023-10-22 12:26:28,Prospect Park West & 8 St,3722.04,34 St & 4 Ave,3492.04,40.66514681533792,-73.97637605667114,40.655278,-74.003101,member
09BE6B66A0E42470,classic_bike,2023-10-28 23:28:05,2023-10-28 23:40:33,Eastern Pkwy & Washington Ave,3928.08,E 18 St & Church Ave,3263.01,40.6716493,-73.9631145,40.64958,-73.96316,member
CF0900D8B18DA9E5,classic_bike,2023-10-28 23:58:43,2023-10-29 00:19:45,31 St & Astoria Blvd,6989.07,Woodside Ave & 60 St,6234.04,40.7699176,-73.9184057,40.74521,-73.90462,casual
324E88D5F1C467E2,classic_bike,2023-10-02 00:17:25,2023-10-02 00:30:04,Lexington Ave & E 24 St,6089.07,Ave C & E 16 St,5769.06,40.74025878,-73.98409214,40.72984830346529,-73.97455215454102,member
88ECBBBB1588208B,electric_bike,2023-10-11 16:54:58,2023-10-11 17:00:35,E 6 St & Ave B,5584.04,E 4 St & 2 Ave,5593.04,40.72453734,-73.98185424,40.7262807,-73.98978041,member
F2BD3BB6E34F217F,classic_bike,2023-10-27 11:24:16,2023-10-27 11:32:19,Forsyth St & Grand St,5382.07,E 4 St & 2 Ave,5593.04,40.71779817737835,-73.99316132068634,40.7262807,-73.98978041,member
BC42367A7FA9E214,classic_bike,2023-10-28 16:39:38,2023-10-28 17:04:13,Central Park S & 6 Ave,6876.04,W 110 St & Amsterdam Ave,7646.04,40.76590936,-73.97634151,40.802692,-73.96295,member
70C3D1449EFA632A,classic_bike,2023-10-03 16:56:38,2023-10-03 17:11:18,2 Ave & E 72 St,6925.09,FDR Drive & E 35 St,6230.04,40.7687620293096,-73.95840793848038,40.744219,-73.97121214,member
9DF48C202A25531A,classic_bike,2023-10-16 14:00:53,2023-10-16 14:05:24,W 42 St & 6 Ave,6517.08,W 42 St & Dyer Ave,6644.07,40.754468322,-73.985105395,40.75898481399634,-73.99379968643188,member
2E971B500B42B8AF,classic_bike,2023-10-10 16:16:48,2023-10-10 17:19:46,Jerome Ave & E 164 St,8096.02,,,40.831743479,-73.926087976,40.83,-73.93,member
F9B7FB0B6CE571ED,classic_bike,2023-10-25 15:38:01,2023-10-25 15:50:31,Madison Ave & E 26 St,6131.12,W 56 St & 8 Ave,6884.03,40.742507219,-73.98710227,40.765959181657976,-73.98313522338867,member
A61BBBFA7A80BD28,classic_bike,2023-10-13 11:52:43,2023-10-13 12:02:09,Brooklyn Ave & Prospect Pl,4057.04,Carroll St & Franklin Ave,3847.04,40.67412,-73.94447,40.6679411,-73.9588,member
62E9FD83E6AB505A,classic_bike,2023-10-13 21:32:28,2023-10-13 21:37:16,Bedford Ave & Nassau Ave,5550.05,Huron St & Franklin St,5869.04,40.72323966,-73.952005386,40.73266,-73.95826,member
C2908EE8DA3EBE51,classic_bike,2023-10-22 14:56:23,2023-10-22 15:13:48,Calyer St & West St,5676.04,N 12 St & Bedford Ave,5450.04,40.726983428,-73.958611488,40.72079821,-73.95484712,member
DA474776B8D9D051,classic_bike,2023-10-26 10:53:49,2023-10-26 11:08:23,Pier 40 - Hudson River Park,5696.03,W 15 St & 10 Ave,6115.09,40.7277140777778,-74.01129573583603,40.74275382865903,-74.00747358798981,casual
43F09497B17CD683,classic_bike,2023-10-19 07:54:47,2023-10-19 08:13:06,W 140 St & Riverside Dr,7981.27,W 89 St & Columbus Ave,7432.09,40.824088573,-73.954662681,40.7882213,-73.97041561,member
0EF0F59C8B8DDE0F,classic_bike,2023-10-28 09:41:33,2023-10-28 09:50:35,Cooper Square & Astor Pl,5712.03,E 10 St & Ave A,5659.05,40.72951496224949,-73.99075269699097,40.72740794,-73.98142006,member
34086268017CDD11,classic_bike,2023-10-30 11:46:48,2023-10-30 11:51:30,21 St & 38 Ave,6656.05,28 St & 36 Ave,6614.01,40.7576314,-73.9391224,40.757186,-73.932719,member
0C21A95569CCE866,classic_bike,2023-10-20 18:13:25,2023-10-20 18:24:10,3 St & Prospect Park West,3865.05,E 18 St & Church Ave,3263.01,40.668124318,-73.973446727,40.64958,-73.96316,member
0D1D0AC33022F975,classic_bike,2023-10-29 20:35:21,2023-10-29 20:45:59,31 Ave & 34 St,6819.15,50 St & 30 Ave,6735.03,40.763154,-73.920827,40.760083,-73.907107,member
F1EDA7F0BD810BB9,classic_bike,2023-10-31 14:06:01,2023-10-31 14:11:45,53 St & 2 Ave,3211.06,45 St & 4 Ave,3275.03,40.64744,-74.018846,40.649145,-74.009486,member
6E736594659CE928,classic_bike,2023-10-27 17:00:46,2023-10-27 17:18:45,Market St & Henry St,5270.09,Ave D & E 12 St,5575.08,40.71310702305908,-73.99446353316307,40.72580614,-73.97422494,member
C67FA9014CCDAE8D,classic_bike,2023-10-26 17:10:57,2023-10-26 17:26:08,Thompson St & Bleecker St,5721.07,Driggs Ave & S 2 St,5235.10,40.728156567,-73.9998945,40.712628,-73.960575,member
4AB8DE53DDDA2317,classic_bike,2023-10-19 17:30:56,2023-10-19 17:37:36,Berry St & N 8 St,5379.09,S 3 St & Bedford Ave,5235.05,40.718993306,-73.95855391,40.71260486,-73.96264403,member
3C0992331E598781,classic_bike,2023-10-25 19:28:14,2023-10-25 19:42:55,Franklin Ave & Myrtle Ave,4715.01,Broadway & Roebling St,5125.07,40.694546087246025,-73.95801365375519,40.70924826276157,-73.96063148975372,member
372B7B3216C219EC,classic_bike,2023-10-06 02:58:47,2023-10-06 03:27:28,Broadway & W 37 St,6441.02,White St & Johnson Ave,5099.03,40.751797199,-73.987250686,40.707174,-73.93581,casual
A46E90D54E6E83A4,electric_bike,2023-10-28 23:00:11,2023-10-28 23:36:05,35 St & 34 Ave,6679.11,Astoria Park S & Shore Blvd,7159.08,40.7580583,-73.9242751,40.7767,-73.927631,member
815CA904361C31D2,classic_bike,2023-10-20 08:14:18,2023-10-20 08:18:40,Lafayette Ave & Classon Ave,4452.01,Clinton Ave & Myrtle Ave,4651.02,40.688978434,-73.960387707,40.693261,-73.968896,member
C7582B83B9BE7B4A,classic_bike,2023-10-02 21:27:59,2023-10-02 21:33:31,Putnam Ave & Nostrand Ave,4327.09,Lafayette Ave & Classon Ave,4452.01,40.684052706,-73.949869514,40.68900443,-73.96023854,casual
93449EC3A7560FED,classic_bike,2023-10-11 18:52:41,2023-10-11 19:06:07,Murray St & Greenwich St,5288.12,Spruce St & Nassau St,5137.10,40.71485150526252,-74.01122331619263,40.71146364,-74.00552427,member
2A6B908D0FB6B452,classic_bike,2023-10-06 19:47:33,2023-10-06 19:49:22,Vernon Blvd & 50 Ave,6170.02,48 Ave & 5 St,6212.04,40.74232744,-73.95411749,40.74436328706688,-73.9558732509613,member
13F64F1922AC9D7F,classic_bike,2023-10-19 14:43:27,2023-10-19 14:45:24,St Johns Pl & Washington Ave,4001.09,Underhill Ave & Lincoln Pl,4042.08,40.673735619,-73.963220954,40.6740123,-73.9671457,member
D1ED310E94FA189B,classic_bike,2023-10-13 22:24:09,2023-10-13 22:38:57,8 Ave & W 49 St,6747.07,4 Ave & E 12 St,5788.15,40.761806726,-73.98646605,40.732647,-73.99011,member
A01173D987E401F0,classic_bike,2023-10-01 11:36:11,2023-10-02 12:36:01,38 Ave & 29 St,6538.11,,,40.75473,-73.93367,,,casual
0127183B5B009DC0,classic_bike,2023-10-11 18:07:26,2023-10-11 18:11:31,Carmine St & 6 Ave,5763.03,Washington Pl & Broadway,5755.01,40.73039186,-74.00227046,40.72903917,-73.99404649,member
6B41503C765A5CA4,classic_bike,2023-10-04 20:52:01,2023-10-04 21:08:52,W 36 St & 9 Ave,6569.07,University Pl & E 14 St,5905.14,40.75462324029105,-73.99516761302948,40.734814,-73.992085,member
A378B69A0014CD6E,classic_bike,2023-10-18 15:37:23,2023-10-18 15:45:03,Smith St & 3 St,4151.01,Pioneer St & Richards St,4128.08,40.678638697,-73.996044159,40.6777748,-74.0094613,member
6733A429129DFA60,electric_bike,2023-10-01 22:27:04,2023-10-01 22:43:45,Spring St & Hudson St,5653.12,E 31 St & 3 Ave,6239.08,40.72583996792375,-74.0076532959938,40.74394314,-73.97966069,member
195B1236022C53DB,classic_bike,2023-10-26 18:43:04,2023-10-26 18:49:24,6 St & 7 Ave,3834.10,Underhill Ave & Lincoln Pl,4042.08,40.668589711,-73.97998929,40.6740123,-73.9671457,member
42B9BD787DDD79D0,classic_bike,2023-10-08 15:29:31,2023-10-08 15:33:29,E 13 St & 2 Ave,5820.08,Broadway & E 19 St,6098.12,40.731596828,-73.985154867,40.73866091428551,-73.98987293243407,member
66C11BD91A1A3B8B,classic_bike,2023-10-26 20:47:03,2023-10-26 20:56:37,W 67 St & Broadway,7116.04,W 46 St & 11 Ave,6795.01,40.774921417,-73.982708812,40.76341379,-73.99667444,member
D4C87BEF29D493F2,classic_bike,2023-10-02 17:36:48,2023-10-02 17:42:59,Stanhope St & Fairview Ave,5146.03,Devoe St & Morgan Ave,5282.02,40.710091591,-73.91110003,40.713811,-73.93515,casual
CCB5079C84C0F0A9,classic_bike,2023-10-10 14:12:50,2023-10-10 14:17:10,E 33 St & 5 Ave,6322.01,Lexington Ave & E 36 St,6313.10,40.74765947,-73.98490707,40.7475739589548,-73.9788007736206,member
2E3089DDC76E2CF3,classic_bike,2023-10-26 19:37:38,2023-10-26 20:15:23,Little West St & 1 Pl,5001.08,Eastern Pkwy & Franklin Ave,3919.07,40.705738425,-74.016813636,40.6707767,-73.9576801,casual
FB84309662AC707B,classic_bike,2023-10-14 09:23:10,2023-10-14 09:36:08,W 116 St & Broadway,7713.11,Park Ave & E 124 St,7682.01,40.8082,-73.9641,40.8045555,-73.9396861,member
61FFEB55C45669E3,classic_bike,2023-10-01 16:06:48,2023-10-01 16:13:42,W 171 St & St. Nicholas Ave,8262.07,St. Nicholas Ave & W 155 St,8085.05,40.842941,-73.938631,40.830663,-73.941323,member
B339E41109C10187,classic_bike,2023-10-22 04:39:54,2023-10-22 04:45:06,W Broadway & Spring St,5569.06,W Broadway & W Houston St,5644.05,40.72494672359416,-74.00165855884552,40.726378,-74.000472,member
B4C910988A8E0563,electric_bike,2023-10-15 15:55:19,2023-10-15 16:10:00,E 81 St & 3 Ave,7154.07,Lexington Ave & E 36 St,6313.10,40.77573034,-73.9567526,40.7475739589548,-73.9788007736206,casual
B49E25892F3F7F83,classic_bike,2023-10-25 06:38:05,2023-10-25 06:58:47,25 Ave & 41 St,6943.07,21 St & 38 Ave,6656.05,40.767666,-73.910963,40.7576314,-73.9391224,member
F61FC18C18D116EF,classic_bike,2023-10-22 12:38:30,2023-10-22 13:00:54,W Mosholu Pkwy S & Sedgwick Ave,8841.03,E Fordham Rd & Webster Ave,8582.09,40.88226,-73.88702,40.861748,-73.89105,member
8616BAB27E2874CB,classic_bike,2023-10-01 00:26:31,2023-10-01 00:31:29,E 11 St & 3 Ave,5788.16,E 14 St & Avenue B,5736.09,40.731194973,-73.988414407,40.72938685,-73.97772429,member
A72FC7C5EF73268D,classic_bike,2023-10-28 17:20:24,2023-10-28 17:22:50,Washington Pl & Broadway,5755.01,Washington Square E,5755.09,40.72903917,-73.99404649,40.73049393,-73.9957214,member
7B92806E6DF2FC31,classic_bike,2023-10-19 18:02:19,2023-10-19 18:11:01,Hudson St & W 13 St,6115.06,E 12 St & 3 Ave,5788.12,40.74005708567285,-74.0052741765976,40.73223272,-73.98889957,member
DFA9A80B09D6695C,classic_bike,2023-10-04 23:42:42,2023-10-04 23:50:46,Broadway & W 56 St,6847.02,W 37 St & 5 Ave,6398.06,40.7652654,-73.98192338,40.75038009,-73.98338988,member
6EF39EA5846686BE,classic_bike,2023-10-03 06:02:44,2023-10-03 06:10:06,W 41 St & 8 Ave,6602.03,Broadway & W 51 St,6779.04,40.75640548,-73.9900262,40.76228826,-73.98336183,member
44034AF1E746783A,classic_bike,2023-10-25 21:39:45,2023-10-25 21:48:30,Nassau St & Duffield St,4781.05,Clark St & Henry St,4789.03,40.698477,-73.98384,40.69760127,-73.99344559,member
E78D24706B6DA57C,classic_bike,2023-10-31 11:07:36,2023-10-31 11:12:28,W 52 St & 5 Ave,6700.01,W 37 St & 5 Ave,6398.06,40.760062933,-73.976819038,40.75038009,-73.98338988,member
9C67B892AEA7E069,classic_bike,2023-10-04 16:34:04,2023-10-04 18:35:33,Broadway & E 21 St,6098.10,Washington Square E,5755.09,40.740094423,-73.989618182,40.73049393,-73.9957214,member
770276EC3E1DDEE4,classic_bike,2023-10-30 18:54:30,2023-10-30 19:07:08,Halsey St & Tompkins Ave,4319.07,Carroll St & Franklin Ave,3847.04,40.682364702,-73.943918943,40.6679411,-73.9588,casual
E3769F3F8ED71B94,classic_bike,2023-10-10 21:17:38,2023-10-10 22:26:57,9 Ave & W 45 St,6717.06,E 31 St & 3 Ave,6239.08,40.760206461,-73.991260409,40.74394314,-73.97966069,casual
56265470CDD0C988,classic_bike,2023-10-03 12:54:49,2023-10-03 13:00:36,Willoughby St & Ashland Pl,4587.02,Hanson Pl & Ashland Pl,4395.07,40.691788912,-73.978571773,40.68506807308177,-73.97790759801863,member
A7F1795127D41D60,electric_bike,2023-10-22 01:23:57,2023-10-22 01:31:23,Pier 40 - Hudson River Park,5696.03,Little West St & 1 Pl,5001.08,40.7277140777778,-74.01129573583603,40.70569254,-74.01677685,member
1D64AEAD651261E1,classic_bike,2023-10-04 17:38:07,2023-10-04 17:54:14,W 27 St & 7 Ave,6247.06,West St & Chambers St,5329.03,40.746647,-73.993915,40.71754834,-74.01322069,member
8EDD73492D123A99,classic_bike,2023-10-22 19:37:20,2023-10-22 19:49:16,E 72 St & York Ave,6889.12,Columbus Ave & W 72 St,7175.05,40.76663814,-73.95348296,40.7770575,-73.97898475,member
29AAC13137509E48,classic_bike,2023-10-18 17:09:30,2023-10-18 17:16:35,Bayard St & Leonard St,5442.05,Sharon St & Olive St,5323.06,40.71915571696044,-73.94885390996933,40.71534162042448,-73.93865078687668,member
0DE9836F6D5CB5B8,classic_bike,2023-10-09 16:19:29,2023-10-09 16:33:13,E 39 St & Lexington Ave,6389.09,E 2 St & Avenue A,5553.10,40.749437928,-73.977048755,40.72307749068673,-73.98583620786667,casual
7A51B05E5D6317F9,classic_bike,2023-10-16 21:22:14,2023-10-16 21:34:12,E 7 St & Ave A,5626.07,W Broadway & W Houston St,5644.05,40.726183534,-73.983906746,40.726378,-74.000472,member
8EE8192427CD721A,classic_bike,2023-10-31 17:19:04,2023-10-31 17:21:05,Market St & Henry St,5270.09,Market St & Cherry St,5198.04,40.71310702305908,-73.99446353316307,40.71076228,-73.99400398,member
EDBE3C540959E202,classic_bike,2023-10-26 18:02:31,2023-10-26 18:10:35,Cadman Plaza E & Red Cross Pl,4821.06,Flushing Ave & Vanderbilt Ave,4762.05,40.69991755,-73.98971773,40.69795031569544,-73.97077560424805,member
129E91D8D751B30E,classic_bike,2023-10-16 17:14:48,2023-10-16 17:23:36,North Moore St & Greenwich St,5470.12,Water St & Gouverneur Ln,4993.15,40.72019521437465,-74.0103006362915,40.70469667894968,-74.00803416967392,member
9B16B3B9A52F7063,classic_bike,2023-10-23 08:18:22,2023-10-23 08:39:22,St Nicholas Terrace & Convent Ave,7937.15,Park Ave & E 124 St,7682.01,40.82106328,-73.947782278,40.8045555,-73.9396861,member
C8D22A27F60F35F5,classic_bike,2023-10-18 10:06:05,2023-10-18 11:08:24,E 156 St & Brook Ave,7896.11,,,40.819871068,-73.912467718,40.82,-73.91,casual
78A46FC3210F401B,classic_bike,2023-10-11 13:09:05,2023-10-11 13:14:41,W 52 St & 11 Ave,6926.01,11 Ave & W 41 St,6726.01,40.76727216,-73.99392888,40.76030096,-73.99884222,member
311D71987818DB61,classic_bike,2023-10-31 14:29:43,2023-10-31 14:38:52,Richardson St & N Henry St,5433.03,S 3 St & Bedford Ave,5235.05,40.719127417,-73.942304969,40.71260486,-73.96264403,member
1A58CBA4B599F9F2,classic_bike,2023-10-18 20:31:56,2023-10-18 20:39:56,Metropolitan Ave & Bedford Ave,5308.04,Jackson St & Leonard St,5332.10,40.71534825,-73.96024116,40.71638031973561,-73.94821286201477,member
3C9188FAF0DF153E,classic_bike,2023-10-07 15:34:52,2023-10-08 16:34:45,W 35 St & Dyer Ave,6569.08,,,40.754691750226016,-73.99740189313889,,,casual
18E10FD001553067,classic_bike,2023-10-13 17:30:11,2023-10-13 17:35:48,Spruce St & Nassau St,5137.10,Forsyth St & Grand St,5382.07,40.711321831,-74.005676746,40.71779817737835,-73.99316132068634,member
48010C661B6F4D42,classic_bike,2023-10-12 14:50:07,2023-10-12 15:47:53,Southpoint Park,6566.01,Roosevelt Island Tramway,6599.01,40.753575087,-73.958866119,40.757284,-73.9536,casual
C92998FD63A91FD5,classic_bike,2023-10-26 21:11:04,2023-10-26 22:10:49,Eastern Pkwy & Ralph Ave,3845.05,Clarkson Ave & Utica Ave,3486.02,40.66852,-73.92284,40.65666,-73.93109,member
98FA9C9F42B3E2A6,classic_bike,2023-10-21 15:41:49,2023-10-21 16:00:48,Franklin Ave & Myrtle Ave,4715.01,Van Buren St & Broadway,4568.01,40.694546087246025,-73.95801365375519,40.692,-73.92617,member
29F80F04F296D0B4,classic_bike,2023-10-30 12:22:21,2023-10-30 12:23:48,1 Ave & E 39 St,6303.01,E 39 St & 2 Ave,6345.08,40.74714,-73.97113,40.74803319428767,-73.973827958107,member
809761E872E7D53E,classic_bike,2023-10-29 12:16:09,2023-10-29 12:44:50,E 7 St & Ave A,5626.07,Underhill Ave & Lincoln Pl,4042.08,40.726140976,-73.983843327,40.6740123,-73.9671457,member
EB32F46925AB02C5,classic_bike,2023-10-17 17:23:16,2023-10-17 17:35:01,E 45 St & 3 Ave,6464.08,E 31 St & 3 Ave,6239.08,40.75255434,-73.97282625,40.74394314,-73.97966069,member
091DA9F555ADD6AD,classic_bike,2023-10-26 13:48:48,2023-10-26 13:54:40,Old Slip & South St,4993.13,South St & Pike St,5159.07,40.70361352,-74.00830698,40.70991806921533,-73.99161100387573,casual
3372712CBE25E515,classic_bike,2023-10-08 18:55:57,2023-10-08 19:10:26,Columbia St & W 9 St,4086.05,Smith St & 3 St,4151.01,40.676971197,-74.006506562,40.6787242,-73.99599099,member
4889FBC5FCA85606,classic_bike,2023-10-23 09:27:58,2023-10-23 09:38:33,E 48 St & 5 Ave,6626.01,W 52 St & 11 Ave,6926.01,40.75724567911726,-73.97805914282799,40.76727216,-73.99392888,member
F839EE83260DCDCA,classic_bike,2023-10-14 08:37:14,2023-10-14 08:43:07,Ocean Ave & Tennis Ct,3223.07,Church Ave & McDonald Ave,3090.06,40.64884901,-73.960900664,40.642809,-73.979239,member
6C84D27697431CAC,classic_bike,2023-10-13 20:28:52,2023-10-13 20:38:22,E 20 St & FDR Dr,5886.13,Lexington Ave & E 24 St,6089.07,40.733208626522426,-73.9756813647,40.74025878,-73.98409214,casual
6509CC2A941E5333,classic_bike,2023-10-31 09:28:08,2023-10-31 09:31:14,E 51 St & 1 Ave,6532.06,E 51 St & Lexington Ave,6659.01,40.754607797,-73.96594727,40.75714758,-73.97207836,member
462804A5BC055077,classic_bike,2023-10-03 18:28:29,2023-10-03 18:33:30,E 39 St & Lexington Ave,6389.09,E 33 St & 5 Ave,6322.01,40.7494985460252,-73.97729203113158,40.74765947,-73.98490707,member
1A742BF149A2C784,classic_bike,2023-10-19 12:52:40,2023-10-19 12:58:12,W 25 St & 8 Ave,6297.08,W 31 St & 7 Ave,6331.01,40.74634099,-73.997231483,40.749156,-73.9916,member
525DCB0D29CDE76F,classic_bike,2023-10-19 07:57:09,2023-10-19 08:06:28,E Fordham Rd & Webster Ave,8582.09,W 225 St & Exterior St,8711.02,40.861681581,-73.890967488,40.873265,-73.906646,member
AAA97462CB2355B1,classic_bike,2023-10-21 12:02:56,2023-10-21 13:30:54,Sigourney St & Columbia St,3940.04,,,40.672763944,-74.009019136,40.73,-73.95,member
FF59BD0E7BE22900,classic_bike,2023-10-12 12:21:21,2023-10-12 12:27:07,W 51 St & Rockefeller Plaza,6700.14,Broadway & W 56 St,6847.02,40.75973805251143,-73.97811613976955,40.7652654,-73.98192338,member
6B2CB92B810BD25B,classic_bike,2023-10-27 14:40:18,2023-10-27 14:47:22,Broadway & W 38 St,6560.15,E 16 St & 5 Ave,6022.04,40.753003001,-73.986789942,40.73726186,-73.99238967,member
C12944D2EFEF7531,classic_bike,2023-10-10 18:54:31,2023-10-10 18:58:31,Columbus Ave & W 95 St,7520.07,W 87 St & Amsterdam Ave,7458.03,40.791879892,-73.968057156,40.78839,-73.9747,member
5760C92810DC31E4,classic_bike,2023-10-21 23:24:29,2023-10-21 23:49:42,Washington Pl & 6 Ave,5838.09,South St & Pike St,5159.07,40.73224119,-74.00026394,40.70991806921533,-73.99161100387573,member
4D25926761D2373A,classic_bike,2023-10-30 11:33:03,2023-10-30 11:48:04,W 70 St & Amsterdam Ave,7207.08,W 52 St & 11 Ave,6926.01,40.77748046,-73.98288594,40.76727216,-73.99392888,member
0D4FC15B178E403C,classic_bike,2023-10-02 18:02:09,2023-10-02 18:18:44,Bainbridge Ave & E 193 St,8582.02,Bainbridge Ave & E 193 St,8582.02,40.863788247,-73.892533064,40.86389,-73.89246,casual
D4812376A96F1394,classic_bike,2023-10-24 08:57:28,2023-10-24 09:06:03,50 St & 7 Ave,3038.08,4 Ave & 26 St,3596.04,40.642737508,-74.006192327,40.660079,-73.998633,casual
793DDB7A365610EA,classic_bike,2023-10-31 06:23:05,2023-10-31 07:26:46,Franklin St & Dupont St,5944.01,,,40.73571372,-73.958653808,40.73,-73.95,casual
C292F59DCAD33AEF,classic_bike,2023-10-21 17:33:34,2023-10-21 18:11:29,23 St & 3 Ave,3707.01,Underhill Ave & Lincoln Pl,4042.08,40.662557602,-73.998529434,40.6740123,-73.9671457,member
804E764A6288C50C,classic_bike,2023-10-05 20:44:39,2023-10-05 20:51:50,9 Ave & W 45 St,6717.06,W 56 St & 8 Ave,6884.03,40.760166645,-73.99147594,40.765959181657976,-73.98313522338867,member
E486DA46FF73409B,classic_bike,2023-10-28 13:28:10,2023-10-28 13:39:44,W 22 St & 10 Ave,6306.06,E 31 St & 3 Ave,6239.08,40.746783376,-74.004256248,40.74394314,-73.97966069,casual
3F6B3A3AA43814CA,classic_bike,2023-10-25 13:16:37,2023-10-25 13:22:00,W 18 St & 6 Ave,6064.08,W 31 St & 7 Ave,6331.01,40.739534616,-73.99448216,40.749156,-73.9916,member
3F8D20D9FFDEA77B,classic_bike,2023-10-27 19:12:11,2023-10-27 19:15:28,Amsterdam Ave & W 152 St,8069.01,St Nicholas Ave & W 155 St,8085.05,40.829411864,-73.944329143,40.830663,-73.941323,member
7B479DBC1CEA6675,classic_bike,2023-10-13 00:02:57,2023-10-13 00:16:21,E 17 St & Broadway,5980.07,W 42 St & 6 Ave,6517.08,40.75233398333334,-73.96787546666667,40.75492,-73.98455,casual
B4B06403F9364189,classic_bike,2023-10-21 13:33:21,2023-10-21 14:03:25,Market St & Henry St,5270.09,W 25 St & 6 Ave,6215.04,40.71310702305908,-73.99446353316307,40.74395411,-73.99144871,member
4E286AA90BDED370,classic_bike,2023-10-24 18:05:49,2023-10-24 18:13:09,W 13 St & 5 Ave,5947.04,E 14 St & 1 Ave,5779.10,40.735486269,-73.994649768,40.73139303364151,-73.98286700248718,member
7E7A69D1D32A7AE6,classic_bike,2023-10-13 15:02:55,2023-10-13 15:06:41,Bleecker St & Crosby St,5679.08,4 Ave & E 12 St,5788.15,40.725976944,-73.99523437,40.732647,-73.99011,member
553A92DB60722267,classic_bike,2023-10-22 16:55:15,2023-10-22 17:11:27,Suffolk St & Stanton St,5445.02,N 12 St & Bedford Ave,5450.04,40.72059226,-73.985353351,40.72079821,-73.95484712,member
7A4BEE612D7DF785,classic_bike,2023-10-06 07:39:13,2023-10-06 07:45:42,9 Ave & W 18 St,6190.08,E 17 St & Broadway,5980.07,40.74317449,-74.00366443,40.73704984,-73.99009296,member
B1BDFABD713CE343,classic_bike,2023-10-26 12:50:48,2023-10-26 13:03:17,W 25 St & 6 Ave,6215.04,6 Ave & Canal St,5500.07,40.74395411,-73.99144871,40.72243797,-74.00566443,member
76901B2A3F2B7B7D,electric_bike,2023-10-15 14:08:29,2023-10-15 14:18:31,Wyckoff Ave & Gates Ave,4847.03,Monroe St & Marcus Garvey Blvd,4467.03,40.699871408829885,-73.91171872615814,40.686722,-73.938988,casual
36338932B1CD85BA,classic_bike,2023-10-16 09:26:29,2023-10-16 09:51:32,MacDonough St & Marcy Ave,4246.02,Union Ave & N 12 St,5411.07,40.68078,-73.94613,40.71924,-73.95242,casual
47B3D864959DF374,classic_bike,2023-10-04 07:25:30,2023-10-04 07:35:01,Adam Clayton Powell Blvd & W 141 St,7893.05,Grand Concourse & E 161 St,8021.11,40.819460273,-73.941133142,40.82713380423556,-73.9227358996868,member
E9B08BCF58E18AAB,classic_bike,2023-10-03 19:08:12,2023-10-03 19:18:04,Broadway & W 36 St,6441.01,W 15 St & 7 Ave,6030.06,40.75097711,-73.98765428,40.73935542,-73.99931783,member
CE2AAEE355EC3286,classic_bike,2023-10-18 20:19:04,2023-10-18 20:41:11,St Nicholas Ave & W 157 St,8085.09,Amsterdam Ave & W 73 St,7260.09,40.832184672,-73.940821886,40.77966809007312,-73.98093044757842,member
DFD21F99A5107491,classic_bike,2023-10-27 22:33:45,2023-10-27 22:51:25,E 33 St & 1 Ave,6197.08,E 6 St & 2 Ave,5669.12,40.74322681432173,-73.97449783980846,40.72737869323223,-73.98840844631195,member
E99AB78D2874DCF9,classic_bike,2023-10-17 16:49:54,2023-10-17 16:55:59,6 Ave & W 45 St,6593.15,W 56 St & 8 Ave,6884.03,40.756951,-73.982631,40.765959181657976,-73.98313522338867,member
E3308940D367CC68,classic_bike,2023-10-31 20:34:20,2023-10-31 20:45:27,Broadway & 51 St,6545.07,28 Ave & 35 St,6951.03,40.754164,-73.908906,40.7671,-73.9169858,casual
1D3F377F82F345A0,classic_bike,2023-10-31 08:04:49,2023-10-31 08:10:33,Adelphi St & Myrtle Ave,4620.02,Ashland Pl & Dekalb Ave,4513.09,40.69308257,-73.97178913,40.690065,-73.978776,member
4CBBC233B3D66188,classic_bike,2023-10-02 16:55:59,2023-10-02 17:17:07,Pacific St & Classon Ave,4148.07,S 5 Pl & S 5 St,5125.03,40.6791944,-73.9587903,40.710451,-73.960876,member
0037B62F8078F4BA,classic_bike,2023-10-18 19:06:50,2023-10-18 19:16:27,Cleveland Pl & Spring St,5492.05,W 31 St & 7 Ave,6331.01,40.722045898,-73.99728632,40.749156,-73.9916,member
CFA5C1163AA389C9,classic_bike,2023-10-06 21:53:32,2023-10-06 23:06:49,University Pl & E 8 St,5755.14,N 12 St & Bedford Ave,5450.04,40.731086373,-73.995187879,40.72079821,-73.95484712,member
C99C8EA552F7828D,classic_bike,2023-10-02 06:16:24,2023-10-02 07:23:14,Morris Ave & E 163 St,8036.05,,,40.82703042,-73.917780757,40.84,-73.9,member
072F4F4FF6847DE2,classic_bike,2023-10-06 16:07:52,2023-10-06 16:09:29,Front St & Gold St,4927.04,Jay St & York St,4895.09,40.70224,-73.982578,40.70140317257725,-73.98672670125961,member
66F4714840C28289,classic_bike,2023-10-12 17:46:40,2023-10-12 17:58:48,8 Ave & W 33 St,6450.12,E 23 St & 1 Ave,5929.01,40.752022743,-73.993459344,40.736502,-73.97809472,member
007696F309FECE8E,classic_bike,2023-10-26 08:15:12,2023-10-26 08:22:28,E 16 St & 5 Ave,6022.04,E 13 St & 2 Ave,5820.08,40.737118125,-73.991844177,40.73153937464073,-73.9853024482727,casual
CABC1D5220F786E6,classic_bike,2023-10-08 10:57:20,2023-10-08 11:33:54,McKibbin St & Manhattan Ave,4996.08,Plaza St West & Flatbush Ave,4010.13,40.70510918,-73.94407279,40.6750207,-73.97111473,casual
33A07910B04B1183,electric_bike,2023-10-20 06:46:56,2023-10-20 06:48:37,Front St & Jay St,4895.03,Jay St & York St,4895.09,40.702461,-73.986842,40.70140317257725,-73.98672670125961,member
C9D995FEA61CB93B,classic_bike,2023-10-20 21:18:30,2023-10-20 21:34:47,E 138 St & 5 Ave,7809.13,Grand Concourse & E 144 St,7845.06,40.81449,-73.936153,40.816576,-73.927987,member
A62EC634DAADBFF8,classic_bike,2023-10-28 19:56:46,2023-10-28 19:58:41,Perry St & Greenwich Ave,5955.12,Perry St & Greenwich Ave,5955.12,40.735918,-74.000939,40.735918,-74.000939,member
DEB0BD76C33FCF42,classic_bike,2023-10-11 10:46:14,2023-10-11 10:48:44,Lexington Ave & E 111 St,7567.06,E 115 St & Lexington Ave,7599.09,40.7954121,-73.9441232,40.797911,-73.9423,member
CE019E73361DEEDE,classic_bike,2023-10-05 08:18:09,2023-10-05 08:29:12,Greene St & Prince St,5602.06,W 15 St & 10 Ave,6115.09,40.72511734422387,-73.99930492043495,40.74275382865903,-74.00747358798981,member
68631526A8399937,classic_bike,2023-10-28 23:05:27,2023-10-28 23:27:35,Central Park W & W 91 St,7453.01,Broadway & E 19 St,6098.12,40.788459659,-73.966637135,40.73866091428551,-73.98987293243407,member
FC7BC7466C55649C,classic_bike,2023-10-28 17:12:17,2023-10-28 17:28:38,Brooklyn Bridge Park - Pier 2,4756.04,Hope St & Union Ave,5187.03,40.698665857,-73.997208834,40.71167351,-73.95141312,member
13C83B85DEF19C82,classic_bike,2023-10-06 17:29:15,2023-10-06 17:36:34,Perry St & Bleecker St,5922.07,E 11 St & 3 Ave,5788.16,40.73547399,-74.004157066,40.73127,-73.98849,casual
964E0D363F287CEC,classic_bike,2023-10-25 09:32:50,2023-10-25 09:40:55,Broadway & W 38 St,6560.15,E 45 St & 3 Ave,6464.08,40.753152013,-73.987061739,40.75255434,-73.97282625,member
B3BFF7E2057AD0FA,classic_bike,2023-10-15 14:21:57,2023-10-15 14:28:30,Broadway & Kent Ave,5134.09,N 6 St & Bedford Ave,5379.10,40.710792661,-73.968310833,40.71745169,-73.95850939,member
3C2178F1EAF3BB81,classic_bike,2023-10-25 20:38:41,2023-10-25 20:43:29,Fulton St & Clermont Ave,4386.05,DeKalb Ave & Vanderbilt Ave,4461.04,40.68415748,-73.96922273,40.68940747,-73.96885458,member
0B8FFA465D7AF836,classic_bike,2023-10-25 13:37:02,2023-10-25 13:41:34,Broadway & Ellwood St,8547.04,Seaman Ave & Beak St,8650.11,40.862058,-73.929719,40.867505,-73.926363,member
EDC56EDA3D84B050,electric_bike,2023-10-07 23:25:20,2023-10-07 23:32:47,E 81 St & 1 Ave,7121.13,E 106 St & 1 Ave,7456.03,40.77377781072322,-73.95197331905365,40.7892529,-73.93956237,member
23CC59577B44E68B,classic_bike,2023-10-28 14:21:31,2023-10-28 14:39:05,E 39 St & 2 Ave,6345.08,11 Ave & W 41 St,6726.01,40.74803319428767,-73.973827958107,40.76030096,-73.99884222,member
9C2387D415D81963,classic_bike,2023-10-13 19:44:44,2023-10-13 19:50:04,Frederick Douglass Blvd & W 115 St,7658.13,Central Park W & W 97 St,7538.18,40.803880692,-73.955787539,40.79249519495111,-73.96417066463071,member
4D72EC25023CCDEC,classic_bike,2023-10-06 17:12:39,2023-10-06 17:21:37,Harrison St & Hudson St,5400.05,W 10 St & Washington St,5847.06,40.718655944,-74.009234309,40.73342399437081,-74.00851495563984,casual
9B2837B1F9505417,classic_bike,2023-10-13 13:56:21,2023-10-13 14:07:29,8 Ave & W 49 St,6747.07,8 Ave & W 49 St,6747.07,40.761697888,-73.986484885,40.76171227910671,-73.98655101656914,casual
7F369DF61BD30529,classic_bike,2023-10-23 18:06:30,2023-10-23 18:23:11,W 22 St & 10 Ave,6306.06,Perry St & Bleecker St,5922.07,40.74691959,-74.00451887,40.73535398,-74.00483091,casual
F2B3AC458BB17B46,classic_bike,2023-10-21 18:05:42,2023-10-21 18:18:20,Pier 40 - Hudson River Park,5696.03,W 52 St & 11 Ave,6926.01,40.728097081,-74.011183739,40.76727216,-73.99392888,casual
FEA10EC5D9165800,classic_bike,2023-10-10 18:16:12,2023-10-10 18:22:21,W 64 St & Thelonious Monk Circle,7123.04,Amsterdam Ave & W 73 St,7260.09,40.77515953434235,-73.98918695747852,40.77966809007312,-73.98093044757842,member
9E5B96EE99E0B413,classic_bike,2023-10-21 15:42:24,2023-10-21 15:55:41,Hudson St & W 13 St,6115.06,W 18 St & 6 Ave,6064.08,40.74005708567285,-74.0052741765976,40.73971301,-73.99456405,casual
81B27F780F50F1A6,classic_bike,2023-10-30 19:50:27,2023-10-30 20:01:22,Kent St & McGuinness Blvd,5785.10,Leonard St & Maujer St,5148.03,40.73124,-73.95161,40.7103685423523,-73.94705951213837,casual
6D97F2EB5560B76E,classic_bike,2023-10-18 11:40:06,2023-10-18 12:48:10,E 53 St & Madison Ave,6659.03,,,40.759691358,-73.973695397,40.77,-73.95,member
B3F91DBCFC7E87FF,classic_bike,2023-10-11 21:40:41,2023-10-11 21:40:44,Scholes St & Manhattan Ave,5108.01,Scholes St & Manhattan Ave,5108.01,40.708687425,-73.944760084,40.70870368,-73.9448625,member
0B472EB54833678D,classic_bike,2023-10-08 16:36:24,2023-10-08 16:43:53,Halsey St & Broadway,4366.01,Hancock St & Wyckoff Ave,4735.16,40.68591249,-73.915762305,40.6972,-73.90674,member
22D05AB2BC96451D,classic_bike,2023-10-19 22:44:33,2023-10-19 22:52:13,50 St & Northern Blvd,6511.03,Steinway St & 28 Ave,6915.02,40.753441,-73.912402,40.7656251,-73.9136695,member
C31F90C930416F49,classic_bike,2023-10-28 20:44:55,2023-10-28 20:48:44,Madison Ave & E 120 St,7667.04,Mt Morris Park W & W 120 St,7685.14,40.803023934,-73.943094373,40.804038,-73.945925,member
F4407E33384D6AAF,classic_bike,2023-10-20 00:55:54,2023-10-20 01:20:47,12 Ave & 36 St,3056.05,Central Ave & Weirfield St,4591.04,40.64361155,-73.986427546,40.69055,-73.91181,member
63B54C38FCF9A5D2,classic_bike,2023-10-13 12:07:55,2023-10-13 12:16:22,Main St & Plymouth St,4936.21,Main St & Plymouth St,4936.21,40.70378167354831,-73.99073392152786,40.70378167354831,-73.99073392152786,casual
AAD845BDCB785A9A,classic_bike,2023-10-17 04:43:39,2023-10-17 04:50:12,Columbus Ave & W 103 St,7595.17,3 Ave & E 100 St,7414.17,40.797092676,-73.964219213,40.7877214,-73.94728331,member
45A3D2676DBA5F72,classic_bike,2023-10-27 14:47:18,2023-10-27 15:01:35,Bergen St & 4 Ave,4322.06,Front St & Jay St,4895.03,40.682648778,-73.980019927,40.702461,-73.986842,casual
8ACC2E06D9E048ED,classic_bike,2023-10-13 17:30:55,2023-10-13 18:13:46,Harrison St & Hudson St,5400.05,Columbus Ave & W 72 St,7175.05,40.71870987,-74.0090009,40.7770575,-73.97898475,member
05B5BCF1CEEA6A8A,classic_bike,2023-10-15 17:39:21,2023-10-15 18:09:23,Garfield Pl & 8 Ave,3978.13,Cortelyou Rd & Stratford Rd,2898.01,40.671265244,-73.975069642,40.63966,-73.96807,member
2F26919E617C0943,classic_bike,2023-10-17 16:35:26,2023-10-17 16:53:14,Vesey St & Church St,5216.06,Pierrepont St & Monroe Pl,4718.08,40.71221958009051,-74.01047229766846,40.69535693320225,-73.99344027042389,member
A3972864CE5D4DA8,classic_bike,2023-10-16 09:08:33,2023-10-16 09:19:32,E 72 St & Park Ave,6998.08,8 Ave & W 49 St,6747.07,40.771338105,-73.96406424,40.76171227910671,-73.98655101656914,member
92FBF3BED9BB07A3,classic_bike,2023-10-23 08:59:18,2023-10-23 09:01:43,E 132 St & Madison Ave,7748.02,Lexington Ave & E 127 St,7662.13,40.810224,-73.937195,40.805726,-73.936322,member
CF6FE2F16D0581AA,classic_bike,2023-10-28 15:54:41,2023-10-28 16:11:07,Rutgers St & Henry St,5230.02,Scholes St & Manhattan Ave,5108.01,40.713125467,-73.990154982,40.70870368,-73.9448625,member
B3638303A3083BF6,classic_bike,2023-10-04 11:55:53,2023-10-04 12:03:08,W 47 St & 6 Ave,6667.04,W 31 St & 7 Ave,6331.01,40.75819993,-73.98323297499999,40.749156,-73.9916,member
37A03416883A7097,classic_bike,2023-10-26 06:50:34,2023-10-26 06:55:20,Broadway & E 19 St,6098.12,W 27 St & 6 Ave,6215.07,40.73866091428551,-73.98987293243407,40.74526,-73.99062,member
6280E3A8DF24BAC1,classic_bike,2023-10-10 17:44:16,2023-10-10 18:20:13,E 51 St & 2 Ave,6575.03,Broadway & Roebling St,5125.07,40.755293,-73.967641,40.70924826276157,-73.96063148975372,member
ACD2A6736AD9C6ED,classic_bike,2023-10-05 11:25:14,2023-10-05 11:36:08,8 Ave & W 52 St,6816.07,W 90 St & Amsterdam Ave,7432.04,40.763671756,-73.985156775,40.79017948095081,-73.97288918495178,member
E6F6BB1D44D57203,classic_bike,2023-10-25 17:32:50,2023-10-25 18:03:20,W 56 St & 10 Ave,6955.01,E 17 St & Broadway,5980.07,40.768254,-73.988639,40.73704984,-73.99009296,member
CF753103D6B51164,classic_bike,2023-10-10 15:57:29,2023-10-10 16:08:09,Willoughby Ave & Wyckoff Ave,5010.02,Broadway & Hancock St,4441.06,40.705557585,-73.921667457,40.68663,-73.9168,casual
DD303F81141C36E0,classic_bike,2023-10-20 14:31:27,2023-10-20 14:36:13,E 33 St & 5 Ave,6322.01,Lexington Ave & E 24 St,6089.07,40.74765947,-73.98490707,40.74025878,-73.98409214,member
D659D7B493A835FF,classic_bike,2023-10-17 10:55:22,2023-10-17 10:56:57,Washington Square E,5755.09,University Pl & E 14 St,5905.14,40.730638266,-73.995718122,40.734814,-73.992085,member
F98BE7983CA34B8C,classic_bike,2023-10-25 18:18:26,2023-10-25 18:22:51,St Mary's St & Jackson Ave,7737.06,Prospect Ave & E 151 St,7830.03,40.808947206,-73.910943508,40.814232,-73.903927,member
FDB9B7611969B077,classic_bike,2023-10-22 14:08:48,2023-10-22 14:17:30,McKibbin St & Bogart St,5059.02,Driggs Ave & Lorimer St,5481.04,40.706233263,-73.933938503,40.72179134,-73.9504154,member
6877B93813DE7BD4,classic_bike,2023-10-18 15:17:54,2023-10-18 15:21:27,India St & Manhattan Ave,5826.02,Calyer St & West St,5676.04,40.732477784,-73.954857349,40.72693,-73.95863,member
1CED07FB71973D1E,classic_bike,2023-10-11 11:01:16,2023-10-11 11:05:45,Roebling St & N 4 St,5267.09,S 5 Pl & S 5 St,5125.03,40.71469,-73.95739,40.710451,-73.960876,casual
A66D0FE0994C5B10,classic_bike,2023-10-24 23:16:35,2023-10-24 23:26:47,Flatbush Ave & Lincoln Rd,3593.1,Rogers Ave & Lincoln Rd,3625.07,40.66131,-73.96091,40.66127,-73.95352,member
6B07800FB6B0B64E,classic_bike,2023-10-31 08:54:01,2023-10-31 08:56:58,N 7 St & Driggs Ave,5340.01,Bayard St & Leonard St,5442.05,40.716923714,-73.95628345,40.71915571696044,-73.94885390996933,member
93FF6FDB9B50DEFC,classic_bike,2023-10-27 17:53:35,2023-10-27 18:11:14,W 89 St & Columbus Ave,7432.09,E 65 St & 2 Ave,6860.12,40.78827107,-73.970402479,40.76471851944339,-73.96222069859505,member
11DDB2149263364C,classic_bike,2023-10-27 07:40:46,2023-10-27 07:44:23,Graham Ave & Grand St,5178.06,Hope St & Union Ave,5187.03,40.711863,-73.944024,40.71167351,-73.95141312,member
F2A54FFBC457E97B,electric_bike,2023-10-31 16:46:09,2023-10-31 16:59:39,W 15 St & 10 Ave,6115.09,E 14 St & Ave B,5736.09,40.74275382865903,-74.00747358798981,40.72938685,-73.97772429,member
C5F663B8A25DE1FB,classic_bike,2023-10-26 19:06:53,2023-10-26 19:24:23,Columbia St & Kane St,4422.05,Underhill Ave & Lincoln Pl,4042.08,40.687747717,-74.001558065,40.6740123,-73.9671457,member
91019D9E527C5BF3,classic_bike,2023-10-11 15:34:30,2023-10-11 15:40:00,8 Ave & W 16 St,6072.11,W 22 St & 10 Ave,6306.06,40.740935922,-74.001738667,40.74691959,-74.00451887,member
96D84142D1A23D95,classic_bike,2023-10-10 15:51:18,2023-10-10 15:55:49,34 Ave & 83 St,6518.08,77 St & 31 Ave,6718.02,40.753701329,-73.884360075,40.75886,-73.89081,member
56D5D5857BBE172A,classic_bike,2023-10-12 07:50:22,2023-10-12 08:00:45,5 Ave & E 103 St,7511.19,St Nicholas Ave & W 126 St,7756.10,40.7922553,-73.95249933,40.8114323,-73.9518776,member
05E8376F5CCDC3EF,classic_bike,2023-10-05 17:59:21,2023-10-05 18:07:02,Lawrence St & Willoughby St,4596.09,Warren St & Court St,4413.08,40.69236178,-73.98631746,40.686371,-73.99383324,member
B3B68062E5A9E568,classic_bike,2023-10-10 12:37:23,2023-10-10 12:44:00,Cooper Square & Astor Pl,5712.03,E 13 St & 2 Ave,5820.08,40.72951496224949,-73.99075269699097,40.73153937464073,-73.9853024482727,member
F988326D5F568F1F,classic_bike,2023-10-26 03:04:05,2023-10-26 03:07:54,Washington St & Laight St,5509.02,West St & Chambers St,5329.03,40.72231,-74.0106,40.71754834,-74.01322069,member
46BBDDFB0343A7DF,classic_bike,2023-10-04 14:52:34,2023-10-04 14:56:03,11 Ave & W 27 St,6425.04,8 Ave & W 31 St,6450.05,40.751107454,-74.005452514,40.7505853470215,-73.9946848154068,member
32CC240BD65B5E51,classic_bike,2023-10-17 12:48:42,2023-10-17 12:51:53,Lafayette St & Jersey St,5561.06,E 12 St & 3 Ave,5788.12,40.724965334,-73.996172905,40.73223272,-73.98889957,member
635F7748ED56785A,classic_bike,2023-10-04 06:23:51,2023-10-04 06:35:21,Patchen Ave & Bainbridge St,4261.03,Monroe St & Bedford Ave,4368.05,40.68143,-73.92565,40.6851443,-73.95380904,member
71C1FDA1316CF87D,classic_bike,2023-10-09 12:33:24,2023-10-09 12:55:14,W 52 St & 5 Ave,6700.01,W 34 St & Hudson Blvd E,6535.04,40.76015389,-73.97704494,40.75516719072139,-74.00059908628464,casual
105FF010303DD5A1,classic_bike,2023-10-12 16:44:12,2023-10-12 16:47:46,Duffield St & Willoughby St,4596.05,Hanson Pl & Ashland Pl,4395.07,40.692254543,-73.984328508,40.68506807308177,-73.97790759801863,member
B67E50C84882E5A2,classic_bike,2023-10-18 17:12:52,2023-10-18 17:21:27,Broadway & E 21 St,6098.10,Great Jones St,5636.11,40.73988840858996,-73.98958593606949,40.72743423,-73.99379025,member
0D0770099F404A13,classic_bike,2023-10-24 19:58:34,2023-10-24 20:01:29,Eastern Pkwy & Brooklyn Ave,3871.02,Empire Blvd & New York Ave,3728.04,40.669376016,-73.945378184,40.66403,-73.94769,member
01E85E6E5ABECBB6,classic_bike,2023-10-28 17:26:36,2023-10-28 17:31:23,Amsterdam Ave & W 60 St,7023.09,W 56 St & 8 Ave,6884.03,40.77114812219016,-73.98699113854883,40.765959181657976,-73.98313522338867,member
93E1A7AFDC4645ED,classic_bike,2023-10-13 17:28:47,2023-10-13 17:41:48,John St & William St,5065.04,W Broadway & W Houston St,5644.05,40.70848453,-74.006860137,40.726378,-74.000472,casual
E8FE48FEAF50A446,classic_bike,2023-10-09 19:20:22,2023-10-09 19:30:51,W 34 St & Hudson Blvd E,6535.04,Amsterdam Ave & W 66 St,7149.05,40.75516719072139,-74.00059908628464,40.7746671,-73.98470567,member
1C592AB364535EEE,classic_bike,2023-10-09 16:32:58,2023-10-09 16:39:02,W 148 St & Amsterdam Ave,8033.09,St Nicholas Ave & W 126 St,7756.10,40.827043653,-73.945730925,40.8114323,-73.9518776,member
A5B877EEE8B916E5,classic_bike,2023-10-23 16:24:38,2023-10-23 16:28:07,Hunts Point Ave & Bryant Ave,7820.05,Seneca Ave & Irvine St,7883.09,40.813991,-73.8855,40.81872569990116,-73.88862490653992,member
ADD5282277923E60,classic_bike,2023-10-17 18:48:18,2023-10-17 19:00:49,W 21 St & 6 Ave,6140.05,E 2 St & Ave A,5553.10,40.741814017,-73.994045019,40.72307749068673,-73.98583620786667,casual
F9377FABB0032A4A,classic_bike,2023-10-17 16:12:17,2023-10-17 16:20:16,77 St & 31 Ave,6718.02,43 St & Broadway,6670.03,40.758931518,-73.890719414,40.7577284,-73.9166368,casual
5726FDD4F8262D7B,classic_bike,2023-10-30 15:53:52,2023-10-30 16:04:28,E 12 St & Ave C,5616.08,W 37 St & 5 Ave,6398.06,40.727355242,-73.977167368,40.75038009,-73.98338988,member
18CF3845F672777D,classic_bike,2023-10-03 07:57:37,2023-10-03 08:21:08,E 72 St & York Ave,6889.12,E 72 St & York Ave,6889.12,40.76663814,-73.95348296,40.76663814,-73.95348296,member
AA20CF687DD4A5FC,classic_bike,2023-10-12 20:20:53,2023-10-12 20:29:05,St Nicholas Ave & W 126 St,7756.10,W 148 St & Amsterdam Ave,8033.09,40.8114323,-73.9518776,40.827075,-73.945909,member
1BECFF637895C14B,classic_bike,2023-10-27 15:49:41,2023-10-27 16:06:58,Broadway & Roebling St,5125.07,Bedford Ave & Nassau Ave,5550.05,40.70924826276157,-73.96063148975372,40.72311651,-73.95212324,member
12EAEA0195661914,classic_bike,2023-10-20 07:15:47,2023-10-20 07:17:29,W 42 St & 8 Ave,6602.05,W 42 St & Dyer Ave,6644.07,40.7575699,-73.99098507,40.75898481399634,-73.99379968643188,member
CC22AF0B0CC86C73,classic_bike,2023-10-13 19:48:36,2023-10-13 20:19:32,Franklin Ave & St Marks Ave,4107.05,N 6 St & Bedford Ave,5379.10,40.6758324,-73.9561677,40.71745169,-73.95850939,member
