ride_id,rideable_type,started_at,ended_at,start_station_name,start_station_id,end_station_name,end_station_id,start_lat,start_lng,end_lat,end_lng,member_casual
E8239A312C3932E6,classic_bike,2023-05-17 23:40:14,2023-05-17 23:43:54,E 30 St & Park Ave S,6206.08,E 40 St & Park Ave,6432.11,40.74444921,-73.98303529,40.750756,-73.978326,member
CBE83DF76E88ED1E,classic_bike,2023-05-05 17:37:48,2023-05-05 17:43:16,W 56 St & 8 Ave,6884.03,6 Ave & W 45 St,6593.15,40.766321301,-73.982963443,40.756951,-73.982631,member
EA263D8063F2FED8,electric_bike,2023-05-25 08:24:52,2023-05-25 08:42:13,Boerum St & Broadway,5004.02,Lefferts Pl & Franklin Ave,4222.02,40.70538077,-73.94976519,40.680342423,-73.9557689392,casual
FC17AC18AD6F8671,classic_bike,2023-05-15 06:35:15,2023-05-15 06:55:59,W 100 St & Broadway,7580.01,E 72 St & Park Ave,6998.08,40.7973721,-73.97041192,40.77118287540658,-73.96409422159195,member
3767F022EF3E176B,classic_bike,2023-05-23 16:44:53,2023-05-23 16:54:06,1 St & 6 Ave,3946.07,Prospect Ave & Greenwood Ave,3312.07,40.672836661,-73.979656458,40.651745,-73.975988,member
8A67D8201872650D,classic_bike,2023-05-19 08:21:30,2023-05-19 08:55:13,Norfolk St & Broome St,5374.01,Ash St & Manhattan Ave,6019.04,40.7172274,-73.98802084,40.74,-73.95,member
3DA357781E1C215B,classic_bike,2023-05-10 09:21:13,2023-05-10 09:24:07,Woodward Ave & Harman St,5074.08,Flushing Ave & Woodward Ave,5225.02,40.707943082,-73.911040068,40.71246,-73.91873,member
B54ABC3A8732E746,classic_bike,2023-05-13 14:53:35,2023-05-13 15:05:37,Cleveland Pl & Spring St,5492.05,Christopher St & Greenwich St,5847.01,40.722103786686034,-73.99724900722504,40.73291553,-74.00711384,member
D5300450CFC741DA,electric_bike,2023-05-16 07:08:16,2023-05-16 07:14:43,Riverside Blvd & W 67 St,7183.03,Broadway & W 51 St,6779.04,40.777507027547976,-73.98888587951659,40.76228826,-73.98336183,member
49547668A8AEAED9,classic_bike,2023-05-03 16:31:19,2023-05-03 16:33:11,2 Ave & E 96 St,7338.02,E 93 St & 2 Ave,7286.02,40.7839636,-73.9471673,40.782454175279874,-73.9489196240902,member
9917887BB4BE8CDC,classic_bike,2023-05-10 08:17:05,2023-05-10 08:34:24,Reade St & Broadway,5247.1,Reade St & Broadway,5247.1,40.714731455,-74.005562186,40.71450451,-74.00562789,member
336A232C14D95DCC,classic_bike,2023-05-03 11:13:02,2023-05-03 11:27:18,Canal St & Rutgers St,5303.08,John St & William St,5065.04,40.71427487,-73.98990025,40.70862144,-74.00722156,member
B8B06F584174F027,classic_bike,2023-05-25 12:54:58,2023-05-25 13:13:36,Steinway St & 28 Ave,6915.02,E 58 St & 1 Ave (NE Corner),6682.03,40.765660405,-73.913663268,40.75892386377695,-73.96226227283478,member
CE55B354ABA64EE4,classic_bike,2023-05-17 16:44:22,2023-05-17 17:08:25,Cliff St & Fulton St,5065.14,West St & Chambers St,5329.03,40.70838,-74.00495,40.71754834,-74.01322069,member
623947A29825370A,electric_bike,2023-05-22 15:15:12,2023-05-22 15:24:15,E 72 St & York Ave,6889.12,Central Park West & W 68 St,7079.06,40.76663814,-73.95348296,40.7734066,-73.97782542,member
F362DEBFCD95A157,classic_bike,2023-05-01 20:28:58,2023-05-01 20:35:59,Washington Pl & 6 Ave,5838.09,E 4 St & Ave B,5515.08,40.732215405,-74.000276089,40.72334683218016,-73.98265913128853,member
B560DB93A507EC61,classic_bike,2023-05-16 12:55:49,2023-05-16 13:00:13,Kosciuszko St & Tompkins Ave,4553.04,Marcy Ave & Lafayette Ave,4476.03,40.69128258,-73.9452416,40.6900815,-73.947915,member
C8C215E9AACC9826,classic_bike,2023-05-23 16:45:32,2023-05-23 16:52:04,E 149 St & Jackson Ave,7812.01,Beck St & Leggett Ave,7807.04,40.813135,-73.909235,40.815077,-73.899939,member
4A5A8710896A6D43,classic_bike,2023-05-01 22:12:23,2023-05-01 22:14:52,W 113 St & Broadway,7713.01,W 120 St & Claremont Ave,7745.07,40.805973,-73.964928,40.8109494,-73.9634,member
A8FDC28557273054,classic_bike,2023-05-19 19:21:28,2023-05-19 19:25:57,E 75 St & 3 Ave,6991.12,1 Ave & E 68 St,6822.09,40.77112927,-73.95772297,40.76500525,-73.95818491,member
DCB68877C1C4480C,electric_bike,2023-05-02 14:32:41,2023-05-02 15:05:07,St. Nicholas Terrace & Convent Ave,7937.15,Lenox Ave & W 144 St,7910.01,40.821294,-73.947868,40.819783,-73.936521,member
C54E52C9E0942CA5,classic_bike,2023-05-15 07:05:56,2023-05-15 07:09:39,St Felix Ave & 61 St,4719.04,Norman St & Wyckoff Ave,4654.01,40.69715,-73.8936,40.69517,-73.90311,casual
2C1BAAD71D44FE85,classic_bike,2023-05-18 14:31:34,2023-05-18 14:36:09,Amsterdam Ave & W 73 St,7260.09,Central Park West & W 72 St,7141.07,40.77966809007312,-73.98093044757842,40.77579376683666,-73.9762057363987,member
70E7A0A973502BB7,classic_bike,2023-05-15 11:30:58,2023-05-15 11:33:29,Boston Rd & E 167 St,8048.04,Washington Ave & E 167 St,8068.01,40.828323245,-73.903577447,40.829896,-73.907618,member
3EFDEE4B33636E6C,classic_bike,2023-05-22 20:31:42,2023-05-22 20:38:54,Central Park S & 6 Ave,6876.04,Central Park West & W 76 St,7253.04,40.76590936,-73.97634151,40.77896784,-73.97374737,member
A2B2347B03582264,classic_bike,2023-05-11 15:51:46,2023-05-11 15:58:10,W 13 St & 5 Ave,5947.04,W 20 St & 10 Ave,6306.01,40.735195041,-73.994715691,40.745686,-74.005141,member
B0F4B265F8439FC3,classic_bike,2023-05-23 20:45:12,2023-05-23 21:00:55,E 116 St & 2 Ave,7563.06,Lenox Ave & W 115 St,7627.10,40.796857119,-73.937204361,40.8011939,-73.9500739,member
86F32F58F175031C,classic_bike,2023-05-07 18:23:56,2023-05-07 18:30:24,W 33 St & 10 Ave,6492.04,9 Ave & W 45 St,6717.06,40.753615022,-73.999089956,40.76019252,-73.9912551,member
D2D21821F650512F,classic_bike,2023-05-19 20:51:43,2023-05-19 21:09:21,Cliff St & Fulton St,5065.14,Bridge St & Water St,4968.03,40.70838,-74.00495,40.70296934155272,-73.98469090461731,member
431B468B1AC9E88D,classic_bike,2023-05-30 06:46:29,2023-05-30 06:51:02,Prospect Pl & Underhill Ave,4116.08,Union St & Bedford Ave,3879.04,40.676943064,-73.965726018,40.6691783,-73.9554162,member
58BEBD10C29237FF,electric_bike,2023-05-31 19:34:10,2023-05-31 20:02:43,Loring Pl North & W 183 St,8555.05,Jerome Ave & W 184 St,8550.01,40.8604244,-73.9093359997,40.860814,-73.902541,member
C36CA9BB2C9C2FB3,classic_bike,2023-05-11 20:17:31,2023-05-11 20:19:13,LaGuardia Pl & W 3 St,5721.14,University Pl & E 8 St,5755.14,40.72917025,-73.99810231,40.73143724085228,-73.99490341544151,member
254E576831EC5992,classic_bike,2023-05-10 08:48:44,2023-05-10 09:08:20,Hudson St & W 13 St,6115.06,John St & William St,5065.04,40.74005708567285,-74.0052741765976,40.70862144,-74.00722156,member
31DCB60BFFC0B8A3,classic_bike,2023-05-20 21:37:41,2023-05-20 22:04:46,West End Ave & W 60 St,7059.08,Pleasant Ave & E 116 St,7450.05,40.772388339,-73.989723921,40.7949879,-73.9333349,member
002A51124D5287D4,classic_bike,2023-05-23 20:51:40,2023-05-23 21:08:57,W 36 St & 9 Ave,6569.07,E 22 St & 2 Ave,5971.09,40.75462324029105,-73.99516761302948,40.73716919369882,-73.98122549057007,member
ACEEE0A3B9069E2C,classic_bike,2023-05-13 18:46:31,2023-05-13 18:59:18,Willoughby Ave & Onderdonk Ave,5115.05,Melrose St & Broadway,4801.04,40.7098,-73.91727,40.697481,-73.935877,member
953ABE869286C9DB,classic_bike,2023-05-05 14:48:49,2023-05-05 15:15:13,6 Ave & Canal St,5500.07,South St & Gouverneur Ln,4953.04,40.722459197,-74.005669594,40.70355377,-74.00670227,member
598F1F563E98078C,classic_bike,2023-05-02 18:24:06,2023-05-02 18:26:40,Morris Ave & E 142 St,7821.01,Grand Concourse & E 144 St,7845.06,40.814345956,-73.925054073,40.816576,-73.927987,member
EB012572D04A96DD,classic_bike,2023-05-10 16:18:16,2023-05-10 16:23:13,E 5 St & Cooper Sq,5712.12,E 7 St & Ave B,5584.05,40.72769,-73.990993,40.7251285241158,-73.98131668567657,member
56C7ADCA6FA9DF18,classic_bike,2023-05-14 14:01:34,2023-05-14 14:23:27,E 11 St & 3 Ave,5788.16,Scholes St & Lorimer St,5076.04,40.731035471,-73.987936378,40.71,-73.95,member
D42476DFF922BD8D,classic_bike,2023-05-20 10:09:30,2023-05-20 10:13:53,Louis Nine Blvd & Intervale Ave,8114.02,Louis Nine Blvd & Intervale Ave,8114.02,40.832036734,-73.892676592,40.831998,-73.892686,member
B1DD64630C19E0A8,electric_bike,2023-05-26 15:36:21,2023-05-26 16:22:03,W 25 St & 9 Ave,6339.06,5 Ave & E 87 St,7323.09,40.74783260583772,-74.0005722643582,40.78232260730881,-73.95987510681152,casual
C91CBE2165A3A556,classic_bike,2023-05-28 18:26:21,2023-05-28 18:31:34,E 55 St & 2 Ave,6650.07,5 Ave & E 63 St,6904.06,40.75797322,-73.96603308,40.766368,-73.971518,member
3F73430151ABB1A9,electric_bike,2023-05-16 13:10:10,2023-05-16 13:12:50,E 51 St & Lexington Ave,6659.01,E 44 St & Lexington Ave,6464.09,40.75714758,-73.97207836,40.752643,-73.974996,member
BF0C978B6D55983C,classic_bike,2023-05-15 17:55:14,2023-05-15 18:03:15,E 12 St & Ave C,5616.08,Gramercy Park N & Gramercy Park E,6013.12,40.727243,-73.976831,40.73795,-73.98509,member
9A0ADE3C267E2CDD,classic_bike,2023-05-09 11:06:30,2023-05-09 11:13:02,Leonard St & Church St,5359.11,Christopher St & Greenwich St,5847.01,40.71749723,-74.005133271,40.73291553,-74.00711384,member
4725DAE191AF6D40,classic_bike,2023-05-10 10:01:12,2023-05-10 11:00:05,Broadway & E 14 St,5905.12,Broadway & E 14 St,5905.12,40.734661698,-73.990882754,40.73454567,-73.99074142,member
E8AA642161F60D8D,classic_bike,2023-05-06 20:00:33,2023-05-06 20:06:52,Broadway & W 48 St,6708.04,W 50 St & 10 Ave,6890.06,40.76017739537783,-73.98486793041229,40.76473420006519,-73.99194359779358,member
942C06C3705FD98A,classic_bike,2023-05-06 14:13:26,2023-05-06 14:57:25,Wythe Ave & N 13 St,5558.04,Carroll St & Washington Ave,3887.03,40.72,-73.96,40.6686744,-73.9618148,member
98A0543EE73B5776,classic_bike,2023-05-31 17:52:45,2023-05-31 18:08:22,Front St & Jay St,4895.03,Broadway & Berry St,5164.05,40.702461,-73.986842,40.71036129922581,-73.96530389785767,member
79703D92BBB13CA0,classic_bike,2023-05-11 13:40:22,2023-05-11 13:41:59,Washington St & Laight St,5509.02,Washington St & Laight St,5509.02,40.72231,-74.0106,40.72231,-74.0106,member
F2E8CCCDAC1C7DFF,classic_bike,2023-05-04 19:19:49,2023-05-04 19:24:04,Canal St & Rutgers St,5303.08,Allen St & Stanton St,5484.09,40.71427487,-73.98990025,40.722055,-73.989111,member
11ABC576EF5CB8E0,classic_bike,2023-05-20 00:16:13,2023-05-20 00:37:29,Broadway & W 53 St,6779.05,Queens Plaza North & Crescent St,6429.01,40.76344058,-73.98268129,40.75110165,-73.94073717,member
CD3FDAB2387A0266,classic_bike,2023-05-16 08:12:22,2023-05-16 08:16:01,Lexington Ave & E 26 St,6089.08,E 25 St & 1 Ave,6004.07,40.741459,-73.983293,40.7381765,-73.97738662,member
271007A3729B104B,classic_bike,2023-05-12 14:20:12,2023-05-12 14:22:31,E 44 St & Lexington Ave,6464.09,E 44 St & Lexington Ave,6464.09,40.752643,-73.974996,40.752643,-73.974996,casual
4F5E14596A78426E,classic_bike,2023-05-14 21:08:18,2023-05-14 21:16:41,6 Ave & W 33 St,6364.07,Broadway & W 61 St,7014.12,40.748458624,-73.988190174,40.77003010255044,-73.9819684624672,casual
5B0F1DDECB3DB2AA,classic_bike,2023-05-23 07:52:53,2023-05-23 07:59:31,Atlantic Ave & Furman St,4614.04,President St & Henry St,4307.13,40.69165183,-73.9999786,40.6828003,-73.99990419,member
F3E8526C84AB146F,electric_bike,2023-05-19 14:20:51,2023-05-19 14:42:21,Broadway & W 56 St,6847.02,Morton St & Washington St,5772.05,40.7652654,-73.98192338,40.73115,-74.00887,member
AA1A7A0A95D4391F,classic_bike,2023-05-24 13:41:29,2023-05-24 19:41:48,Central Park West & W 76 St,7253.04,5 Ave & E 87 St,7323.09,40.77896784,-73.97374737,40.78232260730881,-73.95987510681152,casual
5EED210426360714,electric_bike,2023-05-21 19:03:26,2023-05-21 19:08:59,Lexington Ave & E 120 St,7652.04,Pleasant Ave & E 120 St,7579.01,40.8013066,-73.9398167,40.7974772,-73.9311847,casual
53D89D0E0FDE7D15,classic_bike,2023-05-28 21:12:54,2023-05-28 21:27:13,Carroll St & 5 Ave,4060.09,3 St & 7 Ave,3905.15,40.6751622,-73.9814832,40.6703837,-73.97839676,casual
1766B776C9645DC2,electric_bike,2023-05-17 20:39:58,2023-05-17 20:49:51,Christopher St & Greenwich St,5847.01,Vesey Pl & River Terrace,5297.02,40.73291553,-74.00711384,40.7153379,-74.01658354,casual
A931E48574E6D91E,classic_bike,2023-05-03 10:06:16,2023-05-03 10:16:11,Ave D & E 8 St,5506.1,Reade St & Broadway,5247.1,40.723719001,-73.975811958,40.71450451,-74.00562789,member
2F7DBED39286308E,classic_bike,2023-05-17 10:08:29,2023-05-17 10:09:51,Broadway & W 41 St,6560.01,W 42 St & 6 Ave,6517.08,40.75513557,-73.98658032,40.75492,-73.98455,member
C0D78E337F49CBDD,classic_bike,2023-05-01 16:26:13,2023-05-01 16:32:14,E 117 St & 1 Ave,7579.11,Lenox Ave & W 117 St,7655.22,40.796584368,-73.934531093,40.8025566,-73.9490782,casual
B0A16FB2E05D94F2,classic_bike,2023-05-03 14:30:02,2023-05-03 14:42:40,Grand St & Elizabeth St,5382.06,E 5 St & Cooper Sq,5712.12,40.718822,-73.99596,40.72769,-73.990993,member
AAE9CF7A5311AB72,classic_bike,2023-05-17 16:01:54,2023-05-17 16:06:44,Willis Ave & E 141 St,7759.08,E 156 & Brook Ave,7896.11,40.810857058,-73.921710968,40.819823,-73.912411,member
CA12BBBAEE13BD41,electric_bike,2023-05-16 20:07:30,2023-05-16 20:17:35,Morris Ave & McClellan St,8107.1,Grand Concourse & E 167 St,8126.07,40.831584,-73.9149,40.834263,-73.917641,member
3FA445222D88200C,classic_bike,2023-05-21 17:07:09,2023-05-21 17:15:24,8 Ave & W 38 St,6526.05,9 Ave & W 22 St,6266.06,40.75461,-73.99177,40.7454973,-74.00197139,member
DC86196518B8E61E,classic_bike,2023-05-06 13:43:10,2023-05-06 13:57:44,E 74 St & 1 Ave,6953.08,East End Ave & E 86 St,7113.08,40.7689738,-73.95482273,40.77518615,-73.94446054,member
863C2B07277D912A,classic_bike,2023-05-05 17:07:58,2023-05-05 21:55:17,Stagg St & Union Ave,5117.05,Grand St & Havemeyer St,5267.08,40.70877084,-73.95095259,40.71286844,-73.95698119,member
3EF4CC6F2D2F644D,classic_bike,2023-05-03 10:41:24,2023-05-03 10:55:34,W 59 St & 10 Ave,7023.04,W 26 St & 10 Ave,6382.05,40.770560145,-73.987952828,40.749717753,-74.002950346,member
9194E35921EB40C5,classic_bike,2023-05-24 20:14:01,2023-05-24 20:17:15,Broadway & W 51 St,6779.04,W 53 St & 10 Ave,6890.01,40.762141228,-73.983317733,40.76669671,-73.99061728,member
825858E08354510A,electric_bike,2023-05-02 18:54:53,2023-05-02 19:05:11,E 78 St & 2 Ave,7057.07,Central Park West & W 68 St,7079.06,40.7727966,-73.95577801,40.7734066,-73.97782542,casual
BCDD1A968AC36940,electric_bike,2023-05-06 19:33:44,2023-05-06 19:50:11,Perry St & Bleecker St,5922.07,Broadway & W 61 St,7014.12,40.73535398,-74.00483091,40.77003010255044,-73.9819684624672,casual
6EB71117290AEC1A,classic_bike,2023-05-12 16:44:16,2023-05-12 16:56:06,E 25 St & 2 Ave,6046.02,Sullivan St & Washington Sq,5721.01,40.73912601,-73.97973776,40.73047747,-73.99906065,member
5BDD363781C15A15,classic_bike,2023-05-16 21:16:53,2023-05-16 21:34:29,E 35 St & Madison Ave,6398.08,Sullivan St & Washington Sq,5721.01,40.74848023448579,-73.98255586624146,40.73047747,-73.99906065,casual
EC75A3A5581C40C7,electric_bike,2023-05-15 19:18:31,2023-05-15 19:36:02,E 81 St & York Ave,7084.12,E 26 St & 3 Ave,6089.11,40.7728384,-73.94989233,40.74069317733043,-73.98160636425018,member
AE6E57A9E1D2C1D8,electric_bike,2023-05-23 17:26:55,2023-05-23 17:37:30,West St & Chambers St,5329.03,Old Slip & South St,4993.13,40.71754834,-74.01322069,40.70336686695866,-74.007867872715,member
C8948C18D9ED6C5B,classic_bike,2023-05-15 06:23:00,2023-05-15 06:27:11,Prospect Park SW & Greenwood Ave,3385.06,Prospect Park SW & 10 Ave,3611.02,40.652563,-73.972573,40.659945,-73.977504,member
97EF358DFF31B892,classic_bike,2023-05-13 10:03:10,2023-05-13 10:10:25,Lafayette St & E 8 St,5788.13,Christopher St & Greenwich St,5847.01,40.73020660529954,-73.99102628231049,40.73291553,-74.00711384,casual
681F5841170DE9E4,classic_bike,2023-05-19 13:51:08,2023-05-19 13:54:11,W 17 St & 8 Ave,6148.02,W 15 St & 7 Ave,6030.06,40.741834521,-74.00143075,40.73935542,-73.99931783,member
ADC161C266C37BF5,classic_bike,2023-05-19 00:46:16,2023-05-19 00:50:24,Steinway St & Ditmars Blvd,7074.01,24 Ave & 26 St,7152.1,40.77268362,-73.906153083,40.774591,-73.918544,member
EEA2CDAB70D3941F,classic_bike,2023-05-29 13:48:01,2023-05-29 14:09:04,23 Rd & 31 St,7082.14,Shore Blvd & Astoria Park,7271.01,40.77336750284339,-73.91382560133934,40.77977,-73.923162,casual
72E89FB494E3BF85,classic_bike,2023-05-21 12:37:17,2023-05-21 12:40:39,W 47 St & 10 Ave,6824.07,W 56 St & 10 Ave,6955.01,40.76269882,-73.99301222,40.768254,-73.988639,member
D3A27911A656334A,classic_bike,2023-05-19 18:19:46,2023-05-19 18:34:05,Broadway & W 61 St,7014.12,Columbus Ave & W 95 St,7520.07,40.770200014,-73.981659055,40.7919557,-73.968087,member
373E59FF078E72BC,electric_bike,2023-05-10 08:40:10,2023-05-10 08:49:00,Barrow St & Hudson St,5805.05,Mott St & Prince St,5561.04,40.73172428,-74.00674436,40.72317958,-73.99480012,member
C3484BBFEF2CB4A4,classic_bike,2023-05-23 09:06:08,2023-05-23 09:08:47,River Ave & E 151 St,7967.04,River Ave & E 153 St,8005.08,40.82210815,-73.929000139,40.82441,-73.92818,member
D4E2060D446B1EEA,electric_bike,2023-05-22 17:58:17,2023-05-22 18:51:47,Clermont Ave & Lafayette Ave,4461.01,Stanhope St & Fairview Ave,5146.03,40.68764484,-73.96968902,40.70998,-73.91116,casual
94407CD592237E03,classic_bike,2023-05-08 10:47:13,2023-05-08 10:54:01,Morton St & Washington St,5772.05,Church St & Worth St,5359.13,40.73115,-74.00887,40.71688538495366,-74.00650128722191,member
1268ACE7C941AAD2,electric_bike,2023-05-12 20:17:37,2023-05-12 20:36:45,Pioneer St & Van Brunt St,4169.04,Clinton St & Joralemon St,4605.04,40.679043,-74.011169,40.69239502,-73.99337909,member
57391CEC9E75573C,classic_bike,2023-05-15 19:07:44,2023-05-15 19:13:16,Monroe St & Bedford Ave,4368.05,Sterling Pl & Bedford Ave,3993.03,40.685129046,-73.953714013,40.672695,-73.954131,member
C3CFDCFC1BA306A8,classic_bike,2023-05-01 06:33:48,2023-05-01 06:39:21,St Marks Pl & 1 Ave,5626.13,E 27 St & 1 Ave,6004.06,40.727670074,-73.985779047,40.739445,-73.976806,member
C04937B09AB6C844,classic_bike,2023-05-16 18:48:30,2023-05-16 18:55:42,Henry St & Middagh St,4861.05,Fulton St & Adams St,4637.06,40.7003,-73.991581,40.69241829257847,-73.98949474096298,member
2D10C7434E00634E,classic_bike,2023-05-27 10:32:45,2023-05-27 10:35:57,11 Ave & W 59 St,7059.01,W 64 St & Thelonious Monk Circle,7123.04,40.77149671054441,-73.99046033620834,40.77515953434235,-73.98918695747852,member
886415C7C5E55876,classic_bike,2023-05-13 14:40:49,2023-05-13 15:04:04,Water St &  Fletcher St,5024.1,Washington St & Barrow St,5847.08,40.706410755236135,-74.00559738278389,40.73191132323174,-74.008769094944,casual
7AE76E1F5971B4A2,classic_bike,2023-05-23 16:39:12,2023-05-23 16:48:33,Orchard St & Grand St,5343.11,Great Jones St,5636.11,40.717318403855785,-73.99067759513855,40.72743423,-73.99379025,member
27C8433B34737CA3,classic_bike,2023-05-23 18:33:08,2023-05-23 18:47:51,Mercer St & Bleecker St,5679.05,8 Ave & W 38 St,6526.05,40.72706363348306,-73.99662137031554,40.75461,-73.99177,member
95631CA756BDA7CD,classic_bike,2023-05-04 09:37:22,2023-05-04 09:45:12,1 Ave & E 68 St,6822.09,E 43 St & 2 Ave,6422.08,40.764873028,-73.958186269,40.75022392,-73.97121414,member
EA90BECE6162BAB7,electric_bike,2023-05-07 12:51:33,2023-05-07 13:22:39,Pulaski St & Marcus Garvey Blvd,4656.03,Broadway & E 14 St,5905.12,40.6933982,-73.939877,40.73454567,-73.99074142,casual
9EF6710A064E42A3,classic_bike,2023-05-02 18:28:17,2023-05-02 18:33:36,W 47 St & 9 Ave,6786.02,6 Ave & W 45 St,6593.15,40.76153045158114,-73.99007007479668,40.756951,-73.982631,member
91AC39F81B1C1AC0,classic_bike,2023-05-11 18:25:51,2023-05-11 18:33:51,5 St & Market St,4843.01,Myrtle Ave & Fleet Pl,4628.07,40.6999974843885,-73.97440128028393,40.693534,-73.981909,member
100DADC811FE3621,classic_bike,2023-05-20 23:23:26,2023-05-20 23:32:55,Lexington Ave & E 24 St,6089.07,E 7 St & Ave B,5584.05,40.74025878,-73.98409214,40.7251285241158,-73.98131668567657,member
178DCB0F6FDCD892,electric_bike,2023-05-17 17:21:33,2023-05-17 17:40:36,East End Ave & E 86 St,7113.08,E 93 St & 2 Ave,7286.02,40.77518615,-73.94446054,40.782454175279874,-73.9489196240902,member
C0EB18806CCC1782,classic_bike,2023-05-13 09:16:29,2023-05-13 09:21:59,27 Ave & 9 St,7098.05,34th Ave & Vernon Blvd,6873.01,40.7739825,-73.9309134,40.76535380385866,-73.93986314535141,member
B942BB5C2881B6B7,classic_bike,2023-05-04 22:44:38,2023-05-04 22:48:44,E 84 St & Park Ave,7243.04,2 Ave & E 72 St,6925.09,40.77862688,-73.95772073,40.7687620293096,-73.95840793848038,member
82FC5C71999940CB,electric_bike,2023-05-11 08:12:57,2023-05-11 08:18:08,Nelson Ave & W 172 St,8290.01,Goble Pl & Macombs Rd,8269.01,40.843965,-73.920999,40.844075,-73.917256,member
71D1E42E7E11B375,classic_bike,2023-05-06 20:44:41,2023-05-06 20:50:22,Pacific St & Nostrand Ave,4140.03,Franklin Ave & St Marks Ave,4107.05,40.6776,-73.94963,40.6758324,-73.9561677,member
BD6F2D9DF66549E4,classic_bike,2023-05-18 10:47:09,2023-05-18 10:51:49,Prospect Park SW & Vanderbilt St,3457.03,Prospect Park SW & 10 Ave,3611.02,40.65482,-73.973217,40.659945,-73.977504,member
B085CB6B1C42C3D9,classic_bike,2023-05-27 17:42:11,2023-05-27 18:51:21,Wyckoff Av & Stanhope St,4931.05,Cypress Hills St & Otto Rd,4904.03,40.703522801,-73.917943835,40.70204,-73.89288,member
D0B57B7CA62B01DC,electric_bike,2023-05-13 10:05:21,2023-05-13 10:14:18,Center Blvd & 48 Ave,6254.06,Jackson Ave & 46 Rd,6203.02,40.745038,-73.957539,40.74524768,-73.94733276,member
F25227677AE1E276,classic_bike,2023-05-05 16:31:54,2023-05-05 16:41:57,Lexington Ave & E 29 St,6164.09,Madison Ave & E 26 St,6131.12,40.74311555376486,-73.98215353488922,40.742684734875695,-73.98671329021454,member
1A8F07BD52B15AE2,classic_bike,2023-05-17 17:23:03,2023-05-17 17:28:51,E 7 St & Ave B,5584.05,Cooper Square & Astor Pl,5712.03,40.7251285241158,-73.98131668567657,40.72951496224949,-73.99075269699097,member
B38B562FAB724ACE,classic_bike,2023-05-27 16:15:25,2023-05-27 16:19:49,E 17 St & Broadway,5980.07,W 18 St & 6 Ave,6064.08,40.73704984,-73.99009296,40.73971301,-73.99456405,member
A6DF26B4BDF7CE73,classic_bike,2023-05-28 10:57:14,2023-05-28 11:02:29,Scholes St & Manhattan Ave,5108.01,Grand St & Havemeyer St,5267.08,40.708697438,-73.944940805,40.71286844,-73.95698119,member
4A891E3FAFD4A25D,electric_bike,2023-05-30 18:35:42,2023-05-30 18:43:43,E 39 St & Lexington Ave,6389.09,W 41 St & 8 Ave,6602.03,40.7494985460252,-73.97729203113158,40.75640548,-73.9900262,member
B167DB9C8716170A,classic_bike,2023-05-10 19:55:44,2023-05-10 20:10:35,West St & Chambers St,5329.03,Greenwich Ave & Charles St,5914.08,40.71754834,-74.01322069,40.735238,-74.000271,member
143ED5A88F3C7769,classic_bike,2023-05-10 21:54:02,2023-05-10 22:00:19,8 Ave & W 52 St,6816.07,W 43 St & 10 Ave,6756.01,40.76370739,-73.9851615,40.76009437,-73.99461843,member
2E30FA1AD40CC4C4,classic_bike,2023-05-08 08:24:06,2023-05-08 08:35:01,E 33 St & 1 Ave,6197.08,Cooper Square & Astor Pl,5712.03,40.74322681432173,-73.97449783980846,40.72951496224949,-73.99075269699097,casual
C73A6E25825D1499,classic_bike,2023-05-11 14:22:57,2023-05-11 14:29:59,Madison St & Forest Ave,5025.02,Stanhope St & Fairview Ave,5146.03,40.705440998,-73.902571678,40.70998,-73.91116,member
998F9F9E8876DC9D,classic_bike,2023-05-13 13:11:29,2023-05-13 13:20:24,Lafayette St & Jersey St,5561.06,E 2 St & Avenue B,5515.02,40.72456089,-73.99565293,40.72217444,-73.98368779,member
13377C4E6BF752BE,electric_bike,2023-05-25 06:46:30,2023-05-25 06:53:36,Henry St & Remsen St,4645.04,Court St & Nelson St,4077.07,40.69400964865994,-73.99465128779411,40.6763947,-73.99869893,member
5E8DB2F7993F10EE,classic_bike,2023-05-05 18:06:31,2023-05-05 18:12:43,E 48 St & 3 Ave,6541.03,2 Ave & E 29 St,6122.09,40.754590988,-73.971988559,40.74172351097472,-73.97809267044067,member
E3A915645F5248BE,electric_bike,2023-05-28 07:27:26,2023-05-28 07:30:36,Amsterdam Ave & W 66 St,7149.05,Central Park West & W 68 St,7079.06,40.7746671,-73.98470567,40.7734066,-73.97782542,member
08E27D5EECE0DDFA,classic_bike,2023-05-10 12:57:54,2023-05-10 13:02:35,Walton Ave & E 176 St,8362.02,College Ave & E 170 St,8175.06,40.848509192,-73.909630537,40.837576,-73.910489,member
0C7381954277959A,classic_bike,2023-05-07 10:40:11,2023-05-07 11:20:28,Riverside Dr & W 91 St,7524.16,W 181 St & Riverside Dr,8381.04,40.79313480986663,-73.97700369358063,40.85168,-73.94186,member
0F7B720B9F026808,electric_bike,2023-05-13 12:23:09,2023-05-13 12:50:03,Mercer St & Spring St,5532.01,W 53 St & 10 Ave,6890.01,40.72362738,-73.99949601,40.76669671,-73.99061728,member
CB01681F930992C4,classic_bike,2023-05-25 16:13:16,2023-05-25 16:35:39,E 48 St & 5 Ave,6626.01,W 20 St & 10 Ave,6306.01,40.75724567911726,-73.97805914282799,40.745686,-74.005141,member
FB2C0F417AB7137E,electric_bike,2023-05-27 16:42:29,2023-05-27 16:58:52,Grand Concourse & E 167 St,8126.07,Decatur Ave & E 197 St,8597.01,40.834263,-73.917641,40.86557,-73.88807,member
C9AFF4B0D9D7B279,classic_bike,2023-05-11 16:47:27,2023-05-11 16:54:07,E 33 St & 1 Ave,6197.08,E 40 St & Park Ave,6432.11,40.74322681432173,-73.97449783980846,40.750756,-73.978326,member
F645FABF35DE0153,classic_bike,2023-05-17 18:01:16,2023-05-17 18:21:04,W 41 St & 8 Ave,6602.03,Franklin St & W Broadway,5430.08,40.75640548,-73.9900262,40.71911552,-74.00666661,member
54442B2CFA14AFB1,classic_bike,2023-05-06 19:55:20,2023-05-06 20:15:06,N 12 St & Bedford Ave,5450.04,Stewart Ave & Johnson Ave,5123.07,40.72079821,-73.95484712,40.70869,-73.92587,member
694AAEF95622D1D1,classic_bike,2023-05-13 11:19:20,2023-05-13 11:33:32,Lexington Ave & E 36 St,6313.1,1 Ave & E 68 St,6822.09,40.7475739589548,-73.9788007736206,40.76500525,-73.95818491,member
DCC749178C4247B3,electric_bike,2023-05-01 15:04:15,2023-05-01 15:11:19,4 Ave & E 12 St,5788.15,E 20 St & FDR Dr,5886.13,40.732647,-73.99011,40.733208626522426,-73.9756813647,member
F3D0D4A4FB2F2237,electric_bike,2023-05-16 17:36:32,2023-05-16 17:56:31,W 168th S & Fort Washington Ave,8226.07,W 120 St & Claremont Ave,7745.07,40.84210236102173,-73.9422395825386,40.8109494,-73.9634,member
DD499FEE26E7A977,classic_bike,2023-05-06 09:45:26,2023-05-06 10:01:30,Park Cir & East Dr,3344.02,Grand Army Plaza & Plaza St West,4010.15,40.651566,-73.972212,40.6729679,-73.97087984,member
035CFF2D2BD661A1,classic_bike,2023-05-21 18:36:34,2023-05-21 18:44:46,Washington St & Gansevoort St,6039.06,Washington St & Barrow St,5847.08,40.739323,-74.008119,40.73191132323174,-74.008769094944,casual
51926158CB7B0BF9,electric_bike,2023-05-22 13:03:52,2023-05-22 13:08:51,Court St & Nelson St,4077.07,Court St & Nelson St,4077.07,40.6763947,-73.99869893,40.6763947,-73.99869893,member
FE1F050079F7DA76,classic_bike,2023-05-04 09:20:38,2023-05-04 09:24:17,Henry St & W 9 St,4086.06,Smith St & 9 St,4077.04,40.6763744,-74.00324957,40.6746957,-73.99785768,member
9C57670930B3DABF,electric_bike,2023-05-02 23:52:41,2023-05-03 00:01:30,Knickerbocker Ave & Thames St,5018.06,Linden St & Knickerbocker Ave,4743.04,40.70539,-73.92976,40.69714,-73.91566,member
9D1C2D11503F5791,classic_bike,2023-05-10 08:53:16,2023-05-10 08:56:42,9 Ave & W 45 St,6717.06,8 Ave & W 52 St,6816.07,40.760098815,-73.991287231,40.76370739,-73.9851615,member
57E2ACB6E5587B66,classic_bike,2023-05-08 06:14:19,2023-05-08 06:24:31,E 53 St & Lexington Ave,6617.09,E 27 St & 1 Ave,6004.06,40.75828065,-73.97069431,40.739445,-73.976806,member
061E80EA9F96B598,electric_bike,2023-05-08 17:39:07,2023-05-08 17:51:29,E 81 St & Park Ave,7188.1,W 110 St & Amsterdam Ave,7646.04,40.77677702,-73.9590097,40.802692,-73.96295,member
522498985A85094E,classic_bike,2023-05-22 13:36:51,2023-05-22 13:44:13,E 51 St & Lexington Ave,6659.01,Lexington Ave & E 29 St,6164.09,40.75714758,-73.97207836,40.74311555376486,-73.98215353488922,member
F2E6BE44A3EB8324,electric_bike,2023-05-31 23:48:14,2023-05-31 23:49:48,8 Ave & W 38 St,6526.05,W 41 St & 8 Ave,6602.03,40.75461,-73.99177,40.75640548,-73.9900262,member
E654711C0AB31A1D,classic_bike,2023-05-21 21:00:53,2023-05-21 21:13:43,University Pl & E 14 St,5905.14,Avenue D & E 10 St,5575.13,40.734814,-73.992085,40.72506551015475,-73.97515833377838,member
6CEEF2C2708F60F9,classic_bike,2023-05-18 07:52:11,2023-05-18 07:53:43,Mercer St & Bleecker St,5679.05,Great Jones St,5636.11,40.72706363348306,-73.99662137031554,40.72743423,-73.99379025,member
CF688E48B83BC07A,electric_bike,2023-05-25 23:23:05,2023-05-25 23:40:44,W 22 St & 10 Ave,6306.06,King St & Varick St,5687.11,40.74691959,-74.00451887,40.72789701409023,-74.00536268949507,member
F2E9D8128186E222,classic_bike,2023-05-22 22:51:08,2023-05-22 23:10:54,Grand Concourse & E 166 St,8092.06,Walton Ave & E 171 St,8249.10,40.831733823,-73.919789076,40.840683,-73.915073,member
C34598CDE3697248,classic_bike,2023-05-05 19:50:22,2023-05-05 19:52:02,E 4 St & Ave B,5515.08,E 4 St & Ave B,5515.08,40.72334683218016,-73.98265913128853,40.72334683218016,-73.98265913128853,member
2C67DBC8B397B8E1,classic_bike,2023-05-18 19:46:49,2023-05-18 19:52:55,W 51 St & 6 Ave,6740.1,W 53 St & 10 Ave,6890.01,40.7606597,-73.98042047,40.76669671,-73.99061728,member
AB296A26D881FD74,classic_bike,2023-05-23 19:28:14,2023-05-23 19:41:37,Brooklyn Bridge Park - Pier 2,4756.04,Nevins St & Schermerhorn St,4437.09,40.698458,-73.997178,40.68737247650719,-73.98176059126854,casual
0CA0BF56EC0BAA89,classic_bike,2023-05-26 19:39:03,2023-05-26 19:48:45,E 77 St & 3 Ave,7092.06,Central Park West & W 72 St,7141.07,40.77314236,-73.95856158,40.77579376683666,-73.9762057363987,casual
E9357179180F22BD,classic_bike,2023-05-24 09:58:27,2023-05-24 10:20:47,10 Ave & W 28 St,6459.04,5 Ave & E 87 St,7323.09,40.750617146,-74.00189507,40.78232260730881,-73.95987510681152,member
34AE1E51C115FB6F,classic_bike,2023-05-24 16:11:41,2023-05-24 16:17:41,Columbia St & Lorraine St,4013.08,Smith St & 9 St,4077.04,40.6747055,-74.0075572,40.6746957,-73.99785768,member
9BD161610A0F24F5,classic_bike,2023-05-05 08:04:13,2023-05-05 08:08:37,Union Ave & N 12 St,5411.07,Metropolitan Ave & Bedford Ave,5308.04,40.71924,-73.95242,40.71534825,-73.96024116,member
4472CD7ECF868FFB,classic_bike,2023-05-25 19:11:31,2023-05-25 19:13:42,E 128 St & Madison Ave,7735.23,Lexington Ave & E 127 St,7662.13,40.80756,-73.939182,40.805726,-73.936322,member
27E78549EA9D43EE,classic_bike,2023-05-30 23:19:59,2023-05-30 23:26:39,5 Ave & E 87 St,7323.09,Central Park West & W 72 St,7141.07,40.782405138,-73.959953666,40.77579376683666,-73.9762057363987,casual
9AE1E93E7DF99815,classic_bike,2023-05-10 08:37:56,2023-05-10 08:48:09,7 Ave & Park Pl,4125.07,10 St & 7 Ave,3762.08,40.6776147,-73.97324283,40.6662078,-73.98199886,member
C6086077676649EB,classic_bike,2023-05-06 22:48:44,2023-05-06 22:52:38,Columbia St & Rivington St,5365.02,Suffolk St & Stanton St,5445.02,40.71739973,-73.98016555,40.72066442,-73.98517977,member
987DB5A7ACCECD7B,electric_bike,2023-05-24 10:01:03,2023-05-24 10:19:04,E 25 St & 1 Ave,6004.07,Broadway & W 51 St,6779.04,40.7381765,-73.97738662,40.76228826,-73.98336183,member
99268D00EFBEA67C,classic_bike,2023-05-19 08:57:23,2023-05-19 09:04:20,Mott St & Prince St,5561.04,Greenwich St & W Houston St,5730.08,40.72317958,-73.99480012,40.728846,-74.008591,member
3ECDD07F3E704978,electric_bike,2023-05-03 19:00:05,2023-05-03 19:02:36,E 142 St & 3 Ave,7781.1,E 144 St & Brook Ave,7777.02,40.812735,-73.923697,40.811675,-73.917037,member
8A15BF0D24A8887D,classic_bike,2023-05-07 16:26:58,2023-05-07 17:35:37,St Marks Pl & 4 Ave,4249.1,Columbia Heights & Cranberry St,4829.01,40.68177810928762,-73.97988975048065,40.70037867,-73.99548059,casual
A2825040FFB69002,classic_bike,2023-05-18 18:44:02,2023-05-18 19:10:18,Fulton Ave & E 168 St,8084.03,Plaza Dr & W 170 St,8213.01,40.830480218,-73.904603243,40.840484,-73.917946,member
F1B869F4AA12DAA6,classic_bike,2023-05-14 13:18:45,2023-05-14 13:24:17,Meserole Ave & Manhattan Ave,5666.04,N 7 St & Driggs Ave,5340.01,40.72708584,-73.95299117,40.72,-73.96,member
0D2657C1877C7763,electric_bike,2023-05-19 15:33:28,2023-05-19 15:57:20,8 Ave & W 31 St,6450.05,West St & Chambers St,5329.03,40.7505853470215,-73.9946848154068,40.71754834,-74.01322069,member
54B6C3B0335ABBA9,classic_bike,2023-05-29 15:09:15,2023-05-29 15:20:58,Sharon St & Olive St,5323.06,Wythe Ave & N 13 St,5558.04,40.715326428,-73.938484788,40.722767,-73.957021,casual
D4B9AAA49320E673,classic_bike,2023-05-10 23:02:21,2023-05-10 23:10:57,E 40 St & Park Ave,6432.11,E 27 St & 1 Ave,6004.06,40.750756,-73.978326,40.739445,-73.976806,casual
068158586D6BD919,classic_bike,2023-05-27 15:43:47,2023-05-27 16:16:17,W 34 St & 11 Ave,6578.01,West St & Liberty St,5184.08,40.755963326,-74.002204418,40.711444,-74.014847,casual
12E171004EB9C997,classic_bike,2023-05-09 23:42:25,2023-05-09 23:52:30,8 Ave & W 33 St,6450.12,W 15 St & 7 Ave,6030.06,40.751551,-73.993934,40.73935542,-73.99931783,member
DF958CA77A454A1E,classic_bike,2023-05-21 12:24:57,2023-05-21 12:49:06,W 87 St & Amsterdam Ave,7458.03,9 Ave & W 22 St,6266.06,40.788471818,-73.974868298,40.7454973,-74.00197139,member
D5D06F86E7750373,classic_bike,2023-05-23 07:06:21,2023-05-23 07:10:44,Park Pl & Franklin Ave,4033.06,Dean St & Franklin Ave,4107.13,40.6741806,-73.9564947,40.67759206937376,-73.955637216568,member
C8ACECF650B91281,classic_bike,2023-05-24 15:45:14,2023-05-24 15:52:31,W 20 St & 8 Ave,6224.05,W 26 St & 10 Ave,6382.05,40.74345335,-74.00004031,40.749717753,-74.002950346,member
6662A57CE8D097FA,classic_bike,2023-05-10 11:56:07,2023-05-10 12:01:31,Columbus Ave & W 72 St,7175.05,Broadway & W 61 St,7014.12,40.7770575,-73.97898475,40.77003010255044,-73.9819684624672,member
1B6D97F62B8D84F1,classic_bike,2023-05-19 07:26:20,2023-05-19 07:45:27,W 37 St & 10 Ave,6611.02,Spring St & Hudson St,5653.12,40.75660359,-73.9979009,40.72583996792375,-74.0076532959938,member
8B8C058F5F3ABDDF,classic_bike,2023-05-08 15:07:16,2023-05-08 15:07:18,33 St & 47 Ave,6185.04,33 St & 47 Ave,6185.04,40.74283,-73.9321,40.74283,-73.9321,member
98FB2B75F6889C94,classic_bike,2023-05-05 13:57:14,2023-05-05 14:03:13,N 11 St & Kent Ave,5489.04,Nassau Ave & Newell St,5623.03,40.72248188638219,-73.95921930670738,40.724812564400175,-73.94752621650696,member
EBCB7A52C7B9D60C,classic_bike,2023-05-13 17:36:17,2023-05-13 17:37:02,Duffield St & Willoughby St,4596.05,Lawrence St & Willoughby St,4596.09,40.69221589,-73.9842844,40.69236178,-73.98631746,member
324AE23ABD39A676,classic_bike,2023-05-06 13:32:35,2023-05-06 13:40:36,Carlton Ave & St Marks Ave,4199.13,Clermont Ave & Lafayette Ave,4461.01,40.67911856082165,-73.97176265716553,40.68764484,-73.96968902,member
0BDDF3D94DDAEDC1,classic_bike,2023-05-06 00:40:51,2023-05-06 01:05:32,S 2 St & Kent Ave,5276.04,3 St & 7 Ave,3905.15,40.71,-73.97,40.6703837,-73.97839676,member
FA7D34D6A4599D88,classic_bike,2023-05-10 17:15:33,2023-05-10 17:25:40,E 51 St & Lexington Ave,6659.01,W 41 St & 8 Ave,6602.03,40.75714758,-73.97207836,40.75640548,-73.9900262,member
CF45D4027516E512,classic_bike,2023-05-08 14:14:39,2023-05-08 14:29:33,7 St & 3 Ave,3996.01,Hanson Pl & Ashland Pl,4395.07,40.67260298150126,-73.98983001708984,40.68506807308177,-73.97790759801863,member
65EFEEF790DB1727,classic_bike,2023-05-23 11:59:24,2023-05-23 12:09:10,8 Ave & W 31 St,6450.05,W 44 St & 11 Ave,6756.05,40.7505853470215,-73.9946848154068,40.762009,-73.996975,member
4DEEA114C4D5F7C8,classic_bike,2023-05-09 21:53:28,2023-05-09 22:23:32,Sullivan St & Washington Sq,5721.01,W 50 St & 10 Ave,6890.06,40.73047747,-73.99906065,40.76473420006519,-73.99194359779358,member
2ED94694888DD9BB,classic_bike,2023-05-10 15:14:09,2023-05-10 15:19:48,Nassau Ave & Russell St,5581.01,Berry St & N 8 St,5379.09,40.72557,-73.94434,40.7190095,-73.95852515,member
713A7ECF39916A71,classic_bike,2023-05-31 00:52:17,2023-05-31 00:55:06,E 115 St & Lexington Ave,7599.09,Lenox Ave & W 115 St,7627.10,40.797945857,-73.942418098,40.8011939,-73.9500739,member
96230EB08BC2C341,classic_bike,2023-05-04 13:44:22,2023-05-04 13:48:50,W 51 St & 6 Ave,6740.1,E 44 St & Lexington Ave,6464.09,40.760612607,-73.980813265,40.752643,-73.974996,casual
BDB6B2808AEA3490,classic_bike,2023-05-01 17:56:12,2023-05-01 18:04:42,8 Ave & W 16 St,6072.11,8 Ave & W 38 St,6526.05,40.740983,-74.001702,40.75461,-73.99177,casual
089E2FAAC31EA88B,classic_bike,2023-05-17 18:43:19,2023-05-17 18:45:29,E 6 St & Avenue B,5584.04,Suffolk St & Stanton St,5445.02,40.72453734,-73.98185424,40.72066442,-73.98517977,member
93BD6687332C9335,classic_bike,2023-05-29 16:02:41,2023-05-29 16:11:42,Canal St & Rutgers St,5303.08,Cherry St,5181.04,40.71427487,-73.98990025,40.71219906,-73.97948148,casual
E40CDC61524A0ACA,classic_bike,2023-05-29 18:30:52,2023-05-29 19:26:29,Grand Concourse & E 166 St,8092.06,Plaza Dr & W 170 St,8213.01,40.83191967,-73.919642687,40.840484,-73.917946,member
57293F280A155B7E,classic_bike,2023-05-02 05:43:52,2023-05-02 05:54:04,W 20 St & 8 Ave,6224.05,Mercer St & Bleecker St,5679.05,40.74345335,-74.00004031,40.72706363348306,-73.99662137031554,member
1D8C749831F4B737,classic_bike,2023-05-29 13:34:01,2023-05-29 13:39:31,W 44 St & 11 Ave,6756.05,W 54 St & 11 Ave,6955.05,40.762009,-73.996975,40.768333,-73.992573,member
E983010DD9AE97D7,classic_bike,2023-05-01 17:22:07,2023-05-01 17:49:32,Bridge St & Water St,4968.03,Bridge St & Water St,4968.03,40.70296934155272,-73.98469090461731,40.70296934155272,-73.98469090461731,member
36E4A3C27CEC38E7,classic_bike,2023-05-31 18:14:37,2023-05-31 18:19:09,Rutgers St & Henry St,5230.02,Catherine St & Monroe St,5128.04,40.71332151208186,-73.99009689688683,40.71117444,-73.99682619,member
D6844649E2B03400,classic_bike,2023-05-02 15:51:36,2023-05-02 15:56:35,Douglass St & 4 Ave,4175.14,Atlantic Ave & Fort Greene Pl,4354.07,40.6792788,-73.98154004,40.68382604,-73.97632328,member
07411E7E067EAA75,classic_bike,2023-05-11 08:17:51,2023-05-11 08:38:05,34 St & 35 Ave,6605.08,E 44 St & Lexington Ave,6464.09,40.756876469,-73.926210403,40.752643,-73.974996,member
246803383E313E2A,classic_bike,2023-05-04 19:47:16,2023-05-04 20:01:05,2 Ave & E 125 St,7648.16,E 93 St & 2 Ave,7286.02,40.802554,-73.933509,40.782454175279874,-73.9489196240902,member
D98E24D93D8A5BAD,classic_bike,2023-05-06 08:43:15,2023-05-06 08:49:46,E 53 St & 3 Ave,6617.02,E 43 St & 2 Ave,6422.08,40.75763227739443,-73.96930575370789,40.75022392,-73.97121414,member
6D144D1D15C895F2,classic_bike,2023-05-29 08:29:57,2023-05-29 08:36:12,Carroll St & Smith St,4225.14,Smith St & 9 St,4077.04,40.680611,-73.99475825,40.6746957,-73.99785768,member
61656265B6754E8B,classic_bike,2023-05-10 18:32:56,2023-05-10 18:54:58,Norman St & Wyckoff Ave,4654.01,Kosciuszko St & Tompkins Ave,4553.04,40.69517,-73.90311,40.69128258,-73.9452416,casual
F76A160A605EC504,classic_bike,2023-05-27 19:12:15,2023-05-27 19:33:03,Menahan St & Wyckoff Ave,4890.11,Metropolitan Ave & Bedford Ave,5308.04,40.701004505,-73.914281845,40.71534825,-73.96024116,member
AD4677627E92F056,classic_bike,2023-05-22 21:02:21,2023-05-22 21:13:27,W 20 St & 5 Ave,6098.02,8 Ave & W 38 St,6526.05,40.73972989238724,-73.99103969335556,40.75461,-73.99177,member
2406E6B257C73E50,electric_bike,2023-05-27 16:16:53,2023-05-27 16:26:18,West End Ave & W 94 St,7524.09,Amsterdam Ave & W 125 St,7800.03,40.7941654,-73.974124,40.813358,-73.956461,member
2FB5E9BC91DB969B,classic_bike,2023-05-13 00:40:24,2023-05-13 00:44:50,W 13 St & 5 Ave,5947.04,Broadway & E 14 St,5905.12,40.735445,-73.99431,40.73454567,-73.99074142,member
E96D0E2CD12A03A7,classic_bike,2023-05-27 17:02:18,2023-05-27 17:08:47,Wyckoff Av & Jefferson St,5051.01,Montrose Ave & Bushwick Ave,5068.02,40.707303047,-73.92392385,40.70767788,-73.94016171,member
3586C9E08BB46AB2,classic_bike,2023-05-17 19:43:28,2023-05-17 19:57:18,W 106 St & Central Park West,7606.01,Central Park West & W 68 St,7079.06,40.7981856,-73.9605909006,40.7734066,-73.97782542,member
9F3B05AB81804CDA,classic_bike,2023-05-05 15:51:13,2023-05-05 16:05:11,Old Fulton St,4903.08,President St & Henry St,4307.13,40.70277159,-73.99383605,40.6828003,-73.99990419,member
E3D0E266F2369325,classic_bike,2023-05-16 20:16:33,2023-05-16 20:44:31,E 77 St & 1 Ave,7020.02,Banker St & Meserole Ave,5633.04,40.77095553869235,-73.95356208096926,40.72606,-73.95621,member
6A7169868C47317B,classic_bike,2023-05-28 07:18:58,2023-05-28 07:24:24,E 60 St & York Ave,6682.08,1 Ave & E 68 St,6822.09,40.759107,-73.959223,40.76500525,-73.95818491,member
2E252CD457B43E64,electric_bike,2023-05-02 12:44:07,2023-05-02 12:46:37,E 23 St & 1 Ave,5929.01,E 27 St & 1 Ave,6004.06,40.736502,-73.97809472,40.739445,-73.976806,member
08C5C009E9C2A45D,classic_bike,2023-05-18 14:54:09,2023-05-18 14:59:02,49 Ave & 21 St,6128.04,44 Dr & Jackson Ave,6352.01,40.74252975,-73.948970675,40.74718234,-73.9432635,member
BE9C6B2E5105FDDD,classic_bike,2023-05-26 12:21:20,2023-05-26 12:27:47,W 106 St & Amsterdam Ave,7634.01,W 92 St & Broadway,7502.01,40.8008363,-73.9664492472,40.7921,-73.9739,member
9B74A5BEC585DB2E,classic_bike,2023-05-24 18:44:30,2023-05-24 18:45:51,Allen St & Rivington St,5414.06,Delancey St & Eldridge St,5414.07,40.72019576,-73.98997825,40.719383,-73.991479,member
E63840713630D674,classic_bike,2023-05-25 18:22:16,2023-05-25 18:24:28,8 Ave & W 27 St,6297.07,W 25 St & 9 Ave,6339.06,40.747968,-73.996637,40.74783260583772,-74.0005722643582,member
74E854C38207FDAB,classic_bike,2023-05-12 17:56:21,2023-05-12 18:29:21,Concourse Village East & E 158 St,8000.02,Morris Ave & E 163 St,8036.05,40.823726892,-73.919417381,40.827230499624726,-73.91765579597632,member
C8788392382F4E04,electric_bike,2023-05-20 11:52:31,2023-05-20 12:08:44,W 50 St & 10 Ave,6890.06,W 36 St & 7 Ave,6483.06,40.76473420006519,-73.99194359779358,40.752149,-73.989539,member
2779EB7F1CC5C17F,classic_bike,2023-05-23 17:14:25,2023-05-23 17:36:46,Bank St & Hudson St,5922.08,W 42 St & 6 Ave,6517.08,40.73652889,-74.00618026,40.75492,-73.98455,member
F94FD11FF9BF0F71,classic_bike,2023-05-19 15:04:20,2023-05-19 15:08:32,Broadway & E 21 St,6098.1,University Pl & E 14 St,5905.14,40.73988840858996,-73.98958593606949,40.734814,-73.992085,member
57006D3A34DC5443,classic_bike,2023-05-27 18:11:01,2023-05-27 18:41:05,5 Ave & E 87 St,7323.09,Central Park W & W 91 St,7453.01,40.78232260730881,-73.95987510681152,40.78866499127884,-73.96680057048798,member
067D690321240402,classic_bike,2023-05-18 20:50:57,2023-05-18 20:56:26,W 12 St & Hudson St,5997.1,MacDougal St & Prince St,5687.04,40.73752749,-74.005172849,40.72710258,-74.00297088,member
7AF1F542F1D9BE87,classic_bike,2023-05-02 16:39:10,2023-05-02 16:39:28,E 44 St & 2 Ave,6422.09,E 44 St & 2 Ave,6422.09,40.750315666,-73.972339511,40.75118387463277,-73.97138714790344,casual
D774339BFED42F93,classic_bike,2023-05-28 20:36:38,2023-05-28 20:43:46,Great Jones St,5636.11,Forsyth St & Canal St,5270.07,40.72743423,-73.99379025,40.7158155,-73.99422366,casual
88C379496062C51C,electric_bike,2023-05-11 20:34:32,2023-05-11 20:48:24,Riverside Blvd & W 67 St,7183.03,W 87 St & West End Ave,7484.05,40.777507027547976,-73.98888587951659,40.789622,-73.97757,member
716E22A9E07C45BC,classic_bike,2023-05-06 10:08:41,2023-05-06 10:26:47,Pinehurst Ave & W 187 St,8458.03,W 190 St & St. Nicholas Ave,8453.14,40.855339408,-73.937859893,40.854788,-73.929513,member
FF0FC4A244C23177,classic_bike,2023-05-31 09:04:44,2023-05-31 09:16:57,31 St & Astoria Blvd,6989.07,Queens Plaza North & Crescent St,6429.01,40.7699176,-73.9184057,40.75110165,-73.94073717,member
00CE78E173DA8186,classic_bike,2023-05-02 20:52:51,2023-05-02 20:58:26,Broadway & E 19 St,6098.12,Lexington Ave & E 29 St,6164.09,40.73866091428551,-73.98987293243407,40.74311555376486,-73.98215353488922,member
0B7B7FA9C5CB5CB7,classic_bike,2023-05-09 16:32:34,2023-05-09 16:58:19,E 72 St & Park Ave,6998.08,W 13 St & 7 Ave,6030.04,40.77118287540658,-73.96409422159195,40.73781509,-73.99994661,member
AAFFFAB665678223,classic_bike,2023-05-05 21:09:04,2023-05-05 21:18:11,W 52 St & 6 Ave,6740.01,E 51 St & 2 Ave,6575.03,40.76132983124814,-73.97982001304626,40.755293,-73.967641,casual
D99623CDEFA92248,classic_bike,2023-05-30 14:05:14,2023-05-30 14:07:08,4 Ave & E 12 St,5788.15,Washington Pl & Broadway,5755.01,40.732782483,-73.990092278,40.72903917,-73.99404649,member
FB5F9461F350B958,classic_bike,2023-05-11 16:54:42,2023-05-11 17:56:53,E 88 St & Park Ave,7293.1,Walton Ave & E 171 St,8249.10,40.781082511,-73.955968976,40.840683,-73.915073,casual
89EF7302FF0B90A9,electric_bike,2023-05-10 15:43:07,2023-05-10 15:49:48,Bank St & Hudson St,5922.08,9 Ave & W 22 St,6266.06,40.73652889,-74.00618026,40.7454973,-74.00197139,member
8E245811E9CB010A,classic_bike,2023-05-31 13:51:01,2023-05-31 13:56:13,E 45 St & 3 Ave,6464.08,E 53 St & Madison Ave,6659.03,40.75255434,-73.97282625,40.7597108,-73.97402311,member
94C8CD630964C01F,classic_bike,2023-05-15 18:40:21,2023-05-15 18:50:43,W 56 St & 8 Ave,6884.03,E 33 St & 5 Ave,6322.01,40.765959181657976,-73.98313522338867,40.74765947,-73.98490707,member
5F42B9B96D0959E5,classic_bike,2023-05-20 08:14:18,2023-05-20 08:22:54,E 17 St & 2 Ave,5896.01,MacDougal St & Washington Sq,5797.01,40.73431166276575,-73.98372530937195,40.73226398,-73.99852205,member
7D8A28156ADDF2AE,classic_bike,2023-05-08 10:13:26,2023-05-08 10:25:31,6 Ave & W 45 St,6593.15,Central Park West & W 68 St,7079.06,40.756799698,-73.982078791,40.7734066,-73.97782542,member
2D63C7FBFF1D41AF,classic_bike,2023-05-31 13:40:26,2023-05-31 14:02:17,Clinton St & Cherry St,5190.09,Reade St & Broadway,5247.1,40.711471394469264,-73.98672603070736,40.71450451,-74.00562789,casual
A56D596A8091601D,classic_bike,2023-05-30 18:29:55,2023-05-30 19:16:24,Washington St & Barrow St,5847.08,E 97 St & Madison Ave,7393.09,40.73191132323174,-74.008769094944,40.787801,-73.953559,member
9A2DB1C8ED9AF688,classic_bike,2023-05-17 15:10:56,2023-05-17 15:12:19,14 St & 7 Ave,3731.11,10 St & 7 Ave,3762.08,40.663779,-73.98396846,40.6662078,-73.98199886,member
1829A31A82F47F04,classic_bike,2023-05-09 15:29:05,2023-05-09 15:36:03,Broadway & W 160 St,8157.06,Riverside Dr & W 145 St,8018.04,40.835775,-73.9434,40.827305,-73.951989,casual
145DCE1110DA9BED,classic_bike,2023-05-01 08:34:53,2023-05-01 08:46:49,2 Ave & E 72 St,6925.09,E 58 St & Madison Ave,6839.04,40.7687620293096,-73.95840793848038,40.76302594280519,-73.97209525108337,member
9E95F6E8A06BD9CD,classic_bike,2023-05-16 20:21:32,2023-05-16 21:22:00,Riverside Dr & W 138 St,7942.21,Amsterdam Ave & W 125 St,7800.03,40.823168,-73.955857,40.813358,-73.956461,casual
9731FE52D672F260,classic_bike,2023-05-16 21:54:39,2023-05-16 22:19:37,Walton Ave & E 171 St,8249.1,Walton Ave & E 171 St,8249.10,40.840604544,-73.915160537,40.840683,-73.915073,member
D4FE1BC2CB2B2D38,classic_bike,2023-05-12 14:55:23,2023-05-12 15:27:31,E 7 St & Avenue A,5626.07,E 7 St & Ave B,5584.05,40.72621788,-73.98379855,40.7251285241158,-73.98131668567657,member
483AAE0F32D4B817,classic_bike,2023-05-10 14:05:19,2023-05-10 14:14:23,Berkeley Pl & 7 Ave,4051.01,Eastern Pkwy & Franklin Ave,3919.07,40.675146838709786,-73.97523209452629,40.6707767,-73.9576801,member
9FC3AB80F337DE44,classic_bike,2023-05-26 00:16:54,2023-05-26 00:48:33,4 Ave & E 12 St,5788.15,E 97 St & Madison Ave,7393.09,40.732647,-73.99011,40.787801,-73.953559,member
47E540C9C5B172A0,classic_bike,2023-05-15 12:02:28,2023-05-15 12:12:49,E 23 St & 1 Ave,5929.01,Madison Ave & E 26 St,6131.12,40.736502,-73.97809472,40.742684734875695,-73.98671329021454,casual
1A9726952F27AD79,classic_bike,2023-05-19 16:23:22,2023-05-19 16:26:31,Vesey St & Church St,5216.06,Murray St & Greenwich St,5288.12,40.71221958009051,-74.01047229766846,40.71485150526252,-74.01122331619263,member
15A4811B9AA98F72,classic_bike,2023-05-26 13:10:41,2023-05-26 13:22:39,Union St & 4 Ave,4175.15,Carroll St & Washington Ave,3887.03,40.677294731,-73.982724309,40.6686744,-73.9618148,member
E342F497C8BB2DD7,electric_bike,2023-05-20 23:53:15,2023-05-20 23:54:14,Central Park W & W 91 St,7453.01,Central Park W & W 91 St,7453.01,40.78866499127884,-73.96680057048798,40.78866499127884,-73.96680057048798,member
7D073031F21512A4,electric_bike,2023-05-19 14:21:06,2023-05-19 14:30:32,Franklin St & Dupont St,5944.01,46 Ave & 5 St,6286.02,40.73564,-73.95866,40.74731,-73.95451,member
ECBE951D67931311,classic_bike,2023-05-03 16:51:53,2023-05-03 16:54:02,E 16 St & 5 Ave,6022.04,Broadway & E 14 St,5905.12,40.73726186,-73.99238967,40.73454567,-73.99074142,member
BC6EC7822B47EC61,classic_bike,2023-05-07 20:19:44,2023-05-07 20:35:14,Mercer St & Bleecker St,5679.05,Mercer St & Bleecker St,5679.05,40.72706363348306,-73.99662137031554,40.72706363348306,-73.99662137031554,member
5E99A26A1F41D6FF,electric_bike,2023-05-01 15:49:05,2023-05-01 15:53:44,Plaza St East & Flatbush Ave,4010.01,3 St & 7 Ave,3905.15,40.673134,-73.969106,40.6703837,-73.97839676,member
B7BD759683923D5A,classic_bike,2023-05-20 17:19:38,2023-05-20 17:29:41,Meserole Ave & Manhattan Ave,5666.04,Scholes St & Lorimer St,5076.04,40.72708584,-73.95299117,40.71,-73.95,member
6A1DCAADAA88D380,classic_bike,2023-05-29 13:19:24,2023-05-29 13:35:50,Central Park West & W 76 St,7253.04,Central Park W & W 91 St,7453.01,40.77896784,-73.97374737,40.78866499127884,-73.96680057048798,member
03F0B5D65E96E094,classic_bike,2023-05-11 17:28:01,2023-05-11 17:38:07,E 48 St & 5 Ave,6626.01,E 27 St & Park Ave S,6131.13,40.75724567911726,-73.97805914282799,40.74275179648995,-73.9847157150507,member
088CEF4DB5486B74,electric_bike,2023-05-29 16:19:32,2023-05-29 16:58:28,Grand Army Plaza & Central Park S,6839.1,Christopher St & Greenwich St,5847.01,40.7643971,-73.97371465,40.73291553,-74.00711384,casual
6433A1FA7CFD2718,classic_bike,2023-05-23 09:30:46,2023-05-23 09:49:38,Rivington St & Ridge St,5406.02,Division St & Bowery,5270.08,40.71850211,-73.98329859,40.714193,-73.996732,member
8826FBAACB7CB436,classic_bike,2023-05-16 16:47:13,2023-05-16 16:55:55,6 Ave & W 34 St,6364.1,6 Ave & W 45 St,6593.15,40.749676228,-73.987891793,40.756951,-73.982631,casual
C30765E17919E357,classic_bike,2023-05-13 01:27:29,2023-05-13 01:50:05,Canal St & Rutgers St,5303.08,Roebling St & N 4 St,5267.09,40.71427487,-73.98990025,40.71469,-73.95739,member
2C63F8B046A795EB,classic_bike,2023-05-04 13:28:22,2023-05-04 13:34:25,DeKalb Ave & S Portland Ave,4546.04,Emerson Pl & Myrtle Ave,4683.02,40.68981035,-73.97493121,40.69363137,-73.96223558,member
E2A7A0A823CF971D,classic_bike,2023-05-24 14:03:57,2023-05-24 14:13:08,34 Ave & 48 St,6554.05,Newton Rd & 44 St,6743.06,40.75388,-73.914952,40.7595701,-73.9142678,casual
D8805AA41D7595D6,electric_bike,2023-05-07 18:52:37,2023-05-07 19:01:17,Broadway & Ellwood St,8547.04,Amsterdam Ave & W 183 St,8353.09,40.862058,-73.929719,40.84925,-73.93022,member
394FA3C420EE84BC,classic_bike,2023-05-26 17:04:05,2023-05-26 17:14:32,Barry St & Tiffany St,7844.05,E 167 St & Bryant Ave,8040.03,40.816136122,-73.891559601,40.826706,-73.888719,member
5B761F3970E5FA73,classic_bike,2023-05-27 16:26:07,2023-05-27 16:37:46,Prospect Pl & Nostrand Ave,4025.02,Maple St & New York Ave,3617.02,40.67428,-73.9503,40.66104,-73.94795,member
003B8FEEEA5DB803,classic_bike,2023-05-25 15:31:44,2023-05-25 16:01:13,Peck Slip & South St,5096.12,E 45 St & 3 Ave,6464.08,40.7075188830923,-74.00108054280281,40.75255434,-73.97282625,member
8BA1295BE735227F,classic_bike,2023-05-12 16:31:25,2023-05-12 16:37:34,Hudson St & W 13 St,6115.06,University Pl & E 14 St,5905.14,40.74005708567285,-74.0052741765976,40.734814,-73.992085,member
3B6698B7FD644ACA,electric_bike,2023-05-16 16:11:39,2023-05-16 16:29:40,9 Ave & W 45 St,6717.06,E 20 St & FDR Dr,5886.13,40.76019252,-73.9912551,40.733208626522426,-73.9756813647,member
A182F04F4F231312,classic_bike,2023-05-09 18:50:13,2023-05-09 18:54:17,Broadway & E 14 St,5905.12,Gramercy Park N & Gramercy Park E,6013.12,40.73454567,-73.99074142,40.73795,-73.98509,member
2FF7CC163E9E6851,classic_bike,2023-05-13 07:54:38,2023-05-13 08:08:39,Throop Ave & Myrtle Ave,4697.01,Fulton St & Adams St,4637.06,40.696190953,-73.94373095,40.69241829257847,-73.98949474096298,member
97C688C427DBDD60,electric_bike,2023-05-05 17:08:37,2023-05-05 17:24:04,W 15 St & 7 Ave,6030.06,E 20 St & FDR Dr,5886.13,40.73935542,-73.99931783,40.733208626522426,-73.9756813647,member
FAE4285633B99E32,classic_bike,2023-05-31 18:07:36,2023-05-31 18:22:45,Driggs Ave & Lorimer St,5481.04,Kosciuszko St & Tompkins Ave,4553.04,40.721937895,-73.950359106,40.69128258,-73.9452416,member
0CEE25C1F378B117,electric_bike,2023-05-14 11:28:46,2023-05-14 11:34:47,Riverside Blvd & W 67 St,7183.03,Central Park West & W 72 St,7141.07,40.777507027547976,-73.98888587951659,40.77579376683666,-73.9762057363987,member
73D4605C30352D2E,classic_bike,2023-05-09 15:45:41,2023-05-09 15:48:42,Driggs Ave & N Henry St,5542.04,Driggs Ave & Lorimer St,5481.04,40.72325,-73.94308,40.72179134,-73.9504154,member
B6C6FA39F2B0CD4A,classic_bike,2023-05-10 16:40:12,2023-05-10 16:53:21,Suffolk St & Stanton St,5445.02,Walker St & Baxter St,5351.07,40.72066442,-73.98517977,40.717411,-73.999573,member
95BF341D66293D3E,classic_bike,2023-05-06 20:55:28,2023-05-06 21:14:37,Market St & Henry St,5270.09,Central Ave & Flushing Ave,4947.04,40.713349938,-73.994472504,40.702831,-73.9333,member
A19333F26C922ACC,electric_bike,2023-05-12 20:38:57,2023-05-12 20:47:03,1 Ave & E 62 St,6753.08,Queens Plaza North & Crescent St,6429.01,40.7612274,-73.96094022,40.75110165,-73.94073717,member
F1680F2EA6D718D9,electric_bike,2023-05-19 09:09:30,2023-05-19 09:12:38,E Houston St & Columbia St,5436.11,Grand St & Samuel Dickstein Plaza,5335.07,40.71978635452822,-73.97871628403664,40.71511871996496,-73.98417055606842,casual
B189CBD02A6A6A8A,classic_bike,2023-05-24 18:22:35,2023-05-24 18:31:58,Crotona Park North & Prospect Ave,8236.01,Park Ave & E 162 St,8016.07,40.841156721,-73.892449379,40.825716,-73.915585,member
B1CFCA3F66F74F0F,classic_bike,2023-05-19 18:08:11,2023-05-19 18:33:43,W 34 St & 11 Ave,6578.01,W 44 St & 11 Ave,6756.05,40.75594159,-74.0021163,40.762009,-73.996975,casual
D265957184E24D68,classic_bike,2023-05-10 23:17:49,2023-05-10 23:38:39,King St & Varick St,5687.11,Allen St & Stanton St,5484.09,40.72789701409023,-74.00536268949507,40.722055,-73.989111,member
FEBFD95B1F0D91D3,classic_bike,2023-05-23 20:59:00,2023-05-23 21:03:58,Market St & Henry St,5270.09,Mott St & Prince St,5561.04,40.71310702305908,-73.99446353316307,40.72317958,-73.99480012,member
ED77DC750B82F6D6,classic_bike,2023-05-07 23:59:32,2023-05-08 00:01:00,69 St & 38 Ave,6298.04,69 St & 38 Ave,6298.04,40.746781468,-73.896575212,40.74694504524519,-73.89650255441666,member
74D2E257B004821D,classic_bike,2023-05-02 20:13:01,2023-05-02 20:19:54,43 Ave & 40 St,6292.03,50 St & Barnett Ave,6435.03,40.74562,-73.92402,40.750097682094825,-73.91349703073502,member
EA35F0AAE6738BD8,classic_bike,2023-05-16 08:19:01,2023-05-16 08:22:52,Caton Ave & Argyle Rd,3303.03,Prospect Park SW & Greenwood Ave,3385.06,40.65,-73.97,40.652563,-73.972573,member
4B47A3635B4DF74C,electric_bike,2023-05-02 20:47:53,2023-05-02 21:14:01,Wythe Ave & Metropolitan Ave,5348.02,Eastern Pkwy & Troy Ave,3862.07,40.716887,-73.963198,40.66929,-73.93679,casual
327AD902FABBBCE6,classic_bike,2023-05-21 13:15:06,2023-05-21 13:36:05,Amsterdam Ave & W 79 St,7311.02,7 Ave & Central Park South,6912.01,40.7829391,-73.9786517,40.7667405590595,-73.9790689945221,casual
36CD759C56BFD7D1,classic_bike,2023-05-10 18:27:50,2023-05-10 18:28:50,Cherry St,5181.04,Cherry St,5181.04,40.71219906,-73.97948148,40.71219906,-73.97948148,member
5112FACDE5570B5B,classic_bike,2023-05-05 17:33:13,2023-05-05 18:06:59,West End Ave & W 60 St,7059.08,West St & Liberty St,5184.08,40.772555828,-73.990042448,40.711444,-74.014847,casual
743E8D6009C33286,classic_bike,2023-05-13 02:35:25,2023-05-13 02:41:02,Adelphi St & Myrtle Ave,4620.02,S Portland Ave & Hanson Pl,4354.05,40.692975163,-73.971828818,40.68539567,-73.97431458,member
31977CEAA10769C6,electric_bike,2023-05-19 23:43:42,2023-05-20 00:05:39,44 Dr & Jackson Ave,6352.01,1 Ave & E 68 St,6822.09,40.74718234,-73.9432635,40.76500525,-73.95818491,member
8B2DA3890F7E858F,classic_bike,2023-05-14 13:47:39,2023-05-14 13:53:48,Hudson St & W 13 St,6115.06,W 25 St & 9 Ave,6339.06,40.740350246,-74.005183935,40.74783260583772,-74.0005722643582,member
C98ADBA5540FFA14,classic_bike,2023-05-04 18:17:09,2023-05-04 18:24:07,W 55 St & 6 Ave,6809.09,W 36 St & 7 Ave,6483.06,40.763189,-73.978434,40.752149,-73.989539,member
DFB488EBD003707D,classic_bike,2023-05-13 15:23:48,2023-05-13 15:24:09,Lenox Ave & W 130 St,7753.13,Lenox Ave & W 130 St,7753.13,40.810771346,-73.94316268,40.8107922,-73.9430681,member
D0A7C8DA86611607,classic_bike,2023-05-17 16:42:54,2023-05-17 16:45:19,Mercer St & Bleecker St,5679.05,University Pl & E 8 St,5755.14,40.727122784,-73.996622801,40.73143724085228,-73.99490341544151,casual
FF8C563719C6872E,classic_bike,2023-05-23 15:39:28,2023-05-23 15:42:48,LaGuardia Pl & W 3 St,5721.14,MacDougal St & Prince St,5687.04,40.72917025,-73.99810231,40.72710258,-74.00297088,member
AC07067734D559A3,classic_bike,2023-05-06 20:02:51,2023-05-06 20:12:34,Willoughby Ave & Walworth St,4634.02,Lawrence St & Willoughby St,4596.09,40.693273902,-73.95388341,40.69236178,-73.98631746,member
A2DDD05A851D0ECA,classic_bike,2023-05-10 17:54:13,2023-05-10 18:00:15,E 32 St & Park Ave,6280.12,Gramercy Park N & Gramercy Park E,6013.12,40.7457121,-73.98194829,40.73795,-73.98509,casual
A95A04E291BB7F82,classic_bike,2023-05-08 12:47:54,2023-05-08 12:52:19,Leonard St & Boerum St,5036.06,Scholes St & Manhattan Ave,5108.01,40.70583339,-73.94644578,40.70870368,-73.9448625,member
0C714EFEA3CAA1F8,electric_bike,2023-05-09 13:41:11,2023-05-09 13:51:03,36 St & 3 Ave,3460.02,57 St & 1 Ave,3178.02,40.655716,-74.006664,40.646377,-74.023087,member
C3F0088E206B3462,classic_bike,2023-05-29 15:20:44,2023-05-29 15:57:51,Morton St & Washington St,5772.05,Riverside Dr & W 78 St,7340.06,40.73115,-74.00887,40.78414472,-73.98362492,casual
B1F12B756A76D1BE,classic_bike,2023-05-27 13:35:36,2023-05-27 13:57:34,Centre St & Chambers St,5207.01,Fulton St & Adams St,4637.06,40.71273266,-74.0046073,40.69241829257847,-73.98949474096298,casual
2044D8F5C2E0BF15,classic_bike,2023-05-23 11:43:39,2023-05-23 11:55:08,Cleveland Pl & Spring St,5492.05,Greenwich Ave & 8 Ave,6072.06,40.722103786686034,-73.99724900722504,40.7390169121,-74.0026376103,casual
A91F58B5942F48DA,classic_bike,2023-05-06 11:43:04,2023-05-06 11:52:58,E 47 St & 1 Ave,6498.09,E 40 St & Park Ave,6432.11,40.75206862,-73.96784384,40.750756,-73.978326,casual
24EAB2E32F4C3CC3,classic_bike,2023-05-25 19:17:41,2023-05-25 19:28:02,Fulton St & Irving Pl,4263.12,Berkeley Pl & 6 Ave,4134.06,40.68186,-73.959432,40.6765304,-73.97846879,member
F6CE7329C9C2C19E,electric_bike,2023-05-22 05:37:04,2023-05-22 05:46:11,W 22 St & 10 Ave,6306.06,Washington St & Laight St,5509.02,40.74691959,-74.00451887,40.72231,-74.0106,member
7FD979CDDA7BF3BE,electric_bike,2023-05-19 13:34:47,2023-05-19 13:55:40,9 Ave & W 18 St,6190.08,Old Slip & South St,4993.13,40.74317449,-74.00366443,40.70336686695866,-74.007867872715,casual
EBF0BBBD19261F99,classic_bike,2023-05-26 09:46:53,2023-05-26 09:50:52,2 Ave & E 31 St,6197.02,E 32 St & Park Ave,6280.12,40.74290902,-73.97706058,40.7457121,-73.98194829,member
D09EFCAF119E3BB1,classic_bike,2023-05-23 14:46:31,2023-05-23 14:54:07,E 6 St & Avenue D,5506.14,E 5 St & Cooper Sq,5712.12,40.722304583,-73.976697445,40.72769,-73.990993,member
6E7B946756F7F59C,electric_bike,2023-05-01 16:16:39,2023-05-01 16:29:37,E 161 St & River Ave,8041.07,W 186 St & St. Nicholas Ave,8416.1,40.827883,-73.927111,40.852253,-73.931308,casual
A06F8E49F790ED22,classic_bike,2023-05-19 16:27:24,2023-05-19 17:04:33,5 Ave & E 72 St,7100.07,Broadway & W 61 St,7014.12,40.77282817,-73.96685276,40.77003010255044,-73.9819684624672,casual
5F337AB7ACDCF24A,classic_bike,2023-05-24 10:25:09,2023-05-24 10:28:22,33 St & 47 Ave,6185.04,39 St & 47 Ave,6143.05,40.742814183,-73.93210876,40.74215636827728,-73.92662644386292,member
72700530CD79CD6D,classic_bike,2023-05-09 05:48:17,2023-05-09 05:53:54,Lispenard St & Broadway,5391.06,Division St & Bowery,5270.08,40.71939226,-74.00247214,40.714193,-73.996732,member
6CFF0F9648F5D7EA,classic_bike,2023-05-06 16:50:42,2023-05-06 17:35:54,Central Park West & W 72 St,7141.07,5 Ave & E 87 St,7323.09,40.77579376683666,-73.9762057363987,40.78232260730881,-73.95987510681152,casual
5222EA7D85481F0C,classic_bike,2023-05-13 15:18:10,2023-05-13 15:47:48,Roosevelt Island Tramway,6599.01,Motorgate,6814.01,40.757284,-73.9536,40.7639089,-73.9477213,casual
6F9C1909F3C0B2D0,classic_bike,2023-05-31 20:48:07,2023-05-31 20:51:59,44 Dr & Jackson Ave,6352.01,Queens Plaza North & Crescent St,6429.01,40.74718234,-73.9432635,40.75110165,-73.94073717,member
80E8BBE88E9EDF81,classic_bike,2023-05-19 06:26:19,2023-05-19 06:34:54,Columbus Ave & W 95 St,7520.07,Broadway & W 61 St,7014.12,40.7919557,-73.968087,40.77003010255044,-73.9819684624672,member
1AAD656558DB1E57,classic_bike,2023-05-29 18:04:33,2023-05-29 18:08:18,Amsterdam Ave & W 156 St,8104.1,Riverside Dr & W 145 St,8018.04,40.832033277,-73.942469239,40.827305,-73.951989,member
0357251472C2D13D,classic_bike,2023-05-28 19:25:39,2023-05-28 19:58:05,Carmine St & 6 Ave,5763.03,E 51 St & 2 Ave,6575.03,40.73038599,-74.00214988,40.755293,-73.967641,member
87980A9B7335CBAA,classic_bike,2023-05-08 16:55:57,2023-05-08 17:08:30,Bridge St & Water St,4968.03,E 4 St & 2 Ave,5593.04,40.70296934155272,-73.98469090461731,40.7262807,-73.98978041,member
9C06D55659F1C4FE,classic_bike,2023-05-10 15:48:30,2023-05-10 17:12:05,Broadway & W 155 St,8123.02,Broadway & W 155 St,8123.02,40.833110213,-73.945800185,40.83299,-73.94592,casual
1A2B244C8FE69F51,classic_bike,2023-05-24 18:38:49,2023-05-24 18:57:08,Broadway & Kent Ave,5134.09,Bridge St & Water St,4968.03,40.710888,-73.968329,40.70296934155272,-73.98469090461731,casual
27F8596345831217,classic_bike,2023-05-17 18:11:44,2023-05-17 18:35:59,W 34 St & 11 Ave,6578.01,West St & Liberty St,5184.08,40.75594159,-74.0021163,40.711444,-74.014847,member
FFDE9EC5BD483489,docked_bike,2023-05-08 13:23:45,2023-05-08 17:11:34,5 Ave & E 78 St,7161.08,5 Ave & E 63 St,6904.06,40.776321,-73.964274,40.766368,-73.971518,casual
B3EBB3F1D3A5542F,classic_bike,2023-05-02 17:13:26,2023-05-02 17:19:54,E 51 St & Lexington Ave,6659.01,Broadway & W 41 St,6560.01,40.75757277,-73.971795201,40.75513557,-73.98658032,member
ED18371BFBC3D6C1,classic_bike,2023-05-19 07:29:29,2023-05-19 07:30:42,14 St & 7 Ave,3731.11,10 St & 7 Ave,3762.08,40.663778186,-73.983971596,40.6662078,-73.98199886,member
31365077FFD3E98A,classic_bike,2023-05-07 17:59:24,2023-05-07 18:42:41,10 Ave & W 14 St,6157.04,West St & Liberty St,5184.08,40.74198159994023,-74.00831580162048,40.711444,-74.014847,casual
A84DA421FE559449,electric_bike,2023-05-14 13:15:24,2023-05-14 13:19:13,10 Ave & W 14 St,6157.04,Washington St & Barrow St,5847.08,40.74198159994023,-74.00831580162048,40.73191132323174,-74.008769094944,casual
D84F91CCE30C6BCF,electric_bike,2023-05-15 15:18:50,2023-05-15 15:34:06,Midwood St & Kingston Ave,3648.06,Eastern Pkwy & Troy Ave,3862.07,40.66067,-73.94243,40.66929,-73.93679,member
BC468E141D55D5E8,classic_bike,2023-05-07 13:55:54,2023-05-07 14:07:52,W 47 St & 9 Ave,6786.02,Bank St & Hudson St,5922.08,40.761482,-73.990114808,40.73652889,-74.00618026,member
8AA4C705A34C8D8D,classic_bike,2023-05-06 13:27:25,2023-05-06 13:38:34,MacDougal St & Washington Sq,5797.01,MacDougal St & Washington Sq,5797.01,40.73226398,-73.99852205,40.73226398,-73.99852205,member
3AFBF78726FD72F8,classic_bike,2023-05-03 19:24:57,2023-05-03 19:43:06,Underhill Ave & Lincoln Pl,4042.08,Kent Ave & N 7 St,5489.03,40.673900843,-73.96713531,40.72036775298455,-73.96165072917938,member
A53681A8C38FC0B7,classic_bike,2023-05-17 19:37:37,2023-05-17 19:46:09,Broadway & W 155 St,8123.02,W 181 St & Riverside Dr,8381.04,40.833168387,-73.945820332,40.85168,-73.94186,member
848A8151D4A310DC,classic_bike,2023-05-04 17:35:29,2023-05-04 17:47:27,Steinway St & 19 Ave,7220.01,Newton Rd & 44 St,6743.06,40.778089,-73.899558,40.7595701,-73.9142678,member
2F4D56E00F2B8680,classic_bike,2023-05-30 14:44:58,2023-05-30 15:08:11,W 54 St & 6 Ave,6771.13,5 Ave & E 87 St,7323.09,40.761865,-73.977242,40.78232260730881,-73.95987510681152,casual
2B413D04AAC2634F,classic_bike,2023-05-06 20:42:50,2023-05-06 21:07:17,Bergen St & Vanderbilt Ave,4157.1,N 5 St & Northside Piers,5458.02,40.679458141,-73.967948675,40.72,-73.96,member
3AC59E031CEB53EE,classic_bike,2023-05-25 08:46:55,2023-05-25 08:48:33,E 25 St & 2 Ave,6046.02,E 27 St & 1 Ave,6004.06,40.73912601,-73.97973776,40.739445,-73.976806,member
54B100D2F5C8C569,classic_bike,2023-05-21 15:24:54,2023-05-21 16:09:56,Bergen St & Vanderbilt Ave,4157.1,N 7 St & Driggs Ave,5340.01,40.6794388,-73.9680438,40.72,-73.96,casual
02139957198F1F44,classic_bike,2023-05-31 00:31:21,2023-05-31 00:38:02,8 Ave & W 31 St,6450.05,W 41 St & 8 Ave,6602.03,40.750549555,-73.994776607,40.75640548,-73.9900262,member
64FB529FCCEC31C3,classic_bike,2023-05-24 18:29:03,2023-05-24 18:40:06,W 44 St & 5 Ave,6551.02,Broadway & W 58 St,6948.10,40.75500254,-73.98014437,40.76695317,-73.98169333,member
E840203BC54917AF,classic_bike,2023-05-14 06:31:44,2023-05-14 06:41:02,DeKalb Ave & S Portland Ave,4546.04,Kingston Ave & Herkimer St,4205.06,40.689811587,-73.974787235,40.67890679,-73.94142771,member
FA5E3147CD1DA35D,classic_bike,2023-05-21 23:23:37,2023-05-21 23:29:18,W 106 St & Amsterdam Ave,7634.01,Lenox Ave & W 117 St,7655.22,40.800751925,-73.966465712,40.8025566,-73.9490782,member
AE393D3208892F8A,classic_bike,2023-05-15 13:56:16,2023-05-15 14:07:15,Clinton St & Grand St,5303.06,Howard St & Lafayette St,5422.04,40.71559509,-73.9870295,40.71910537,-73.99973337,member
88EF3C92A6C66D15,electric_bike,2023-05-25 14:20:44,2023-05-25 14:51:02,W 17 St & 8 Ave,6148.02,West St & Chambers St,5329.03,40.74177603,-74.00149746,40.71754834,-74.01322069,casual
023DC4AEE9FA896C,classic_bike,2023-05-14 16:38:10,2023-05-14 16:38:25,Central Park W & W 91 St,7453.01,Central Park W & W 91 St,7453.01,40.78866499127884,-73.96680057048798,40.78866499127884,-73.96680057048798,casual
6E09F3293D623946,classic_bike,2023-05-28 11:43:30,2023-05-28 11:49:44,Hope St & Union Ave,5187.03,Metropolitan Ave & Bedford Ave,5308.04,40.71167351,-73.95141312,40.71534825,-73.96024116,casual
BD7A56ECEC035515,classic_bike,2023-05-03 23:07:47,2023-05-03 23:11:29,Broadway & W 53 St,6779.05,W 53 St & 10 Ave,6890.01,40.76344058,-73.98268129,40.76669671,-73.99061728,member
834927D7E79FAC43,classic_bike,2023-05-23 19:23:28,2023-05-23 19:33:04,Howard St & Lafayette St,5422.04,Suffolk St & Stanton St,5445.02,40.71910537,-73.99973337,40.72066442,-73.98517977,member
B889AB97F71E66F0,classic_bike,2023-05-10 17:13:35,2023-05-10 17:32:27,Lafayette St & E 8 St,5788.13,6 Ave & W 45 St,6593.15,40.73020660529954,-73.99102628231049,40.756951,-73.982631,member
B52A7CFA56DE7C6C,electric_bike,2023-05-15 16:06:25,2023-05-15 16:13:58,E 76 St & Park Ave,7128.08,Central Park West & W 76 St,7253.04,40.773763,-73.96222088,40.77896784,-73.97374737,casual
D6DF63AC09CB153B,electric_bike,2023-05-07 15:34:32,2023-05-07 15:55:14,St Marks Pl & 1 Ave,5626.13,Broadway & W 61 St,7014.12,40.72779126,-73.98564945,40.77003010255044,-73.9819684624672,member
EF583E2CA0BB7892,classic_bike,2023-05-03 07:49:56,2023-05-03 07:54:05,S 4 St & Wythe Ave,5204.05,Berry St & N 8 St,5379.09,40.71285887,-73.96590294,40.7190095,-73.95852515,member
3E12E85798766B18,classic_bike,2023-05-23 06:37:47,2023-05-23 06:45:00,E 106 St & 1 Ave,7456.03,E 88 St & Park Ave,7293.10,40.789238334,-73.939529657,40.781410700190015,-73.95595908164978,member
97A413A686F57AA2,classic_bike,2023-05-03 08:23:26,2023-05-03 08:30:36,5 Ave & E 103 St,7511.19,Lenox Ave & W 117 St,7655.22,40.7922553,-73.95249933,40.8025566,-73.9490782,member
016346219887CFDF,classic_bike,2023-05-11 08:31:26,2023-05-11 09:05:21,N 5 St & Northside Piers,5458.02,S Portland Ave & Hanson Pl,4354.05,40.72,-73.96,40.68539567,-73.97431458,member
09580D491D82BF6F,classic_bike,2023-05-06 14:30:53,2023-05-06 14:33:41,Amsterdam Ave & W 175 St,8278.05,Amsterdam Ave & W 162 St,8172.07,40.84400928,-73.933700085,40.83618,-73.939789,member
EA92CB3E57DAEFBA,classic_bike,2023-05-05 17:35:50,2023-05-05 17:37:59,E 4 St & Ave B,5515.08,Suffolk St & Stanton St,5445.02,40.72334683218016,-73.98265913128853,40.72066442,-73.98517977,member
D1C679422C67B547,classic_bike,2023-05-07 19:42:53,2023-05-07 19:53:24,Union St & Bedford Ave,3879.04,Clermont Ave & Lafayette Ave,4461.01,40.669174433,-73.955190301,40.68764484,-73.96968902,member
3BA1E7F859FB45E9,classic_bike,2023-05-17 20:38:36,2023-05-17 20:54:59,India St & Manhattan Ave,5826.02,Grand St & Havemeyer St,5267.08,40.732320189,-73.954778433,40.71286844,-73.95698119,member
3A603A89ED7B93BB,classic_bike,2023-05-29 14:17:01,2023-05-29 14:34:15,S 4 St & Wythe Ave,5204.05,Grand Army Plaza & Plaza St West,4010.15,40.712902308,-73.965971351,40.6729679,-73.97087984,member
49F6276822565311,classic_bike,2023-05-23 11:48:29,2023-05-23 11:55:36,28 St & 41 Ave,6462.19,31 St & Broadway,6789.04,40.750675559,-73.937970519,40.761584,-73.925921,member
54BB6D9AAA8752C7,classic_bike,2023-05-07 11:48:15,2023-05-07 12:01:51,E 76 St & Park Ave,7128.08,Broadway & W 61 St,7014.12,40.773881912,-73.962334871,40.77003010255044,-73.9819684624672,member
3E2915073ADEA66A,classic_bike,2023-05-26 16:53:10,2023-05-26 17:10:47,Fulton St & Clermont Ave,4386.05,Grand St & Havemeyer St,5267.08,40.684137106,-73.969252467,40.71286844,-73.95698119,member
2339DACA6F428069,classic_bike,2023-05-31 05:54:52,2023-05-31 06:06:06,61 St & Woodside Ave,6191.06,Bulova Ave & Brooklyn Queens Expressway W,6766.03,40.745060921,-73.903623343,40.762507,-73.902534,casual
EEB51B6E25AEDB6D,classic_bike,2023-05-06 18:56:19,2023-05-06 19:25:31,9 Ave & W 18 St,6190.08,E 81 St & Park Ave,7188.10,40.74317449,-74.00366443,40.77677702,-73.9590097,member
C06961DCCF97CC48,classic_bike,2023-05-09 00:53:20,2023-05-09 01:13:58,MacDougal St & Prince St,5687.04,8 Ave & W 38 St,6526.05,40.72710258,-74.00297088,40.75461,-73.99177,member
04DF5FB493022F50,classic_bike,2023-05-06 16:42:32,2023-05-06 17:11:20,Central Park West & W 76 St,7253.04,8 Ave & W 38 St,6526.05,40.77882266,-73.973895192,40.75461,-73.99177,casual
6D75FC321E0910A6,classic_bike,2023-05-18 13:32:44,2023-05-18 13:41:57,Westchester Ave & Longwood Ave,7909.07,Walton Ave & E 171 St,8249.10,40.819877028,-73.901225328,40.840683,-73.915073,member
5B36AF4D78548C67,classic_bike,2023-05-31 16:00:22,2023-05-31 16:05:51,W 54 St & 11 Ave,6955.05,W 44 St & 11 Ave,6756.05,40.768333,-73.992573,40.762009,-73.996975,member
7E585344C4176FB0,classic_bike,2023-05-25 08:02:05,2023-05-25 08:06:39,W 30 St & 8 Ave,6373.07,9 Ave & W 18 St,6190.08,40.749167204,-73.994974971,40.74317449,-74.00366443,member
0419116214975444,classic_bike,2023-05-11 09:05:15,2023-05-11 09:23:55,E 14 St & Avenue B,5736.09,Greenwich St & W Houston St,5730.08,40.72938685,-73.97772429,40.728846,-74.008591,member
578A70E1B6B488B6,electric_bike,2023-05-17 09:02:24,2023-05-17 09:05:57,Bayard St & Leonard St,5442.05,Metropolitan Ave & Bedford Ave,5308.04,40.71915571696044,-73.94885390996933,40.71534825,-73.96024116,member
8B58D8CE941EC89A,electric_bike,2023-05-26 08:18:00,2023-05-26 08:24:33,36 Ave & 31 St,6572.08,36 St & Queens Blvd,6260.04,40.75651272984955,-73.92957486212252,40.74408,-73.92901,member
93322C4871FEBC59,classic_bike,2023-05-26 17:25:04,2023-05-26 17:48:36,Christopher St & Greenwich St,5847.01,Allen St & Rivington St,5414.06,40.73291553,-74.00711384,40.72019576,-73.98997825,casual
165F293C8F1F9FC3,electric_bike,2023-05-06 20:23:58,2023-05-06 20:49:47,Columbus Ave & W 72 St,7175.05,9 Ave & W 22 St,6266.06,40.7770575,-73.97898475,40.7454973,-74.00197139,casual
8BEE8B438B268AEB,classic_bike,2023-05-23 13:35:49,2023-05-23 14:04:17,Delancey St & Eldridge St,5414.07,Stewart Ave & Johnson Ave,5123.07,40.719352245,-73.991563559,40.70869,-73.92587,member
90DCC0794F8E4BD0,classic_bike,2023-05-17 16:55:40,2023-05-17 17:13:54,E Burnside Ave & Ryer Ave,8397.02,Brook Ave & E 141 St,7740.08,40.850436926,-73.901348114,40.809619,-73.917875,member
EFF2C7F6F25CBD50,electric_bike,2023-05-05 01:16:22,2023-05-05 01:24:45,W 36 St & 9 Ave,6569.07,2 Ave & E 29 St,6122.09,40.75462324029105,-73.99516761302948,40.74172351097472,-73.97809267044067,member
B5041B0DD1EB600F,classic_bike,2023-05-28 13:12:39,2023-05-28 14:17:37,Central Park West & W 85 St,7354.01,Central Park W & W 91 St,7453.01,40.78476,-73.969862,40.78866499127884,-73.96680057048798,casual
9C81BFDDEC708A94,classic_bike,2023-05-17 18:19:13,2023-05-17 18:38:41,W 30 St & 10 Ave,6459.07,Morton St & Washington St,5772.05,40.752694,-74.002353,40.73115,-74.00887,casual
E1DFB68896C1450A,classic_bike,2023-05-14 12:32:07,2023-05-14 12:44:31,E 89 St & 3 Ave,7265.1,7 Ave & Central Park South,6912.01,40.780441046,-73.952273369,40.7667405590595,-73.9790689945221,member
0D25DC12F84B318C,electric_bike,2023-05-12 07:11:14,2023-05-12 07:22:22,Gramercy Park N & Gramercy Park E,6013.12,W 47 St & 6 Ave,6667.04,40.73795,-73.98509,40.758397,-73.98255,member
C99871FEA68EF644,classic_bike,2023-05-22 23:08:53,2023-05-22 23:08:56,E 7 St & Ave B,5584.05,E 7 St & Ave B,5584.05,40.7251285241158,-73.98131668567657,40.7251285241158,-73.98131668567657,member
9484FA22328BBB73,electric_bike,2023-05-07 17:55:21,2023-05-07 18:06:46,Clinton St & Grand St,5303.06,Madison St & Clinton St,5190.07,40.71559509,-73.9870295,40.71269042,-73.98776323,member
D8E831327F71AB0D,classic_bike,2023-05-16 17:18:17,2023-05-16 17:24:11,University Pl & E 8 St,5755.14,Greenwich Ave & Charles St,5914.08,40.73143724085228,-73.99490341544151,40.735238,-74.000271,member
69851E6A9B127378,classic_bike,2023-05-24 07:51:15,2023-05-24 07:59:12,Nassau Ave & Russell St,5581.01,N 7 St & Driggs Ave,5340.01,40.72557,-73.94434,40.716967,-73.956388,member
1CED9D4794453A0D,classic_bike,2023-05-15 09:16:20,2023-05-15 09:51:58,W 44 St & 11 Ave,6756.05,Old Slip & South St,4993.13,40.762009,-73.996975,40.70336686695866,-74.007867872715,member
5EF2F7D26B2ABFB1,classic_bike,2023-05-02 18:37:10,2023-05-02 18:46:56,W 20 St & 5 Ave,6098.02,Broadway & E 14 St,5905.12,40.73972989238724,-73.99103969335556,40.73454567,-73.99074142,member
5AA90EC13D5C7C96,classic_bike,2023-05-01 20:00:36,2023-05-01 20:12:43,W 21 St & 6 Ave,6140.05,E 32 St & Park Ave,6280.12,40.741740823,-73.99407506,40.7457121,-73.98194829,member
B95F23BDA224161D,classic_bike,2023-05-06 18:17:46,2023-05-06 18:30:54,5 Ave & W 126 St,7701.21,E 106 St & Madison Ave,7528.31,40.80722,-73.9418,40.7934337,-73.94945003,member
8FF4B68C4951356E,classic_bike,2023-05-31 22:05:37,2023-05-31 22:09:15,Schermerhorn St & Hoyt St,4479.1,Myrtle Ave & Fleet Pl,4628.07,40.6886263,-73.9851911,40.693534,-73.981909,member
B73F89CE866524C5,classic_bike,2023-05-21 18:21:51,2023-05-21 18:30:42,Mercer St & Spring St,5532.01,W 13 St & 7 Ave,6030.04,40.72362738,-73.99949601,40.73781509,-73.99994661,member
7A44F499A3FFACD7,classic_bike,2023-05-18 19:55:54,2023-05-18 20:00:02,W 54 St & 9 Ave,6920.03,8 Ave & W 52 St,6816.07,40.76584941,-73.98690506,40.76370739,-73.9851615,member
8EF53B1037CB1DE0,classic_bike,2023-05-29 17:00:59,2023-05-29 17:54:24,E 26 St & 3 Ave,6089.11,2 Ave & E 29 St,6122.09,40.74069317733043,-73.98160636425018,40.74172351097472,-73.97809267044067,member
AC386609A4A3EE4D,classic_bike,2023-05-27 21:09:42,2023-05-27 21:14:30,West Drive & Prospect Park West,3651.04,Prospect Park SW & Greenwood Ave,3385.06,40.6610633719006,-73.97945255041122,40.652563,-73.972573,member
6E255CF70FCBA947,classic_bike,2023-05-21 19:32:01,2023-05-21 19:50:06,W 16 St & The High Line,6233.05,W 43 St & 10 Ave,6756.01,40.74334935,-74.00681753,40.76009437,-73.99461843,casual
C428BB90CA5D2120,electric_bike,2023-05-23 16:44:50,2023-05-23 17:02:04,Columbus Ave & W 72 St,7175.05,W 110 St & Amsterdam Ave,7646.04,40.7770575,-73.97898475,40.802692,-73.96295,member
FD2C66F253EAE2A2,classic_bike,2023-05-31 22:07:24,2023-05-31 22:30:50,West End Ave & W 60 St,7059.08,Mott St & Prince St,5561.04,40.772397161,-73.98999393,40.72317958,-73.99480012,casual
2940EB3D6D9D6F38,classic_bike,2023-05-03 19:33:11,2023-05-03 19:41:56,8 Ave & W 27 St,6297.07,W 42 St & 6 Ave,6517.08,40.748028994,-73.996563196,40.75492,-73.98455,member
29DB07972C293700,classic_bike,2023-05-14 21:13:50,2023-05-14 21:29:33,Manhattan Ave & Devoe St,5219.05,E 2 St & Avenue B,5515.02,40.71,-73.95,40.72217444,-73.98368779,member
B4BACDBA6FE0603B,classic_bike,2023-05-10 20:31:29,2023-05-10 21:18:19,6 Ave & W 33 St,6364.07,E 89 St & York Ave,7204.08,40.74901271,-73.98848395,40.7779453,-73.946041,member
2A77C21565E6DEEF,classic_bike,2023-05-22 17:51:06,2023-05-22 18:07:20,Lafayette Ave & Classon Ave,4452.01,Kent Ave & Grand St,5388.01,40.68900443,-73.96023854,40.716425,-73.96594,member
4E76E97952C08A26,classic_bike,2023-05-04 19:32:45,2023-05-04 20:32:29,N 7 St & Driggs Ave,5340.01,W 54 St & 11 Ave,6955.05,40.72,-73.96,40.768333,-73.992573,member
51A7D58D49989127,classic_bike,2023-05-15 13:01:14,2023-05-15 13:14:35,St Nicholas Ave & Manhattan Ave,7723.01,E 106 St & Madison Ave,7528.31,40.809725,-73.953149,40.7934337,-73.94945003,member
FD8D613B22702B34,classic_bike,2023-05-03 09:05:43,2023-05-03 09:21:09,E 72 St & York Ave,6889.12,2 Ave & E 29 St,6122.09,40.766696215,-73.953502774,40.74172351097472,-73.97809267044067,member
E701CA0BBBAE41D7,electric_bike,2023-05-12 13:50:45,2023-05-12 13:53:20,Broadway & E 19 St,6098.12,University Pl & E 14 St,5905.14,40.73866091428551,-73.98987293243407,40.734814,-73.992085,member
9B85344237F21477,classic_bike,2023-05-08 09:16:12,2023-05-08 09:35:20,East End Ave & E 86 St,7113.08,E 53 St & 3 Ave,6617.02,40.77518615,-73.94446054,40.75763227739443,-73.96930575370789,member
E0D436295BEF1E4A,electric_bike,2023-05-16 10:45:47,2023-05-16 11:08:34,Albany Ave & Park Pl,3975.02,Broadway & Berry St,5164.05,40.67297,-73.93896,40.71036129922581,-73.96530389785767,member
43B66CDA71B1AE12,classic_bike,2023-05-19 19:39:17,2023-05-19 19:58:17,Driggs Ave & S 2 St,5235.1,Rutgers St & Henry St,5230.02,40.71,-73.96,40.71332151208186,-73.99009689688683,member
C0F0FD76CF6BA7C6,classic_bike,2023-05-30 08:55:54,2023-05-30 09:00:23,St Marks Pl & 2 Ave,5669.1,University Pl & E 14 St,5905.14,40.7284186,-73.98713956,40.734814,-73.992085,member
B890A64E130876F6,electric_bike,2023-05-03 16:44:06,2023-05-03 17:05:39,Park Cir & East Dr,3344.02,Clinton St & Joralemon St,4605.04,40.651566,-73.972212,40.69239502,-73.99337909,member
47CC03F7B6218E6B,classic_bike,2023-05-23 22:48:38,2023-05-23 23:04:47,Lefferts Pl & Franklin Ave,4222.02,Boerum St & Broadway,5004.02,40.680342423,-73.9557689392,40.70538077,-73.94976519,casual
AEEEBA61513E6C40,classic_bike,2023-05-02 19:30:15,2023-05-02 19:39:25,S 4 St & Wythe Ave,5204.05,Delancey St & Eldridge St,5414.07,40.712972999,-73.96605885,40.719383,-73.991479,member
35A3B91CDE8F1FCD,classic_bike,2023-05-24 09:07:05,2023-05-24 09:13:31,W 18 St & 6 Ave,6064.08,W 42 St & 6 Ave,6517.08,40.739649773,-73.994685531,40.75492,-73.98455,member
85E134C6D7EDE7E4,classic_bike,2023-05-18 12:15:51,2023-05-18 12:39:19,E 68 St & 3 Ave,6896.16,Central Park West & W 68 St,7079.06,40.76712840349542,-73.96224617958069,40.7734066,-73.97782542,casual
9EF388DA21862CF3,classic_bike,2023-05-02 00:44:31,2023-05-02 00:51:42,E 5 St & Cooper Sq,5712.12,E 27 St & 1 Ave,6004.06,40.72769,-73.990993,40.739445,-73.976806,member
17ED637D68A54669,classic_bike,2023-05-11 00:42:34,2023-05-11 00:52:12,11 Ave & W 41 St,6726.01,E 44 St & Lexington Ave,6464.09,40.76030096,-73.99884222,40.752643,-73.974996,member
841E9C9328C622DD,classic_bike,2023-05-31 08:35:45,2023-05-31 08:40:31,Carroll St & 5 Ave,4060.09,Douglass St & 3 Ave,4217.02,40.6751622,-73.9814832,40.6802133,-73.98432695,member
378D60BFD42E006E,classic_bike,2023-05-09 15:55:43,2023-05-09 16:03:09,E 4 St & Ave B,5515.08,Mercer St & Bleecker St,5679.05,40.72334683218016,-73.98265913128853,40.72706363348306,-73.99662137031554,member
3AD817114AD40EA8,classic_bike,2023-05-30 07:45:35,2023-05-30 07:48:37,Market St & Cherry St,5198.04,Rutgers St & Henry St,5230.02,40.71076228,-73.99400398,40.71332151208186,-73.99009689688683,member
52CC70FA7778341C,classic_bike,2023-05-21 16:07:10,2023-05-21 16:22:47,Broadway & Kent Ave,5134.09,Franklin St & Dupont St,5944.01,40.71,-73.97,40.73564,-73.95866,casual
FB7ED8C66BA25711,classic_bike,2023-05-17 08:40:02,2023-05-17 08:44:43,2 Ave & E 31 St,6197.02,E 19 St & 3 Ave,5938.01,40.74290902,-73.97706058,40.73624527,-73.98473765,member
EA4AD1166186DB7A,classic_bike,2023-05-13 18:43:32,2023-05-13 19:18:01,E 54 St & 1 Ave,6608.09,Broadway & W 61 St,7014.12,40.756264091,-73.963817954,40.77003010255044,-73.9819684624672,member
25A4A68CD0CBE096,classic_bike,2023-05-23 19:37:15,2023-05-23 19:43:13,Central Park West & W 72 St,7141.07,Central Park W & W 91 St,7453.01,40.77579376683666,-73.9762057363987,40.78866499127884,-73.96680057048798,member
962EB6CEEB24E382,classic_bike,2023-05-19 18:02:19,2023-05-19 18:11:38,Dock 72 Way & Market St,4804.02,Myrtle Ave & St Edwards St,4659.02,40.69985,-73.97141,40.69327018,-73.97703874,member
6CF5292CEEC6D17D,classic_bike,2023-05-23 09:20:28,2023-05-23 09:35:10,Vernon Blvd & 50 Ave,6170.02,Banker St & Meserole Ave,5633.04,40.74232744,-73.95411749,40.72606,-73.95621,member
6FDCE58E0CB6607B,classic_bike,2023-05-12 18:09:42,2023-05-12 18:34:00,St Marks Pl & 1 Ave,5626.13,Washington St & Laight St,5509.02,40.72779126,-73.98564945,40.72231,-74.0106,casual
DC0A4D6745188A6B,classic_bike,2023-05-31 19:40:32,2023-05-31 20:02:57,8 Ave & W 16 St,6072.11,W 67 St & Broadway,7116.04,40.740983,-74.001702,40.77492513,-73.98266566,member
B4A18C9460A40FA4,classic_bike,2023-05-30 08:44:41,2023-05-30 08:51:56,W 10 St & Washington St,5847.06,Cooper Square & Astor Pl,5712.03,40.73342399437081,-74.00851495563984,40.72951496224949,-73.99075269699097,member
3CE614267CAF7EF9,classic_bike,2023-05-27 23:03:16,2023-05-28 00:02:18,Central Park North & Adam Clayton Powell Blvd,7617.07,Nagle Ave & Thayer St,8563.06,40.799491405,-73.955653191,40.861382,-73.925591,member
000E3500525ADAF1,classic_bike,2023-05-27 23:51:02,2023-05-28 01:45:20,River Ave & E 151 St,7967.04,W 144 St & Adam Clayton Powell Blvd,7932.1,40.822099686,-73.928964376,40.820877,-73.939249,casual
E3373405EB46F746,classic_bike,2023-05-17 18:22:44,2023-05-17 18:26:40,Lafayette Ave & St James Pl,4494.04,Emerson Pl & Myrtle Ave,4683.02,40.68851534,-73.9647628,40.69363137,-73.96223558,member
46E934E950225B69,classic_bike,2023-05-06 12:06:52,2023-05-06 12:23:30,Lafayette Ave & Ft Greene Pl,4470.09,Kosciuszko St & Tompkins Ave,4553.04,40.68700231292619,-73.97664964199066,40.69128258,-73.9452416,member
7BD8BF0C09772BF1,classic_bike,2023-05-19 12:38:00,2023-05-19 13:11:28,W 51 St & Rockefeller Plaza,6700.14,W 180 St & Ft Washington Ave,8358.03,40.759952188,-73.978156447,40.849972,-73.938423,member
80B7240274B6D752,classic_bike,2023-05-31 21:19:31,2023-05-31 22:29:58,Ocean Pkwy & Church Ave,3125.09,Albemarle Rd & McDonald Ave,3166.03,40.64471895763575,-73.97451460361481,40.645074,-73.979681,casual
DECCC31417C79C40,classic_bike,2023-05-28 13:56:06,2023-05-28 14:08:53,Stanton St & Norfolk St,5445.07,Bayard St & Baxter St,5351.03,40.720915079,-73.986452699,40.71602118,-73.99974372,member
1B41D62A1FC68214,classic_bike,2023-05-19 17:40:27,2023-05-19 17:48:00,1 Ave & E 39 St,6303.01,Gramercy Park N & Gramercy Park E,6013.12,40.747525215,-73.970883727,40.73795,-73.98509,member
790EC6B1860C1E85,classic_bike,2023-05-13 17:40:17,2023-05-13 17:53:43,Broadway & E 19 St,6098.12,E 2 St & Avenue B,5515.02,40.73866091428551,-73.98987293243407,40.72217444,-73.98368779,member
FF7F53C3FCFAAFEE,docked_bike,2023-05-08 09:35:25,2023-05-08 10:06:12,Central Park S & 6 Ave,6876.04,5 Ave & E 87 St,7323.09,40.765909,-73.976342,40.782323,-73.959875,casual
B19589FACD8D7C32,classic_bike,2023-05-14 07:54:15,2023-05-14 07:57:50,2 Ave & E 72 St,6925.09,E 60 St & York Ave,6682.08,40.768546462,-73.958478212,40.759107,-73.959223,member
C4213AB48DD2DD65,classic_bike,2023-05-28 11:51:30,2023-05-28 13:05:38,W 106 St & Central Park West,7606.01,Central Park W & W 91 St,7453.01,40.7981856,-73.9605909006,40.78866499127884,-73.96680057048798,casual
26433EFA35D1CE3E,classic_bike,2023-05-25 07:02:21,2023-05-25 07:08:28,Christopher St & Greenwich St,5847.01,Greenwich St & Hubert St,5470.10,40.73291553,-74.00711384,40.721319,-74.010065,member
C08E9D1B9592FFC6,electric_bike,2023-05-12 15:45:39,2023-05-12 16:23:11,9 Ave & W 18 St,6190.08,Madison St & Clinton St,5190.07,40.74317449,-74.00366443,40.71269042,-73.98776323,member
213599BB4F5E27EC,classic_bike,2023-05-22 11:47:16,2023-05-22 11:53:17,Walker St & Baxter St,5351.07,Market St & Henry St,5270.09,40.717411,-73.999573,40.71310702305908,-73.99446353316307,member
FEEFB9C94186E48D,classic_bike,2023-05-26 14:19:28,2023-05-26 14:30:25,Washington Pl & Broadway,5755.01,E 32 St & Park Ave,6280.12,40.72903917,-73.99404649,40.7457121,-73.98194829,member
A06DF040A8457D1E,classic_bike,2023-05-18 09:20:22,2023-05-18 09:24:29,W 21 St & 6 Ave,6140.05,W 20 St & 10 Ave,6306.01,40.74173969,-73.99415556,40.745686,-74.005141,member
781C2B6326B9B6A9,classic_bike,2023-05-15 15:07:12,2023-05-15 15:18:53,Columbus Ave & W 95 St,7520.07,Columbus Ave & W 95 St,7520.07,40.7919557,-73.968087,40.7919557,-73.968087,member
FF52931597BB3FD1,classic_bike,2023-05-28 18:14:44,2023-05-28 18:23:41,W 33 St & 10 Ave,6492.04,W 37 St & 10 Ave,6611.02,40.75377336836039,-73.99937599897385,40.75660359,-73.9979009,member
C70B33702010D91E,classic_bike,2023-05-01 09:12:49,2023-05-01 09:33:03,N Moore St & Hudson St,5470.02,W 55 St & 6 Ave,6809.09,40.719823956,-74.008386493,40.763189,-73.978434,member
CA1212EAA3EBC9DC,classic_bike,2023-05-10 16:19:26,2023-05-10 16:28:14,E 77 St & 1 Ave,7020.02,E 67 St & Park Ave,6932.14,40.77095553869235,-73.95356208096926,40.76780080148132,-73.96592080593109,member
312DEFFDFC5A64C6,electric_bike,2023-05-03 14:44:55,2023-05-03 15:16:19,Carmine St & 6 Ave,5763.03,Franklin Ave & St Marks Ave,4107.05,40.73038599,-74.00214988,40.6758324,-73.9561677,member
00874F3820887540,electric_bike,2023-05-19 18:30:26,2023-05-19 18:41:14,Wilson Ave & Troutman St,4864.09,Scholes St & Lorimer St,5076.04,40.70166,-73.92754,40.71,-73.95,casual
A50DF10D946E395D,classic_bike,2023-05-18 13:41:02,2023-05-18 14:11:52,3 Ave & 14 St,3850.03,President St & Henry St,4307.13,40.6685455,-73.99333264,40.6828003,-73.99990419,member
AB34917CE0FE9418,classic_bike,2023-05-27 08:54:31,2023-05-27 09:03:03,Van Buren St & Broadway,4568.01,Stanhope St & Fairview Ave,5146.03,40.69215095,-73.926090837,40.70998,-73.91116,casual
0EB539669A3971CA,classic_bike,2023-05-10 13:47:22,2023-05-10 14:16:35,Cliff St & Fulton St,5065.14,8 Ave & W 38 St,6526.05,40.70838,-74.00495,40.75461,-73.99177,casual
D9495AE630F9430E,classic_bike,2023-05-27 11:50:34,2023-05-27 12:18:03,W 31 St & 7 Ave,6331.01,West St & Liberty St,5184.08,40.749156,-73.9916,40.711444,-74.014847,casual
D518578D2D7C9A3E,classic_bike,2023-05-07 09:37:48,2023-05-07 09:42:00,Queens Plaza North & Crescent St,6429.01,Queens Plaza North & Crescent St,6429.01,40.75110165,-73.94073717,40.75110165,-73.94073717,casual
09DA39C2C8DF019B,classic_bike,2023-05-12 16:04:34,2023-05-12 16:19:23,W 11 St & 6 Ave,5914.03,University Pl & E 14 St,5905.14,40.73532427,-73.99800419,40.734814,-73.992085,member
D5BFA63256D741D2,classic_bike,2023-05-17 09:19:12,2023-05-17 09:28:18,1 Ave & E 39 St,6303.01,W 47 St & 6 Ave,6667.04,40.74714,-73.97113,40.758397,-73.98255,member
EA1B43CE2C057B0D,classic_bike,2023-05-06 11:56:08,2023-05-06 12:19:40,Motorgate,6814.01,Motorgate,6814.01,40.7639089,-73.9477213,40.7639089,-73.9477213,casual
D0C5F47F1A07BB86,classic_bike,2023-05-03 19:04:58,2023-05-03 19:07:25,E 16 St & Irving Pl,5938.11,Gramercy Park N & Gramercy Park E,6013.12,40.735367055605394,-73.98797392845154,40.73795,-73.98509,member
B3C1EA6E521343F7,classic_bike,2023-05-15 20:50:29,2023-05-15 21:01:08,Albany St & Greenwich St,5145.02,Great Jones St,5636.11,40.709313869,-74.013577342,40.72743423,-73.99379025,member
59A6AB95DD06EE3D,classic_bike,2023-05-17 14:45:41,2023-05-17 14:54:12,E 149 St & Park Ave,7884.04,Lenox Ave & W 144 St,7910.01,40.818154,-73.925294,40.819783,-73.936521,member
A22B09B14AC4F529,electric_bike,2023-05-23 23:15:19,2023-05-23 23:44:09,Anthony Ave & E Tremont Ave,8356.04,Anthony Ave & E Tremont Ave,8356.04,40.848793,-73.903178,40.848793,-73.903178,member
EFA249302FDC09AE,classic_bike,2023-05-23 10:16:10,2023-05-23 10:19:18,Cumberland St & Lafayette Ave,4428.02,Hanson Pl & Ashland Pl,4395.07,40.68753406,-73.97265183,40.68506807308177,-73.97790759801863,member
7DEA4C6A1277FEEB,classic_bike,2023-05-10 16:27:09,2023-05-10 16:35:28,W 56 St & 6 Ave,6809.07,Broadway & W 41 St,6560.01,40.76340613,-73.97722479,40.75513557,-73.98658032,member
B7DE2B2BEEE1CDE0,classic_bike,2023-05-13 17:03:30,2023-05-13 17:07:26,Carmine St & 6 Ave,5763.03,Great Jones St,5636.11,40.730243802,-74.002340913,40.72743423,-73.99379025,member
8FC80D7CCAAD31B3,classic_bike,2023-05-06 19:11:16,2023-05-06 19:42:07,Underhill Ave & Lincoln Pl,4042.08,Grand Army Plaza & Plaza St West,4010.15,40.6740123,-73.9671457,40.6729679,-73.97087984,casual
65129E0184D86B71,classic_bike,2023-05-06 12:44:08,2023-05-06 12:47:47,E 19 St & 3 Ave,5938.01,E 25 St & 1 Ave,6004.07,40.73624527,-73.98473765,40.7381765,-73.97738662,member
DF9C9B94BECB787F,classic_bike,2023-05-22 15:46:52,2023-05-22 16:12:32,Rivington St & Chrystie St,5453.01,6 Ave & W 45 St,6593.15,40.72110063,-73.9919254,40.756951,-73.982631,member
25D7387B8CE4A136,classic_bike,2023-05-31 22:11:39,2023-05-31 22:13:28,Seneca Ave & Irvine St,7883.09,Faile St & Garrison Ave,7922.01,40.818226099,-73.888851404,40.820578,-73.888271,member
72C524B255F2D001,classic_bike,2023-05-17 12:19:45,2023-05-17 12:22:36,10 St & 5 Ave,3842.08,10 St & 7 Ave,3762.08,40.6686273,-73.98700053,40.6662078,-73.98199886,member
B34548F3C7F24145,electric_bike,2023-05-24 08:14:09,2023-05-24 08:23:58,W 95 St & Broadway,7541.01,E 97 St & Madison Ave,7393.09,40.7937704,-73.971888,40.787801,-73.953559,member
74AC122907CE3832,classic_bike,2023-05-07 11:43:00,2023-05-07 12:03:55,E 89 St & 3 Ave,7265.1,W 36 St & 7 Ave,6483.06,40.7806284,-73.9521667,40.752149,-73.989539,member
0523241086671F02,classic_bike,2023-05-05 18:19:22,2023-05-05 18:33:48,West St & Liberty St,5184.08,Old Slip & South St,4993.13,40.711546421,-74.014810085,40.70336686695866,-74.007867872715,member
8DC660441DA4E15B,classic_bike,2023-05-12 19:14:19,2023-05-12 19:20:31,W 16 St & The High Line,6233.05,W 15 St & 7 Ave,6030.06,40.74334935,-74.00681753,40.73935542,-73.99931783,member
2A1B2BBB744EC2CF,electric_bike,2023-05-31 14:54:51,2023-05-31 15:03:21,E 41 St & Madison Ave (SE corner),6432.1,2 Ave & E 29 St,6122.09,40.752049,-73.979635,40.74172351097472,-73.97809267044067,member
B09706526AA40DEA,electric_bike,2023-05-05 16:49:38,2023-05-05 16:56:48,E 58 St & 3 Ave,6762.02,1 Ave & E 68 St,6822.09,40.76095756,-73.96724467,40.76500525,-73.95818491,casual
EBE5374DADADC0A5,classic_bike,2023-05-14 15:50:58,2023-05-14 16:01:46,34 St & 4 Ave,3492.04,Albemarle Rd & McDonald Ave,3166.03,40.655311108,-74.003046393,40.645074,-73.979681,member
75CF41C805D8D278,classic_bike,2023-05-26 18:37:51,2023-05-26 18:49:19,Grand Army Plaza & Plaza St West,4010.15,Degraw St & Hoyt St,4258.07,40.6729679,-73.97087984,40.68199044270703,-73.99079024791718,member
016A30D38E4009F1,classic_bike,2023-05-15 09:18:09,2023-05-15 09:24:12,34th Ave & Vernon Blvd,6873.01,35 St & Broadway,6750.16,40.76535380385866,-73.93986314535141,40.760339,-73.9222427,member
112E7DD9EC181726,electric_bike,2023-05-06 15:27:08,2023-05-06 15:34:49,McGuinness Blvd & Eagle St,5977.01,Center Blvd & 48 Ave,6254.06,40.73555,-73.95284,40.745038,-73.957539,member
8DFCDEF0FEB84B0E,classic_bike,2023-05-30 19:05:34,2023-05-30 19:07:29,Lafayette St & E 8 St,5788.13,University Pl & E 8 St,5755.14,40.73020660529954,-73.99102628231049,40.73143724085228,-73.99490341544151,member
A18A329AAE995558,electric_bike,2023-05-10 17:20:17,2023-05-10 17:25:02,W 104 St & Amsterdam Ave,7610.13,Columbus Ave & W 95 St,7520.07,40.79904139288298,-73.96649479866028,40.7919557,-73.968087,member
73EE721823B32131,classic_bike,2023-05-19 14:13:09,2023-05-19 14:28:36,24 St & 41 Ave,6505.09,E 40 St & Park Ave,6432.11,40.752418995,-73.940045595,40.750756,-73.978326,member
E9C3100606CB332A,classic_bike,2023-05-16 13:50:18,2023-05-16 14:02:47,W 34 St & Hudson Blvd E,6535.04,E 19 St & 3 Ave,5938.01,40.755239964,-74.000769854,40.73624527,-73.98473765,member
A2138C59E54A5EE5,classic_bike,2023-05-15 08:40:07,2023-05-15 09:14:09,Clinton St & Tillary St,4748.07,6 Ave & W 45 St,6593.15,40.69623297129316,-73.99142056703568,40.756951,-73.982631,member
DCCE0F46EAF83881,classic_bike,2023-05-01 14:48:49,2023-05-01 14:55:25,E 77 St & 1 Ave,7020.02,E 84 St & Park Ave,7243.04,40.77095553869235,-73.95356208096926,40.77862688,-73.95772073,member
E43740CFFFE18C2E,electric_bike,2023-05-02 08:16:46,2023-05-02 08:43:00,Pacific St & Classon Ave,4148.07,N 11 St & Kent Ave,5489.04,40.6791944,-73.9587903,40.72248188638219,-73.95921930670738,member
2644EE20400CB9B6,classic_bike,2023-05-22 17:54:44,2023-05-22 18:04:30,W 22 St & 8 Ave,6224.03,Christopher St & Greenwich St,5847.01,40.74475148,-73.99915362,40.73291553,-74.00711384,member
C7267B7920A5BDC5,classic_bike,2023-05-22 15:09:16,2023-05-22 15:13:16,Fulton St & Irving Pl,4263.12,Dean St & Franklin Ave,4107.13,40.68186,-73.959432,40.67759206937376,-73.955637216568,member
0AA7CE618B73545B,classic_bike,2023-05-10 18:17:06,2023-05-10 18:53:17,W 54 St & 6 Ave,6771.13,Vesey Pl & River Terrace,5297.02,40.76,-73.98,40.7153379,-74.01658354,casual
9AD46788434888B7,classic_bike,2023-05-16 05:17:48,2023-05-16 06:08:50,E 141 St & St Ann's Ave,7722.06,E 60 St & York Ave,6682.08,40.808633,-73.916124,40.759107,-73.959223,casual
AEB7119A5BE395CF,docked_bike,2023-05-29 10:08:35,2023-05-29 10:25:54,Broadway & W 25 St,6173.08,Gramercy Park N & Gramercy Park E,6013.12,40.742869,-73.989186,40.73795,-73.98509,casual
29E85477279BA520,classic_bike,2023-05-19 13:20:32,2023-05-19 13:21:41,E Burnside Ave & Ryer Ave,8397.02,Anthony Ave & E Tremont Ave,8356.04,40.85052669,-73.90133822,40.848793,-73.903178,member
0E1B180B10FD374F,classic_bike,2023-05-29 10:45:18,2023-05-29 10:47:48,Webster Ave & Ford St,8472.08,Valentine Ave & E 181 St,8435.04,40.85556,-73.89615,40.854123869116,-73.89932222664356,member
A5DB15B0A05C432C,classic_bike,2023-05-16 09:17:47,2023-05-16 09:25:47,W 33 St & 10 Ave,6492.04,Broadway & W 41 St,6560.01,40.75377336836039,-73.99937599897385,40.75513557,-73.98658032,member
A86B2428F088A38B,classic_bike,2023-05-03 07:35:00,2023-05-03 07:39:07,W 48 St &  Rockefeller Plaza,6626.11,W 43 St & 6 Ave,6593.14,40.75776935448309,-73.97929430007935,40.75527307,-73.98316936,member
0C3CD1B42521326F,classic_bike,2023-05-25 09:12:36,2023-05-25 09:45:29,E 48 St & 5 Ave,6626.01,31 St & Broadway,6789.04,40.75709486,-73.978087068,40.761584,-73.925921,member
B51B36C0419FE9F1,classic_bike,2023-05-10 14:04:06,2023-05-10 14:08:54,E 65 St & 2 Ave,6860.12,E 53 St & 3 Ave,6617.02,40.764682651,-73.962314248,40.75763227739443,-73.96930575370789,member
7F521589F98D5B36,classic_bike,2023-05-08 19:27:46,2023-05-08 19:58:51,8 Ave & W 31 St,6450.05,Atlantic Ave & Fort Greene Pl,4354.07,40.7505853470215,-73.9946848154068,40.68382604,-73.97632328,member
C0F5F5E46475FC56,classic_bike,2023-05-30 08:06:44,2023-05-30 08:13:38,W 27 St & 6 Ave,6215.07,E 19 St & 3 Ave,5938.01,40.745252967,-73.990587711,40.73624527,-73.98473765,member
1408AC8F819B2294,electric_bike,2023-05-05 09:41:51,2023-05-05 09:58:55,Hancock St & Stuyvesant Ave,4383.06,Boerum St & Broadway,5004.02,40.68454,-73.9322,40.70538077,-73.94976519,member
0652B08B713EE2BE,classic_bike,2023-05-29 20:36:09,2023-05-29 20:47:57,Graham Ave & Herbert St,5403.05,N 11 St & Kent Ave,5489.04,40.71929301,-73.94500379,40.72248188638219,-73.95921930670738,casual
884C817721506518,classic_bike,2023-05-11 19:26:51,2023-05-11 19:35:17,1 Ave & E 18 St,5854.09,Lexington Ave & E 29 St,6164.09,40.73381219196632,-73.98054420948029,40.74311555376486,-73.98215353488922,casual
D067DA647023BB04,classic_bike,2023-05-01 06:59:13,2023-05-01 07:08:13,E 81 St & York Ave,7084.12,E 72 St & Park Ave,6998.08,40.7728384,-73.94989233,40.77118287540658,-73.96409422159195,member
A830C96E6F021EC8,classic_bike,2023-05-30 21:12:02,2023-05-30 21:31:30,Sheridan Ave & E 168 St,8160.03,Riverside Dr & W 145 St,8018.04,40.835268021,-73.915590405,40.827305,-73.951989,member
447D187C9677FE0B,classic_bike,2023-05-24 12:15:01,2023-05-24 12:42:04,Lenox Ave & W 115 St,7627.10,Lenox Ave & W 115 St,7627.1,40.801139474,-73.950074673,40.8011939,-73.9500739,member
EFA2E6EC5BF3D77E,classic_bike,2023-05-23 19:02:35,2023-05-23 19:15:15,Queens Plaza North & Crescent St,6429.01,Newtown Ave & 23 St,7026.08,40.75110165,-73.94073717,40.7713615,-73.9246145,member
1CC02836A4739A22,classic_bike,2023-05-12 21:00:00,2023-05-12 21:11:45,11 Ave & W 27 St,6425.04,W 25 St & 9 Ave,6339.06,40.751396,-74.005226,40.74783260583772,-74.0005722643582,casual
754371964A3FFCB0,electric_bike,2023-05-16 07:28:38,2023-05-16 07:46:27,Union St & 4 Ave,4175.15,Bergen St & Kingston Ave,4089.01,40.6772744,-73.98282002,40.6756,-73.9415,member
ADA1047113D3E753,classic_bike,2023-05-25 17:56:08,2023-05-25 18:16:11,2 Ave & E 29 St,6122.09,Division St & Bowery,5270.08,40.74172351097472,-73.97809267044067,40.714193,-73.996732,member
4B6228756DF23EBD,electric_bike,2023-05-05 21:34:50,2023-05-05 21:40:48,W 15 St & 7 Ave,6030.06,Great Jones St,5636.11,40.73935542,-73.99931783,40.72743423,-73.99379025,member
DC03C330095FDABA,classic_bike,2023-05-04 15:11:56,2023-05-04 15:13:13,Lexington Ave & E 26 St,6089.08,E 26 St & 3 Ave,6089.11,40.741459,-73.983293,40.74069317733043,-73.98160636425018,member
71C1317AF9BFAB81,classic_bike,2023-05-06 19:42:32,2023-05-06 20:12:23,Rogers Ave & Sterling St,3696.05,34 St & 5 Ave,3451.01,40.6630619,-73.9538746,40.654098,-74.001131,casual
D62748BCB5151BB0,classic_bike,2023-05-18 17:30:59,2023-05-18 17:54:06,E 48 St & 3 Ave,6541.03,Washington St & Laight St,5509.02,40.7546011026,-73.971878855,40.72231,-74.0106,member
FEED8D43A14E93AB,classic_bike,2023-05-11 18:40:20,2023-05-11 19:13:32,West End Ave & W 60 St,7059.08,Little West St & 1 Pl,5001.08,40.77237,-73.99005,40.70569254,-74.01677685,casual
5BB845E15C36C93B,classic_bike,2023-05-17 09:08:00,2023-05-17 09:11:24,Washington St & Gansevoort St,6039.06,Washington St & Barrow St,5847.08,40.739323,-74.008119,40.73191132323174,-74.008769094944,member
24D5DC178A9A58A0,classic_bike,2023-05-09 05:46:24,2023-05-09 06:08:56,Adelphi St & Myrtle Ave,4620.02,Harrison Pl & Porter Ave,5090.06,40.69308257,-73.97178913,40.70686,-73.92851,member
26EA5063A9EE0E83,classic_bike,2023-05-04 08:49:56,2023-05-04 09:07:00,Amsterdam Ave & W 66 St,7149.05,E 68 St & 3 Ave,6896.16,40.7746671,-73.98470567,40.76712840349542,-73.96224617958069,member
0CB0E2A96F7403E0,electric_bike,2023-05-14 16:14:42,2023-05-14 17:01:12,E 41 St & Madison Ave (SE corner),6432.1,Berkeley Pl & 6 Ave,4134.06,40.752049,-73.979635,40.6765304,-73.97846879,member
6139506E3DE72A2A,classic_bike,2023-05-13 12:16:05,2023-05-13 12:21:08,N 5 St & Northside Piers,5458.02,N 5 St & Northside Piers,5458.02,40.72,-73.96,40.72,-73.96,casual
1AF2EE54CEE552B8,classic_bike,2023-05-24 15:47:15,2023-05-24 16:23:02,Ogden Ave & W 165 St,8149.09,Ogden Ave & Merriam Ave,8218.04,40.834475279,-73.928392649,40.839142,-73.925961,member
2C89D46A4857D050,electric_bike,2023-05-24 18:15:20,2023-05-24 19:00:28,E Fordham Rd & Webster Ave,8582.09,E Fordham Rd & Webster Ave,8582.09,40.861748,-73.89105,40.861748,-73.89105,casual
D76A3D73B4B815DE,classic_bike,2023-05-30 17:42:25,2023-05-30 17:42:42,E 47 St & Park Ave,6584.12,E 47 St & Park Ave,6584.12,40.75510267,-73.97498696,40.75510267,-73.97498696,member
3829D77ED5242169,classic_bike,2023-05-24 05:05:16,2023-05-24 05:19:00,Lexington Ave & E 36 St,6313.1,Lispenard St & Broadway,5391.06,40.7475739589548,-73.9788007736206,40.71939226,-74.00247214,member
C55D01E01E9B6198,classic_bike,2023-05-07 12:32:33,2023-05-07 12:37:20,Ave A & E 14 St,5779.11,E 2 St & Avenue B,5515.02,40.73031071000895,-73.98047178983688,40.72217444,-73.98368779,member
E4D29C1015FD8656,classic_bike,2023-05-23 18:58:24,2023-05-23 19:08:49,E 17 St & Broadway,5980.07,Catherine St & Monroe St,5128.04,40.736981511,-73.989867926,40.71117444,-73.99682619,member
9026E7E9D22AB7BB,classic_bike,2023-05-22 20:37:21,2023-05-22 20:47:33,E 48 St & 3 Ave,6541.03,Broadway & W 56 St,6847.02,40.7546011026,-73.971878855,40.7652654,-73.98192338,member
