ride_id,rideable_type,started_at,ended_at,start_station_name,start_station_id,end_station_name,end_station_id,start_lat,start_lng,end_lat,end_lng,member_casual
05D8C44CE199BD19,classic_bike,2023-06-14 09:55:44,2023-06-14 09:57:42,W 87 St & Amsterdam Ave,7458.03,Central Park West & W 85 St,7354.01,40.788345575,-73.97473526,40.78476,-73.969862,member
028C325FB536FA05,classic_bike,2023-06-30 15:01:02,2023-06-30 15:07:15,Onderdonk Ave & Dekalb Ave,5115.01,Centre St & Seneca Ave,4837.03,40.750049233333336,-73.91343665,40.69969,-73.9022,member
2764AA7F573A6AB0,classic_bike,2023-06-28 06:47:11,2023-06-28 06:51:36,William St & Pine St,5065.12,West St & Liberty St,5184.08,40.70717936,-74.00887308,40.711444,-74.014847,member
34BD07950876192D,classic_bike,2023-06-27 13:16:35,2023-06-27 13:24:31,W 22 St & 10 Ave,6306.06,Carmine St & 6 Ave,5763.03,40.746897578,-74.004315853,40.73038599,-74.00214988,member
7C2ADD093D545748,classic_bike,2023-06-08 20:15:02,2023-06-08 20:22:13,Driggs Ave & N 9 St,5411.08,Milton St & Franklin St,5752.07,40.71816969454208,-73.95520135760307,40.72906,-73.95779,member
FC7D583540F9C588,classic_bike,2023-06-22 13:10:46,2023-06-22 13:16:45,E 14 St & Avenue B,5736.09,E 33 St & 1 Ave,6197.08,40.729402661,-73.977826238,40.74322681432173,-73.97449783980846,member
5DC3D50F0300AB54,classic_bike,2023-06-16 01:23:22,2023-06-16 01:28:48,Wyckoff Av & Jefferson St,5051.01,Central Ave & Starr Street,4792.03,40.707165,-73.923711,40.700003,-73.92834,casual
90FD874995FE8C1D,classic_bike,2023-06-15 23:32:40,2023-06-15 23:57:55,W 67 St & Broadway,7116.04,Avenue D & E 12 St,5575.08,40.774963737,-73.982578397,40.72580614,-73.97422494,member
26B47C2EF55DE1B5,classic_bike,2023-06-05 18:12:31,2023-06-05 18:44:43,Putnam Ave & Knickerbocker Ave,4663.06,Clinton St & Tillary St,4748.07,40.695653915,-73.911450863,40.69623297129316,-73.99142056703568,member
F562AF022607C8CD,classic_bike,2023-06-06 13:29:40,2023-06-06 13:31:24,Jerome Ave & E Mosholu Parkway S,8795.01,Grand Concourse & E Mosholu Pkwy S,8795.03,40.879497647,-73.885149002,40.877964,-73.8847550291,member
8F193F7B3104362C,electric_bike,2023-06-04 09:20:37,2023-06-04 09:25:39,Adam Clayton Powell Blvd & W 130 St,7774.02,Mt Morris Park W & W 120 St,7685.14,40.812346,-73.946168,40.804038,-73.945925,member
F70EF72ED94D3F15,classic_bike,2023-06-13 10:55:01,2023-06-13 10:56:45,W 21 St & 6 Ave,6140.05,W 20 St & 7 Ave,6182.02,40.74173969,-73.99415556,40.74238787,-73.99726235,member
8ADC6E1F25E570F8,classic_bike,2023-06-27 18:50:50,2023-06-27 19:12:58,1 Ave & E 39 St,6303.01,W 63 St & Broadway,7052.01,40.747385383,-73.970963955,40.77163851,-73.98261428,casual
5C5CAF67E7385CA8,classic_bike,2023-06-16 20:24:55,2023-06-16 20:34:20,Greene Av & Myrtle Av,4784.02,Menahan St & Seneca Ave,4963.13,40.698568,-73.918877,40.70461,-73.91054,member
915CBC1EE3EDA7CF,classic_bike,2023-06-16 12:57:07,2023-06-16 13:23:12,Lispenard St & Broadway,5391.06,E 13 St & Avenue A,5779.09,40.71936202,-74.002793074,40.72966729392978,-73.98067966103554,casual
32F397EF21161DDA,classic_bike,2023-06-22 06:36:50,2023-06-22 06:39:23,W 29 St & 9 Ave,6416.06,9 Ave & W 22 St,6266.06,40.7500727,-73.99839279,40.7454973,-74.00197139,member
D2959EFD55E9439C,classic_bike,2023-06-15 17:11:01,2023-06-15 17:16:06,Park Ave & E 124 St,7682.01,Lenox Ave & W 126 St,7720.03,40.8045555,-73.9396861,40.808442,-73.9452087,member
322030E02C41339E,classic_bike,2023-06-11 15:58:20,2023-06-11 16:00:47,W 43 St & 10 Ave,6756.01,W 47 St & 10 Ave,6824.07,40.76009437,-73.99461843,40.76269882,-73.99301222,member
271C3D99309C0B35,classic_bike,2023-06-01 17:21:12,2023-06-01 17:27:41,Underhill Ave & Pacific St,4231.04,DeKalb Ave & Vanderbilt Ave,4461.04,40.6804836,-73.9646795,40.68940747,-73.96885458,member
CCCD3C2B3614EF12,classic_bike,2023-06-06 19:32:26,2023-06-06 19:35:41,West St & Chambers St,5329.03,West St & Liberty St,5184.08,40.71754834,-74.01322069,40.711444,-74.014847,member
DDF5D3D269A16CFB,classic_bike,2023-06-13 12:39:46,2023-06-13 12:43:39,Lenox Ave & W 144 St,7910.01,Lenox Ave & W 133 St,7790.04,40.819783,-73.936521,40.81296,-73.941878,member
9143BA66C3B65F4C,classic_bike,2023-06-25 12:33:44,2023-06-25 12:44:17,Grand Concourse & East Mount Eden Ave,8265.09,Ogden Ave & W 164 St,8115.01,40.843026757,-73.911733627,40.832812,-73.929372,member
61810D449B040D50,classic_bike,2023-06-17 15:34:12,2023-06-17 15:37:16,Sands St & Jay St,4821.03,Johnson St & Gold St,4668.08,40.700119,-73.9862,40.69474881,-73.98362464,casual
C5FF92B86C7A96C1,classic_bike,2023-06-05 09:06:56,2023-06-05 09:12:00,Eastern Pkwy & Kingston Ave,3902.06,New York Ave & Montgomery St,3800.07,40.66959,-73.94237,40.66509,-73.94824,casual
982FE4C4636457D0,classic_bike,2023-06-22 18:32:15,2023-06-22 18:37:50,Malcolm X Blvd & DeKalb Ave,4648.03,Chauncey St & Malcolm X Blvd,4228.06,40.6938,-73.93114,40.68044,-73.92842,member
FEC74F473A319402,classic_bike,2023-06-05 19:15:19,2023-06-05 19:30:00,West End Ave & W 60 St,7059.08,W 35 St & Dyer Ave,6569.08,40.772532105,-73.989973903,40.754691750226016,-73.99740189313889,member
C047B1441E6D4534,classic_bike,2023-06-14 21:04:53,2023-06-14 21:50:54,E 16 St & Irving Pl,5938.11,E 10 St & Avenue A,5659.05,40.735367055605394,-73.98797392845154,40.72740794,-73.98142006,member
3AA4247C8F80FB62,classic_bike,2023-06-16 07:22:28,2023-06-16 07:31:16,8 Ave & W 33 St,6450.12,W 47 St & 10 Ave,6824.07,40.751551,-73.993934,40.76269882,-73.99301222,member
C6DCD108F8CD8209,classic_bike,2023-06-04 18:45:41,2023-06-04 18:49:02,W 42 St & 6 Ave,6517.08,W 41 St & 8 Ave,6602.03,40.75492,-73.98455,40.75640548,-73.9900262,member
4F580696735D55A6,electric_bike,2023-06-13 07:41:38,2023-06-13 07:51:55,Greene Ave & Nostrand Ave,4519.02,DeKalb Ave & Vanderbilt Ave,4461.04,40.6883337,-73.950916,40.68940747,-73.96885458,member
219746CA094F731B,classic_bike,2023-06-05 12:03:02,2023-06-05 12:06:35,Central Park W & W 103 St,7577.27,Columbus Ave & W 95 St,7520.07,40.79558954105342,-73.96188408136368,40.7919557,-73.968087,member
38B63B16D6226D9B,classic_bike,2023-06-17 18:42:32,2023-06-17 18:51:45,Amsterdam Ave & W 82 St,7360.10,5 Ave & E 72 St,7100.07,40.74099695,-74.00160288333333,40.77282817,-73.96685276,member
B128A284B46F5A42,classic_bike,2023-06-24 20:15:17,2023-06-24 20:37:44,Suffolk St & Stanton St,5445.02,E 6 St & Avenue D,5506.14,40.720732331,-73.985136986,40.72228087,-73.97668709,casual
D686BEE974268497,classic_bike,2023-06-18 12:33:55,2023-06-18 14:20:27,E 39 St & Lexington Ave,6389.09,West St & Chambers St,5329.03,40.7494985460252,-73.97729203113158,40.71754834,-74.01322069,casual
3F8A604A05F68EB0,classic_bike,2023-06-27 23:46:35,2023-06-27 23:50:09,35 St & 30 Ave,6887.03,37 St & 24 Ave,6981.16,40.76547569244953,-73.91811579465866,40.7701477,-73.9120938,casual
81114B5CE9EFFE3F,classic_bike,2023-06-09 00:48:04,2023-06-09 00:58:19,1 Ave & E 39 St,6303.01,W 59 St & 10 Ave,7023.04,40.747281432,-73.971150756,40.770513,-73.988038,member
EE1DB6C1EC78D2E7,classic_bike,2023-06-03 17:27:44,2023-06-03 18:22:28,Stewart Ave & Johnson Ave,5123.07,Willoughby Ave & Wyckoff Ave,5010.02,40.70869,-73.92587,40.705614,-73.92153,casual
5D386310175033B7,classic_bike,2023-06-17 16:06:18,2023-06-17 16:22:20,E 106 St & 2 Ave,7482.15,Adam Clayton Powell Blvd & W 123 St,7704.04,40.79041636,-73.941604972,40.8078316,-73.949373,member
97AB7B809674981E,classic_bike,2023-06-01 16:48:03,2023-06-01 17:03:39,Grand Ave & Bergen St,4190.06,Willoughby Ave & Tompkins Ave,4665.02,40.67810452,-73.96243155,40.69425403,-73.94626915,casual
3AE85E16D2FFB191,classic_bike,2023-06-16 17:04:56,2023-06-16 17:12:39,Pleasant Ave & E 116 St,7450.05,W 111 St & 5 Ave,7587.16,40.7949879,-73.9333349,40.79752078124756,-73.9489397406578,member
CE427309B521E1EC,electric_bike,2023-06-06 12:40:31,2023-06-06 12:43:33,Lincoln Ave & E 138 St,7744.06,Alexander Ave & E 134 St,7712.04,40.810893,-73.927311,40.807466,-73.927107,member
3CAF06722369BED9,classic_bike,2023-06-04 22:21:38,2023-06-04 22:37:07,Center Blvd & 51 Ave,6179.07,Center Blvd & 48 Ave,6254.06,40.74336608027021,-73.95960688591003,40.745038,-73.957539,casual
BD2F89C2991E5042,classic_bike,2023-06-13 18:11:33,2023-06-13 18:20:55,Pleasant Ave & E 116 St,7450.05,E 115 St & Madison Ave,7599.02,40.7949879,-73.9333349,40.7989445,-73.944846,member
D249C882EE229503,electric_bike,2023-06-05 17:44:31,2023-06-05 17:54:00,Bond St & Bergen St,4404.1,6 St & 7 Ave,3834.1,40.6849668,-73.98620772,40.6686627,-73.97988067,member
3A76740B5E243E8F,classic_bike,2023-06-01 10:49:57,2023-06-01 11:06:55,Plaza St East & Flatbush Ave,4010.01,Willoughby St & Fleet St,4628.05,40.673134,-73.969106,40.69196566,-73.9813018,member
D5FCC13580BF46FD,electric_bike,2023-06-22 17:20:12,2023-06-22 17:42:24,Duane St & Hudson St,5359.12,Douglass St & 3 Ave,4217.02,40.71703,-74.00925,40.6802133,-73.98432695,member
073FFAFC33515CA8,classic_bike,2023-06-17 16:40:52,2023-06-17 17:26:21,W 41 St & 8 Ave,6602.03,Greenwich St & Hubert St,5470.10,40.756479263,-73.989092708,40.721319,-74.010065,casual
ED42C28007E1EA4F,classic_bike,2023-06-13 16:25:25,2023-06-13 16:26:39,W 41 St & 8 Ave,6602.03,W 40 St & 7 Ave,6560.14,40.75640548,-73.9900262,40.754818,-73.988154,member
E125F5A162AF37D1,classic_bike,2023-06-19 18:34:51,2023-06-19 18:46:05,W 25 St & 8 Ave,6297.08,W 47 St & 9 Ave,6786.02,40.74649996333341,-73.99732626293645,40.76153045158114,-73.99007007479668,casual
F3BE84666FCF44AD,classic_bike,2023-06-08 15:12:52,2023-06-08 15:29:05,Bayard St & Baxter St,5351.03,N 10 St & Berry St,5450.01,40.715999961,-73.999777317,40.720253,-73.957082,member
059E46E7BBC7C6C1,classic_bike,2023-06-30 19:01:24,2023-06-30 19:03:04,E 11 St & Avenue B,5659.11,E 14 St & Avenue B,5736.09,40.727553129,-73.979860067,40.72938685,-73.97772429,member
E1D0F38C72B648DC,classic_bike,2023-06-21 18:31:48,2023-06-21 18:52:57,5 Ave & E 78 St,7161.08,W 106 St & Central Park West,7606.01,40.77632142182271,-73.96427392959595,40.7981856,-73.9605909006,member
3E6EF2417D1EDD76,classic_bike,2023-06-03 21:51:13,2023-06-03 21:53:13,E 14 St & Avenue B,5736.09,E 10 St & Avenue A,5659.05,40.72938685,-73.97772429,40.72740794,-73.98142006,member
FDBA2AA5CE747779,classic_bike,2023-06-07 20:12:12,2023-06-07 20:32:15,Eagle St & Manhattan Ave,5902.07,69 St & 38 Ave,6298.04,40.735185981,-73.95475781,40.74694504524519,-73.89650255441666,member
7461FCF31849B41F,classic_bike,2023-06-19 22:22:18,2023-06-19 22:41:54,Hope St & Union Ave,5187.03,Franklin Ave & St Marks Ave,4107.05,40.711686611,-73.951250196,40.6758324,-73.9561677,member
FC3458DD186B27DD,classic_bike,2023-06-01 12:17:22,2023-06-01 12:25:20,Graham Ave & Grand St,5178.06,Humboldt St & Varet St,4956.02,40.711863,-73.944024,40.7031724,-73.940636,member
DD11744714D0D045,classic_bike,2023-06-09 17:34:00,2023-06-09 17:49:00,Crescent St & 30 Ave,6958.06,44 Dr & Jackson Ave,6352.01,40.768692,-73.9249574,40.74718234,-73.9432635,member
92A67D3EDAE0DE1D,classic_bike,2023-06-18 10:20:48,2023-06-18 10:22:34,Plaza Dr & W 170 St,8213.01,Walton Ave & E 171 St,8249.10,40.84056139,-73.917913795,40.840683,-73.915073,member
447052736B6BEA2A,classic_bike,2023-06-27 12:34:36,2023-06-27 12:36:00,W 35 St & 9 Ave,6569.09,W 35 St & Dyer Ave,6569.08,40.75414519263519,-73.9960889518261,40.754691750226016,-73.99740189313889,member
C8682A62FEC192D1,classic_bike,2023-06-14 20:10:21,2023-06-14 20:29:35,Malcolm X Blvd & DeKalb Ave,4648.03,Madison St & Forest Ave,5025.02,40.693902254,-73.931221962,40.70555,-73.90245,member
A2752F34D0AE00B1,classic_bike,2023-06-09 18:14:57,2023-06-09 18:45:37,Morningside Dr & Amsterdam Ave,7741.04,E 161 St & River Ave,8041.07,40.810214877,-73.957108378,40.827883,-73.927111,member
D7C3EF2D777335C1,classic_bike,2023-06-18 12:34:27,2023-06-18 12:37:16,Monroe St & Tompkins Ave,4434.06,Marcy Ave & Lafayette Ave,4476.03,40.686203,-73.944694,40.6900815,-73.947915,member
1AF8021A7DBED063,classic_bike,2023-06-08 10:54:12,2023-06-08 11:16:07,St James Pl & Pearl St,5167.06,N 6 St & Bedford Ave,5379.10,40.71117416,-74.00016545,40.71745169,-73.95850939,casual
1A15744CA043AAB5,classic_bike,2023-06-28 07:47:17,2023-06-28 07:48:57,W 20 St & 7 Ave,6182.02,W 22 St & 8 Ave,6224.03,40.74238787,-73.99726235,40.74475148,-73.99915362,member
0B1ED28E80CDF732,electric_bike,2023-06-09 14:43:26,2023-06-09 14:46:50,St James Pl & Oliver St,5238.05,Spruce St & Nassau St,5137.10,40.71307916,-73.99851193,40.71146364,-74.00552427,member
6283C9B12566004E,classic_bike,2023-06-22 23:13:06,2023-06-22 23:26:36,Southern Blvd & E 175 St,8196.02,E 144 St & Brook Ave,7777.02,40.839380264,-73.886472702,40.811675,-73.917037,member
F4BFAC755349E34A,classic_bike,2023-06-09 08:57:33,2023-06-09 09:02:11,W 47 St & 9 Ave,6786.02,Broadway & W 48 St,6708.04,40.76153045158114,-73.99007007479668,40.76017739537783,-73.98486793041229,member
2A64D1A01588D8F9,classic_bike,2023-06-20 19:04:00,2023-06-20 19:58:56,Kent Ave & N 7 St,5489.03,34 St & 48 Ave,6110.01,40.72036775298455,-73.96165072917938,40.740821207823245,-73.93147185444832,member
869BDF29BC9C4440,classic_bike,2023-06-25 14:57:10,2023-06-25 15:01:29,Madison Ave & E 26 St,6131.12,E 26 St & 3 Ave,6089.11,40.742684734875695,-73.98671329021454,40.74069317733043,-73.98160636425018,member
BC4D39D718ED33EF,classic_bike,2023-06-27 15:14:44,2023-06-27 15:14:47,Willoughby Ave & Wyckoff Ave,5010.02,Willoughby Ave & Wyckoff Ave,5010.02,40.760049816666665,-73.98438726666667,40.705614,-73.92153,member
58688F4A0C14259B,classic_bike,2023-06-07 00:04:10,2023-06-07 00:22:02,W 10 St & Washington St,5847.06,Canal St & Rutgers St,5303.08,40.73342399437081,-74.00851495563984,40.71427487,-73.98990025,member
01D6ACB38AE96647,classic_bike,2023-06-17 19:42:44,2023-06-17 19:54:25,W 16 St & The High Line,6233.05,Lafayette St & E 8 St,5788.13,40.74334935,-74.00681753,40.73020660529954,-73.99102628231049,member
B8CAD1BCF1A40229,classic_bike,2023-06-07 15:19:12,2023-06-07 15:29:07,W 33 St & 10 Ave,6492.04,Gramercy Park N & Gramercy Park E,6013.12,40.753731728,-73.999012709,40.73795,-73.98509,member
06780EB3F370E784,classic_bike,2023-06-16 13:15:59,2023-06-16 13:23:02,Broadway & W 53 St,6779.05,W 47 St & 10 Ave,6824.07,40.76344058,-73.98268129,40.76269882,-73.99301222,member
5EA9FA1DE44C7710,classic_bike,2023-06-06 07:33:11,2023-06-06 07:43:39,Washington St & Gansevoort St,6039.06,North Moore St & Greenwich St,5470.12,40.739323,-74.008119,40.72019521437465,-74.0103006362915,member
40F799289D0F7CF7,classic_bike,2023-06-17 10:24:38,2023-06-17 10:34:31,72 St & 41 Ave,6258.03,48 St & Broadway,6629.06,40.744654775,-73.893656254,40.755763,-73.912715,member
77B064C832999A63,classic_bike,2023-06-25 13:03:17,2023-06-25 13:13:10,Hudson St & Reade St,5359.10,Bank St & Washington St,5964.01,40.71625008,-74.0091059,40.7361967,-74.00859207,member
949D1095B502AF2C,electric_bike,2023-06-06 17:17:46,2023-06-06 17:25:45,W 41 St & 8 Ave,6602.03,9 Ave & W 22 St,6266.06,40.75640548,-73.9900262,40.7454973,-74.00197139,member
58E42DFE76D82C5D,classic_bike,2023-06-09 13:47:16,2023-06-09 13:54:31,Berkeley Pl & 7 Ave,4051.01,Bergen St & Flatbush Ave,4281.08,40.675146838709786,-73.97523209452629,40.680944723477296,-73.97567331790923,member
0F7BEAB19A9F27AD,classic_bike,2023-06-03 07:43:18,2023-06-03 07:52:15,1 Ave & E 68 St,6822.09,E 81 St & Park Ave,7188.1,40.764860153,-73.958314896,40.77677702,-73.9590097,member
05B8ED2CB50A0B32,classic_bike,2023-06-29 21:53:39,2023-06-29 21:58:01,4 Ave & 3 St,4028.04,Douglass St & 3 Ave,4217.02,40.673746,-73.985649,40.6802133,-73.98432695,member
A544EE9899C18755,classic_bike,2023-06-11 21:14:17,2023-06-11 21:17:37,Vesey St & Church St,5216.06,Centre St & Chambers St,5207.01,40.71221958009051,-74.01047229766846,40.71273266,-74.0046073,member
FA315758E06237A7,classic_bike,2023-06-12 16:48:13,2023-06-12 16:53:22,E 7 St & Avenue A,5626.07,Great Jones St,5636.11,40.72621788,-73.98379855,40.72743423,-73.99379025,casual
683E686C4D479140,classic_bike,2023-06-11 01:13:10,2023-06-11 01:26:44,E 39 St & Lexington Ave,6389.09,Central Park West & W 85 St,7354.01,40.749439716,-73.977416277,40.78476,-73.969862,member
0841EB683C721643,classic_bike,2023-06-26 17:21:58,2023-06-26 17:25:18,W 15 St & 6 Ave,5989.02,University Pl & E 14 St,5905.14,40.738046142482766,-73.99642959237099,40.734814,-73.992085,member
C1881074507E7F84,electric_bike,2023-06-26 17:32:50,2023-06-26 17:44:51,W 20 St & 10 Ave,6306.01,West St & Chambers St,5329.03,40.745686,-74.005141,40.71754834,-74.01322069,member
7B170715C5AA7CA1,classic_bike,2023-06-28 19:16:49,2023-06-28 19:27:03,DeKalb Ave & S Portland Ave,4546.04,Carlton Ave & St Marks Ave,4199.13,40.68981035,-73.97493121,40.67911856082165,-73.97176265716553,member
9743DB3E4E0D576B,classic_bike,2023-06-24 18:21:16,2023-06-24 19:38:38,Main St & Plymouth St,4936.21,Centre St & Chambers St,5207.01,40.703663349,-73.990530252,40.71273266,-74.0046073,casual
CC767B57AD999612,classic_bike,2023-06-14 17:11:57,2023-06-14 17:13:13,Bergen St & Carlton Ave,4199.07,Bergen St & Vanderbilt Ave,4157.10,40.680092336223886,-73.97118045900022,40.6794388,-73.9680438,member
DE67DAA26ECA830C,classic_bike,2023-06-10 19:28:06,2023-06-10 19:28:48,E Burnside Ave & Ryer Ave,8397.02,E Burnside Ave & Ryer Ave,8397.02,40.850572348,-73.901371598,40.850535,-73.901318,member
0309894CEE94018B,classic_bike,2023-06-27 19:48:23,2023-06-27 20:23:10,Lafayette St & Jersey St,5561.06,Bergen St & Vanderbilt Ave,4157.10,40.72456089,-73.99565293,40.6794388,-73.9680438,member
4FAFE73591107F9C,classic_bike,2023-06-14 07:35:05,2023-06-14 07:40:42,Old Fulton St,4903.08,Lawrence St & Willoughby St,4596.09,40.702703357,-73.993758559,40.69236178,-73.98631746,member
79D2BA299CD9B563,classic_bike,2023-06-15 13:46:09,2023-06-15 13:54:54,W 44 St & 11 Ave,6756.05,W 59 St & 10 Ave,7023.04,40.762009,-73.996975,40.770513,-73.988038,member
CCF77EC76C38B12D,electric_bike,2023-06-22 10:46:04,2023-06-22 10:50:21,Harrison St & Hudson St,5400.05,Watts St & Greenwich St,5578.02,40.71870987,-74.0090009,40.72405549,-74.00965965,member
AA3933672A442CD4,classic_bike,2023-06-22 08:41:36,2023-06-22 08:55:33,Henry St & Grand St,5294.04,Spruce St & Gold St,5137.13,40.714211,-73.981095,40.7103231,-74.0043228,member
1CED1CF5627A2678,classic_bike,2023-06-19 13:26:45,2023-06-19 13:33:32,E 14 St & Avenue B,5736.09,Canal St & Rutgers St,5303.08,40.729397535,-73.977841258,40.71427487,-73.98990025,member
DC1EDE3E0128F6DA,classic_bike,2023-06-30 12:46:52,2023-06-30 13:03:12,Calyer St & Jewel St,5743.02,N 6 St & Bedford Ave,5379.10,40.729765415,-73.948617578,40.71745169,-73.95850939,member
7E69E451E211E174,electric_bike,2023-06-25 13:00:26,2023-06-25 13:05:46,5 Ave & E 72 St,7100.07,Madison Ave & E 82 St,7188.13,40.77282817,-73.96685276,40.7781314,-73.96069399,casual
6DEC3FF7C830A630,classic_bike,2023-06-26 08:37:27,2023-06-26 08:53:56,Park Ave & E 124 St,7682.01,Broadway & W 61 St,7014.12,40.804669261,-73.939574957,40.77003010255044,-73.9819684624672,member
BCB2DB6463A26028,classic_bike,2023-06-15 08:58:59,2023-06-15 09:01:42,Broadway & W 41 St,6560.01,W 43 St & 6 Ave,6593.14,40.75513557,-73.98658032,40.75527307,-73.98316936,member
394C6F8F4DAFE1AC,classic_bike,2023-06-03 19:14:14,2023-06-03 19:20:32,Bergen St & Flatbush Ave,4281.08,Douglass St & 3 Ave,4217.02,40.680944723477296,-73.97567331790923,40.6802133,-73.98432695,member
9F1D8FA1B5FDAE32,classic_bike,2023-06-17 08:41:06,2023-06-17 09:26:51,Clinton St & Grand St,5303.06,Canal St & Rutgers St,5303.08,40.71559509,-73.9870295,40.71427487,-73.98990025,member
92C740702918EAD9,classic_bike,2023-06-09 14:10:45,2023-06-09 14:18:24,W 42 St & 8 Ave,6602.05,Broadway & W 53 St,6779.05,40.7575699,-73.99098507,40.76344058,-73.98268129,member
4051D7C60FCFE6BA,classic_bike,2023-06-27 18:17:43,2023-06-27 18:23:10,E 40 St & Park Ave,6432.11,E 33 St & 1 Ave,6197.08,40.750756,-73.978326,40.74322681432173,-73.97449783980846,member
275E44E32B4553EC,classic_bike,2023-06-29 18:35:00,2023-06-29 18:37:01,E 2 St & Avenue B,5515.02,E 7 St & Ave B,5584.05,40.72217444,-73.98368779,40.7251285241158,-73.98131668567657,member
D1E15A5382DAE351,classic_bike,2023-06-14 05:42:40,2023-06-14 05:46:15,W 50 St & 9 Ave,6854.05,Broadway & W 48 St,6708.04,40.76360467795863,-73.98917958140373,40.76017739537783,-73.98486793041229,member
987CB9F286D24C32,classic_bike,2023-06-18 15:01:02,2023-06-18 15:19:48,Peck Slip & South St,5096.12,Bushwick Ave & Powers St,5250.05,40.707796574,-74.001324892,40.71247661,-73.94100005,member
0CB3684983B7795C,classic_bike,2023-06-16 19:25:27,2023-06-16 19:31:33,W 30 St & 10 Ave,6459.07,Broadway & W 37 St,6441.02,40.6900246,-73.98817871666667,40.75172632,-73.98753523,member
F857A4BCDFC4C7A6,classic_bike,2023-06-18 14:33:23,2023-06-18 14:43:59,Franklin St & Dupont St,5944.01,N 5 St & Northside Piers,5458.02,40.73564,-73.95866,40.719876,-73.963865,casual
6109EA63D09E2E61,classic_bike,2023-06-06 18:34:45,2023-06-06 18:51:58,Hope St & Union Ave,5187.03,Madison St & Malcolm X Blvd,4416.10,40.71167351,-73.95141312,40.68713,-73.93008,casual
4575A27C55D3121F,classic_bike,2023-06-18 14:28:15,2023-06-18 14:54:20,W 10 St & Washington St,5847.06,Christopher St & Greenwich St,5847.01,40.73342399437081,-74.00851495563984,40.73291553,-74.00711384,member
F91C24595DB9F905,classic_bike,2023-06-29 17:57:52,2023-06-29 18:15:35,5 Ave & E 78 St,7161.08,W 63 St & Broadway,7052.01,40.776752472,-73.964139462,40.77163851,-73.98261428,casual
01F17DBF20297363,classic_bike,2023-06-22 17:43:21,2023-06-22 17:48:20,Little West St & 1 Pl,5001.08,River Ter & Warren St,5368.03,40.70563221,-74.016821384,40.71759894980997,-74.01587963104248,member
81FEFC1A16D7F24F,electric_bike,2023-06-05 18:08:58,2023-06-05 18:12:48,Prospect Park SW & 16 St,3498.09,Windsor Pl & Howard Pl,3579.04,40.657265,-73.974165,40.65949055893896,-73.98013919591904,member
F4C1B2F26586A7B7,electric_bike,2023-06-17 10:15:14,2023-06-17 10:20:49,Columbus Ave & W 72 St,7175.05,5 Ave & E 72 St,7100.07,40.7770575,-73.97898475,40.77282817,-73.96685276,casual
774CAA3C5BD6447A,classic_bike,2023-06-17 12:52:45,2023-06-17 13:05:57,Vernon Blvd & 50 Ave,6170.02,34th Ave & Vernon Blvd,6873.01,40.74232744,-73.95411749,40.76535380385866,-73.93986314535141,member
7EFE93A73485CA9C,classic_bike,2023-06-28 22:02:31,2023-06-28 22:12:34,E 78 St & 2 Ave,7057.07,E 63 St & 3 Ave,6830.02,40.7727966,-73.95577801,40.763954,-73.9646,member
6687AFDCB2F96B53,classic_bike,2023-06-15 18:03:36,2023-06-15 18:25:57,E 47 St & Park Ave,6584.12,Riverside Dr & W 82 St,7388.10,40.75510267,-73.97498696,40.78720869,-73.98128127,member
03FAEB137DFB76F6,classic_bike,2023-06-29 23:28:20,2023-06-29 23:49:34,Bergen St & Kingston Ave,4089.01,Willoughby St & Fleet St,4628.05,40.67569828,-73.94137454,40.69196566,-73.9813018,member
E90C9A8A5A878E92,classic_bike,2023-06-21 10:39:55,2023-06-21 10:50:50,Willoughby Ave & Walworth St,4634.02,Bergen St & Vanderbilt Ave,4157.10,40.69331716,-73.95381995,40.6794388,-73.9680438,member
C7942B5A236030DA,classic_bike,2023-06-28 00:24:19,2023-06-28 01:04:44,Adam Clayton Powell Blvd & W 123 St,7704.04,Adam Clayton Powell Blvd & W 123 St,7704.04,40.807827115,-73.949203134,40.8078316,-73.949373,member
5E7E834144524B9D,classic_bike,2023-06-05 17:14:55,2023-06-05 17:26:59,Washington Park,4546.05,Wyckoff St & 3 Ave,4290.06,40.6917823,-73.9737299,40.6827549,-73.98258555,member
48963A9E792DD0AE,classic_bike,2023-06-13 18:07:25,2023-06-13 18:40:35,Eastern Pkwy & Franklin Ave,3919.07,Lincoln Rd & Ocean Ave,3633.08,40.670727134,-73.957605124,40.6605,-73.9626,casual
6621799A90DBBBDF,classic_bike,2023-06-02 01:32:17,2023-06-02 01:54:55,W 25 St & 9 Ave,6339.06,Milton St & Franklin St,5752.07,40.747923017,-74.000677347,40.72906,-73.95779,member
9778906F1F97BD55,classic_bike,2023-06-20 08:23:36,2023-06-20 08:30:37,W 24 St & 7 Ave,6257.03,E 17 St & 2 Ave,5896.01,40.74470818,-73.995239615,40.73431166276575,-73.98372530937195,casual
9CF45C08E2AB4FEC,classic_bike,2023-06-26 06:31:57,2023-06-26 06:42:46,Bushwick Ave & Dekalb Ave,4680.05,Bushwick Ave & McKibbin St,5027.02,40.69502,-73.92825,40.705517,-73.93936,casual
E0EA1AEA7820EAB8,classic_bike,2023-06-25 13:34:22,2023-06-25 13:49:15,2 Ave & E 31 St,6197.02,Madison Ave & E 26 St,6131.12,40.74290902,-73.97706058,40.742684734875695,-73.98671329021454,casual
85E5E88B0F5B2EB2,classic_bike,2023-06-24 09:36:19,2023-06-24 09:39:03,E 9 St & Avenue C,5616.01,Ave C & E 16 St,5769.06,40.72521311,-73.97768752,40.72984830346529,-73.97455215454102,member
17A7D14865EB316B,classic_bike,2023-06-15 16:35:26,2023-06-15 17:06:48,Broadway & W 160 St,8157.06,W 56 St & 6 Ave,6809.07,40.835751176,-73.943582416,40.76340613,-73.97722479,member
5E4FBAD53CAC13CE,electric_bike,2023-06-05 20:17:12,2023-06-05 20:34:27,E Houston St & Columbia St,5436.11,W 15 St & 6 Ave,5989.02,40.71978635452822,-73.97871628403664,40.738046142482766,-73.99642959237099,member
8BFF00A0CE581797,electric_bike,2023-06-16 08:35:37,2023-06-16 08:43:02,Maple St & Flatbush Ave,3593.01,Bergen St & Vanderbilt Ave,4157.10,40.66026,-73.96045,40.6794388,-73.9680438,member
71AAD3EB76941E73,classic_bike,2023-06-15 19:05:26,2023-06-15 19:23:44,6 Ave & W 34 St,6364.10,Allen St & Stanton St,5484.09,40.749344349,-73.988308072,40.722055,-73.989111,member
1EA23411F1D1F72D,classic_bike,2023-06-12 09:00:20,2023-06-12 09:06:17,Great Jones St,5636.11,Carmine St & 6 Ave,5763.03,40.72743423,-73.99379025,40.73038599,-74.00214988,member
9A8990995A386E5B,classic_bike,2023-06-04 08:26:14,2023-06-04 08:34:06,Pierrepont St & Monroe Pl,4718.08,Hanson Pl & Ashland Pl,4395.07,40.695435286,-73.993665457,40.68506807308177,-73.97790759801863,member
128C2E188062BE8D,classic_bike,2023-06-14 09:19:54,2023-06-14 09:21:29,8 Ave & W 27 St,6297.07,8 Ave & W 31 St,6450.05,40.747968,-73.996637,40.7505853470215,-73.9946848154068,member
E0F4446853D20F5C,electric_bike,2023-06-23 20:13:18,2023-06-23 20:23:41,W 15 St & 6 Ave,5989.02,West St & Chambers St,5329.03,40.738046142482766,-73.99642959237099,40.71754834,-74.01322069,member
0E309C681310513B,classic_bike,2023-06-16 18:20:33,2023-06-16 18:42:43,Engert Ave & McGuinness Blvd,5473.03,Allen St & Stanton St,5484.09,40.721624613,-73.945341825,40.722055,-73.989111,member
F8919A2209539F94,classic_bike,2023-06-04 18:37:58,2023-06-04 19:03:33,W 33 St & 10 Ave,6492.04,Greenwich St & Rector St,5073.07,40.75377336836039,-73.99937599897385,40.70806582380646,-74.0135595202446,member
DA0B1E8BC3FCB3BA,classic_bike,2023-06-11 12:39:26,2023-06-11 12:58:26,Monroe St & Classon Ave,4336.01,DeKalb Ave & S Portland Ave,4546.04,40.6845683,-73.95881081,40.68981035,-73.97493121,casual
38789CDBB4E611AB,classic_bike,2023-06-05 10:50:21,2023-06-05 11:12:22,4 Ave & 26 St,3596.04,Underhill Ave & Pacific St,4231.04,40.660079,-73.998633,40.6804836,-73.9646795,member
1079545F23DC9820,classic_bike,2023-06-03 12:18:19,2023-06-03 12:42:37,E 6 St & Avenue D,5506.14,10 Ave & W 28 St,6459.04,40.72228087,-73.97668709,40.75066386,-74.00176802,member
F525DD9E3A9F47E1,classic_bike,2023-06-07 09:43:22,2023-06-07 09:51:50,Broadway & W 58 St,6948.10,Broadway & W 41 St,6560.01,40.766661644,-73.982069373,40.75513557,-73.98658032,member
E1E1EE787BD602D8,classic_bike,2023-06-03 15:23:10,2023-06-03 15:45:07,E 58 St & 3 Ave,6762.02,E 116 St & 2 Ave,7563.06,40.761344671,-73.967738867,40.796879,-73.937261,member
F5AB09051AB10F8E,classic_bike,2023-06-09 15:31:16,2023-06-09 15:34:17,Greene Ave & Nostrand Ave,4519.02,Macon St & Nostrand Ave,4214.03,40.688390255,-73.951029778,40.6809833854,-73.9500479759,casual
4853B41353819C75,classic_bike,2023-06-22 09:05:32,2023-06-22 09:34:00,Amsterdam Ave & W 73 St,7260.09,Spring St & Hudson St,5653.12,40.77966809007312,-73.98093044757842,40.72583996792375,-74.0076532959938,casual
07449168B18E9413,classic_bike,2023-06-21 00:19:10,2023-06-21 00:22:30,W 20 St & 8 Ave,6224.05,W 20 St & 8 Ave,6224.05,40.743522882,-74.000143528,40.74345335,-74.00004031,member
2601561C28256A12,classic_bike,2023-06-02 18:17:42,2023-06-02 18:19:53,Clark St & Henry St,4789.03,Clinton St & Tillary St,4748.07,40.69760127,-73.99344559,40.69623297129316,-73.99142056703568,member
45B51B03D184B4FF,classic_bike,2023-06-08 18:40:07,2023-06-08 18:50:46,W 64 St & Thelonious Monk Circle,7123.04,W 92 St & Broadway,7502.01,40.775048733,-73.989053488,40.7921,-73.9739,member
0E826D98F2161B8F,classic_bike,2023-06-06 11:18:00,2023-06-06 11:26:23,W 168th S & Fort Washington Ave,8226.07,Ft. Washington Ave & W 190 St,8496.01,40.842157722,-73.942051888,40.856906,-73.935662,member
812DC14BD3F06B63,classic_bike,2023-06-13 17:12:36,2023-06-13 17:19:12,E 25 St & 2 Ave,6046.02,E 11 St & 3 Ave,5788.16,40.73912601,-73.97973776,40.73127,-73.98849,member
B57AC82106B16773,classic_bike,2023-06-05 08:12:55,2023-06-05 08:18:20,E 5 St & Ave A,5626.06,Cooper Square & Astor Pl,5712.03,40.72479007746337,-73.98430064320564,40.72951496224949,-73.99075269699097,member
D5464F56F86917B1,classic_bike,2023-06-28 22:11:31,2023-06-28 22:18:24,S 3 St & Bedford Ave,5235.05,Manhattan Ave & Devoe St,5219.05,40.71263504,-73.962710381,40.713532,-73.9459867,casual
241314C1747E481A,classic_bike,2023-06-03 08:51:59,2023-06-03 09:06:46,W 50 St & 9 Ave,6854.05,W 20 St & 7 Ave,6182.02,40.76360467795863,-73.98917958140373,40.74238787,-73.99726235,member
3EAD8F6D8AB9BAFA,classic_bike,2023-06-14 07:54:03,2023-06-14 08:08:28,9 Ave & W 22 St,6266.06,West St & Chambers St,5329.03,40.7454973,-74.00197139,40.71754834,-74.01322069,member
17DFE68F0AE28964,electric_bike,2023-06-04 18:26:26,2023-06-04 18:43:29,E Houston St & Columbia St,5436.11,W 21 St & 6 Ave,6140.05,40.71978635452822,-73.97871628403664,40.74173969,-73.99415556,casual
AC72D9FAA1C66489,classic_bike,2023-06-02 17:33:43,2023-06-02 17:38:11,Greenwich Ave & Charles St,5914.08,King St & Varick St,5687.11,40.735238,-74.000271,40.72789701409023,-74.00536268949507,casual
DEC0EF573AE550B7,classic_bike,2023-06-12 16:04:35,2023-06-12 16:12:08,Garfield Pl & 8 Ave,3978.13,Windsor Pl & Howard Pl,3579.04,40.6711978,-73.97484126,40.65949055893896,-73.98013919591904,member
24EDF363043BF3D9,classic_bike,2023-06-12 16:19:54,2023-06-12 16:52:07,Amsterdam Ave & W 125 St,7800.03,E 95 St & 3 Ave,7365.13,40.81349349,-73.956503272,40.7849032,-73.950503,member
9E7EFD26812AB048,classic_bike,2023-06-15 09:50:05,2023-06-15 10:07:04,Greene Ave & Nostrand Ave,4519.02,Bridge St & Water St,4968.03,40.6883337,-73.950916,40.70296934155272,-73.98469090461731,member
D5252ABAB5F7CBDA,classic_bike,2023-06-23 18:59:54,2023-06-23 19:23:53,Hudson St & W 13 St,6115.06,Market St & Henry St,5270.09,40.73885236666667,-73.99295973333334,40.71310702305908,-73.99446353316307,member
A0AC243A891A4E78,electric_bike,2023-06-24 19:40:00,2023-06-24 19:43:44,Bulova Ave & Brooklyn Queens Expressway W,6766.03,50 St & 30 Ave,6735.03,40.762507,-73.902534,40.760083,-73.907107,member
735F995CFE16AE52,classic_bike,2023-06-10 19:20:04,2023-06-10 19:28:39,Hancock St & Bedford Ave,4255.05,Bergen St & Vanderbilt Ave,4157.10,40.68216564,-73.95399026,40.6794388,-73.9680438,casual
40268FAC13DC3F32,classic_bike,2023-06-04 16:50:49,2023-06-04 17:17:22,Wilson Ave & Troutman St,4864.09,Brooklyn Ave & Dean St,4131.03,40.70166,-73.92754,40.67669,-73.94437,casual
9B07CD4874359792,classic_bike,2023-06-30 07:02:38,2023-06-30 07:08:40,St. Ann's Av & Bruckner Blvd,7657.03,E 149 St & Jackson Ave,7812.01,40.803332448,-73.920017004,40.813135,-73.909235,member
97FDE13C138FCC90,classic_bike,2023-06-20 20:17:26,2023-06-20 20:27:48,44 Dr & Jackson Ave,6352.01,34 Ave & 38 St,6638.01,40.74718234,-73.9432635,40.756913,-73.921631,member
25A7149AD91DEBE3,classic_bike,2023-06-04 16:43:05,2023-06-04 16:49:02,Central Park West & W 72 St,7141.07,E 59 St & Madison Ave,6801.01,40.77579376683666,-73.9762057363987,40.76350532,-73.97109243,member
924623DB8D9CF1BC,classic_bike,2023-06-25 10:02:47,2023-06-25 10:05:48,Amsterdam Ave & W 73 St,7260.09,W 78 St & Broadway,7311.07,40.77966809007312,-73.98093044757842,40.78339981,-73.98093133,member
15D87A89D9EA6F47,classic_bike,2023-06-23 09:44:52,2023-06-23 09:48:47,Pierrepont St & Monroe Pl,4718.08,Court St & State St,4488.08,40.69535693320225,-73.99344027042389,40.6902375,-73.99203074,member
E39F6542B4F146EB,classic_bike,2023-06-27 19:36:23,2023-06-27 19:43:38,W 120 St & Claremont Ave,7745.07,W 106 St & Central Park West,7606.01,40.811398625,-73.963496804,40.7981856,-73.9605909006,member
5AC1D6E6792724CF,classic_bike,2023-06-28 16:58:13,2023-06-28 17:14:12,E 156 & Brook Ave,7896.11,Lenox Ave & W 133 St,7790.04,40.819975376,-73.912492275,40.81296,-73.941878,member
CD5FE85EE9E17889,electric_bike,2023-06-26 08:12:41,2023-06-26 08:14:31,Mercer St & Bleecker St,5679.05,Bleecker St & Crosby St,5679.08,40.72706363348306,-73.99662137031554,40.72615604980408,-73.99510189890862,member
64E9959C8C10FE45,electric_bike,2023-06-22 17:32:23,2023-06-22 17:52:13,E 63 St & 3 Ave,6830.02,55 St & Northern Blvd,6502.01,40.763954,-73.9646,40.75326,-73.90585,member
C95565A67F982500,classic_bike,2023-06-12 02:47:00,2023-06-12 02:53:03,Bond St & Fulton St,4479.06,Carlton Ave & Flushing Ave,4732.08,40.689423442,-73.982950211,40.697787,-73.973736,member
4824855476BA3AAB,classic_bike,2023-06-20 12:15:39,2023-06-20 12:18:50,Carmine St & 6 Ave,5763.03,Christopher St & Greenwich St,5847.01,40.73038599,-74.00214988,40.73291553,-74.00711384,member
7D5BE45E28DB30CC,classic_bike,2023-06-08 14:30:21,2023-06-08 14:58:40,Bus Slip & State St,4889.06,Carmine St & 6 Ave,5763.03,40.701907,-74.013942,40.73038599,-74.00214988,member
5C7E6F7E8AE620CF,classic_bike,2023-06-18 10:51:13,2023-06-18 11:02:43,Gansevoort St & Hudson St,6072.14,Spring St & Hudson St,5653.12,40.73944820130404,-74.00507032871246,40.72583996792375,-74.0076532959938,casual
92CA1CB058DE8229,classic_bike,2023-06-13 18:21:16,2023-06-13 18:33:00,Greenwich St & Hubert St,5470.1,9 Ave & W 22 St,6266.06,40.721135855,-74.010000706,40.7454973,-74.00197139,member
18948850A08EFEC6,classic_bike,2023-06-17 20:17:52,2023-06-17 20:20:22,W 20 St & 8 Ave,6224.05,9 Ave & W 22 St,6266.06,40.74345335,-74.00004031,40.7454973,-74.00197139,member
9EFB8E29F372FEC7,classic_bike,2023-06-20 21:42:34,2023-06-20 22:00:06,Nassau St & Duffield St,4781.05,N 6 St & Bedford Ave,5379.10,40.698411345,-73.983840466,40.71745169,-73.95850939,casual
4CC9920CDA5DC201,classic_bike,2023-06-06 08:58:07,2023-06-06 09:22:14,William St & Pine St,5065.12,W 30 St & 10 Ave,6459.07,40.707255602,-74.008615971,40.752694,-74.002353,member
2BAC74A8711B973C,classic_bike,2023-06-24 12:26:43,2023-06-24 12:41:11,3 Ave & 14 St,3850.03,1 Pl & Clinton St,4193.14,40.6685455,-73.99333264,40.6809591,-73.99905709,member
470B13BCB1875F8D,classic_bike,2023-06-15 08:49:38,2023-06-15 08:55:36,W 43 St & 6 Ave,6593.14,Broadway & W 53 St,6779.05,40.75527307,-73.98316936,40.76344058,-73.98268129,member
5AFDB704CD00F99F,classic_bike,2023-06-28 07:37:00,2023-06-28 07:49:08,Orchard St & Grand St,5343.11,Sands St & Jay St,4821.03,40.717318403855785,-73.99067759513855,40.700119,-73.9862,member
0D033B59A5863213,classic_bike,2023-06-26 18:27:29,2023-06-26 18:47:28,E 44 St & Lexington Ave,6464.09,E 10 St & Avenue A,5659.05,40.752643,-73.974996,40.72740794,-73.98142006,member
3316C6EF5CF69823,classic_bike,2023-06-09 14:48:32,2023-06-09 14:55:34,Huron St & Franklin St,5869.04,Greenpoint Ave & Manhattan Ave,5785.05,40.732675314,-73.958265066,40.73026,-73.95394,casual
F8768381EA29DD24,classic_bike,2023-06-09 21:09:14,2023-06-09 21:43:37,W 87 St & West End Ave,7484.05,Riverside Dr & W 82 St,7388.10,40.789622,-73.97757,40.78720869,-73.98128127,member
26267ADFD78751D8,classic_bike,2023-06-14 09:01:07,2023-06-14 09:23:37,Mercer St & Bleecker St,5679.05,E 33 St & 1 Ave,6197.08,40.727031827,-73.996666312,40.74322681432173,-73.97449783980846,member
9BD6CBB3FAD68255,classic_bike,2023-06-27 18:21:56,2023-06-27 18:28:37,50 St & Barnett Ave,6435.03,39 St & Queens Blvd,6218.04,40.749989986,-73.913562417,40.74431,-73.92601,member
AF1CB4BE5F65E83B,classic_bike,2023-06-24 15:10:29,2023-06-24 15:23:04,W 113 St & Broadway,7713.01,Columbus Ave & W 95 St,7520.07,40.805973,-73.964928,40.7919557,-73.968087,member
59B2395673DDFC2A,classic_bike,2023-06-23 19:31:35,2023-06-23 19:39:29,West St & Chambers St,5329.03,Christopher St & Greenwich St,5847.01,40.718030095,-74.013038635,40.73291553,-74.00711384,casual
2BBFFC50D8F70C6B,classic_bike,2023-06-28 06:33:54,2023-06-28 06:39:54,Vesey St & Church St,5216.06,North Moore St & Greenwich St,5470.12,40.71221958009051,-74.01047229766846,40.72019521437465,-74.0103006362915,member
4E8796D302C9B8F6,classic_bike,2023-06-23 18:44:30,2023-06-23 18:55:28,Bushwick Ave & McKibbin St,5027.02,Engert Ave & McGuinness Blvd,5473.03,40.705517,-73.93936,40.72158,-73.94546,member
109E0432C46BF964,classic_bike,2023-06-27 08:33:33,2023-06-27 08:51:10,E 76 St & Park Ave,7128.08,W 35 St & 9 Ave,6569.09,40.773923159,-73.962238431,40.75414519263519,-73.9960889518261,member
4718D2AEEF92A8D3,classic_bike,2023-06-23 09:35:09,2023-06-23 09:38:36,Clark St & Henry St,4789.03,Montague St & Clinton St,4677.06,40.69760127,-73.99344559,40.6942715,-73.9923272,casual
182C99243AFDA52A,classic_bike,2023-06-21 12:25:15,2023-06-21 12:30:03,Cooper Square & Astor Pl,5712.03,E 7 St & Ave B,5584.05,40.729380012,-73.99084425,40.7251285241158,-73.98131668567657,member
99AE2692BA1538B4,classic_bike,2023-06-13 15:51:39,2023-06-13 16:14:12,St Ann's Ave & Westchester Ave,7835.10,Goulden Ave & Bedford Park Blvd W,8738.01,40.815848351,-73.911965489,40.87387,-73.89533,member
714B2D48B290A2E3,classic_bike,2023-06-01 17:40:49,2023-06-01 18:01:21,Ave A & E 11 St,5703.13,1 Ave & E 6 St,5626.15,40.728674412,-73.981686711,40.72633085971696,-73.98616880178452,member
635811882494D3D6,classic_bike,2023-06-24 13:26:29,2023-06-24 13:32:07,12 St & 4 Ave,3882.01,3 St & 3 Ave,4028.03,40.668603,-73.9904394,40.6750705,-73.98775226,member
F5EFE39021F303C0,classic_bike,2023-06-11 09:17:27,2023-06-11 09:47:10,Frederick Douglass Blvd & W 117 St,7688.12,E 95 St & 3 Ave,7365.13,40.805159,-73.954692,40.7849032,-73.950503,casual
A8F4FC4F736ECDFE,classic_bike,2023-06-19 13:36:45,2023-06-19 13:40:32,W 59 St & 10 Ave,7023.04,W 54 St & 11 Ave,6955.05,40.770513,-73.988038,40.768333,-73.992573,member
C064F85D51440069,classic_bike,2023-06-16 20:35:08,2023-06-16 21:03:30,W Burnside Ave & University Ave,8425.01,W Burnside Ave & University Ave,8425.01,40.853651047,-73.912620068,40.853686,-73.912498,member
6FADBC2EA346628D,classic_bike,2023-06-09 19:05:17,2023-06-09 19:31:33,Little West St & 1 Pl,5001.08,Greenwich St & Hubert St,5470.10,40.70569254,-74.01677685,40.721319,-74.010065,casual
9867C9532525DF43,classic_bike,2023-06-23 06:38:57,2023-06-23 07:06:13,Bushwick Ave & Linden St,4600.09,E 33 St & 1 Ave,6197.08,40.691510916,-73.921543837,40.74322681432173,-73.97449783980846,member
60B1C2BBB1AA3753,classic_bike,2023-06-20 08:26:27,2023-06-20 08:35:07,Driggs Ave & N Henry St,5542.04,N 5 St & Northside Piers,5458.02,40.72325,-73.94308,40.719876,-73.963865,member
3AD649081D5B3E9D,classic_bike,2023-06-29 08:03:38,2023-06-29 08:19:10,8 Ave & W 16 St,6072.11,2 Ave & E 29 St,6122.09,40.740983,-74.001702,40.74172351097472,-73.97809267044067,member
16C760B589FAFD42,classic_bike,2023-06-03 14:43:53,2023-06-03 14:53:56,W 45 St & 8 Ave,6676.02,E 66 St & Madison Ave,6969.08,40.759380341,-73.98874402,40.76800889305947,-73.96845281124115,member
ECECD8DD215F93D0,classic_bike,2023-06-24 21:36:06,2023-06-24 21:40:07,Hope St & Union Ave,5187.03,Boerum St & Broadway,5004.02,40.71167351,-73.95141312,40.70538077,-73.94976519,member
16855283A1230286,classic_bike,2023-06-24 09:04:17,2023-06-24 09:10:28,W 48 St &  Rockefeller Plaza,6626.11,Madison Ave & E 26 St,6131.12,40.757840157,-73.978908181,40.742684734875695,-73.98671329021454,member
D61A8620CB46B63C,classic_bike,2023-06-29 17:11:46,2023-06-29 17:56:05,Whitehall St & Bridge St,4962.02,Riverside Blvd & W 67 St,7183.03,40.70366170524135,-74.0131813287735,40.777507027547976,-73.98888587951659,member
4A8DB091C35B8E6B,classic_bike,2023-06-28 14:29:29,2023-06-28 14:38:36,9 Ave & W 22 St,6266.06,E 17 St & Broadway,5980.07,40.745630026,-74.001945376,40.73704984,-73.99009296,member
1781CF706404098E,classic_bike,2023-06-23 09:18:10,2023-06-23 09:21:16,E 88 St & Park Ave,7293.1,E 81 St & Park Ave,7188.1,40.781051755,-73.955949783,40.77677702,-73.9590097,member
8C3EEA9410339902,classic_bike,2023-06-19 12:50:13,2023-06-19 12:57:11,1 Pl & Clinton St,4193.14,Court St & State St,4488.08,40.6809591,-73.99905709,40.6902375,-73.99203074,member
64E3BF067D7FC364,classic_bike,2023-06-09 14:48:35,2023-06-09 14:51:55,St Mary's St & Jackson Ave,7737.06,Southern Blvd & E 142 St,7719.13,40.808921456,-73.910894513,40.807347437082,-73.90809774398804,member
E69009A1946082F7,classic_bike,2023-06-15 18:50:05,2023-06-15 19:16:36,10 Ave & W 14 St,6157.04,E 72 St & Park Ave,6998.08,40.741770983,-74.008308172,40.77118287540658,-73.96409422159195,member
13DF8B6D33DDEB3A,classic_bike,2023-06-09 17:42:05,2023-06-09 18:03:27,William St & Pine St,5065.12,Avenue D & E 3 St,5436.09,40.70717936,-74.00887308,40.72082834,-73.97793172,member
D4AF0551D60E977D,classic_bike,2023-06-09 18:13:48,2023-06-09 18:38:03,Warren St & W Broadway,5288.09,W 22 St & 10 Ave,6306.06,40.71473993,-74.00910627,40.74691959,-74.00451887,casual
2B12777347657BB6,classic_bike,2023-06-07 01:39:25,2023-06-07 01:42:38,DeKalb Ave & Hudson Ave,4513.06,Johnson St & Gold St,4668.08,40.689888,-73.981013,40.69474881,-73.98362464,casual
F8EF7A5E9AF008D6,classic_bike,2023-06-11 18:36:14,2023-06-11 18:37:30,West St & Chambers St,5329.03,West St & Chambers St,5329.03,40.71754834,-74.01322069,40.71754834,-74.01322069,casual
109D079BD0ACA461,classic_bike,2023-06-13 14:07:51,2023-06-13 14:12:55,10 Ave & W 28 St,6459.04,W 21 St & 6 Ave,6140.05,40.750525594,-74.001967549,40.74173969,-73.99415556,member
5B1C1D58141FA764,classic_bike,2023-06-03 14:34:25,2023-06-03 14:39:27,Greene Ave & Nostrand Ave,4519.02,Marcy Ave & Lafayette Ave,4476.03,40.688302159,-73.951038122,40.6900815,-73.947915,member
7DC1B072E6C48B07,classic_bike,2023-06-13 11:08:32,2023-06-13 11:15:35,W 18 St & 6 Ave,6064.08,Broadway & W 41 St,6560.01,40.739626288,-73.994636536,40.75513557,-73.98658032,member
D7301995DE5EF166,classic_bike,2023-06-07 18:02:48,2023-06-07 18:03:00,44 Dr & Jackson Ave,6352.01,44 Dr & Jackson Ave,6352.01,40.74718234,-73.9432635,40.74718234,-73.9432635,member
2230C9F4F0036A4D,classic_bike,2023-06-27 16:00:17,2023-06-27 16:12:26,Liberty St & Broadway,5105.01,Lafayette St & E 8 St,5788.13,40.708767056,-74.010278583,40.73020660529954,-73.99102628231049,member
5BF4FC665C05AA46,classic_bike,2023-06-04 16:14:54,2023-06-04 16:30:10,64 St & Woodbine St,5057.09,Willoughby Ave & Wyckoff Ave,5010.02,40.707974434,-73.895461917,40.705614,-73.92153,casual
92D7FDD6633584B2,classic_bike,2023-06-26 17:22:19,2023-06-26 17:39:27,2 Ave & E 29 St,6122.09,Broadway & Roebling St,5125.07,40.741891742,-73.977831244,40.70924826276157,-73.96063148975372,member
7F064774F11D0424,electric_bike,2023-06-11 13:48:52,2023-06-11 14:00:35,E 51 St & Lexington Ave,6659.01,Madison Ave & E 26 St,6131.12,40.75714758,-73.97207836,40.742684734875695,-73.98671329021454,member
ADC7C368801AB7B7,classic_bike,2023-06-19 09:53:05,2023-06-19 10:16:02,Church Ave & Story St,3007.05,Carlton Ave & Flushing Ave,4732.08,40.642096877,-73.981032968,40.697787,-73.973736,member
E6F7BAF92B5B3D1D,classic_bike,2023-06-12 00:51:25,2023-06-12 01:00:49,E 5 St & Ave A,5626.06,E 33 St & 1 Ave,6197.08,40.72479007746337,-73.98430064320564,40.74322681432173,-73.97449783980846,casual
70F02F9CA68AF2BC,classic_bike,2023-06-25 01:28:37,2023-06-25 01:54:10,University Pl & E 14 St,5905.14,West St & Liberty St,5184.08,40.734814,-73.992085,40.711444,-74.014847,casual
DD4361B5B4009892,classic_bike,2023-06-13 16:46:49,2023-06-13 16:58:11,Christopher St & Greenwich St,5847.01,E 2 St & Avenue A,5553.10,40.73291553,-74.00711384,40.72307749068673,-73.98583620786667,member
FBF7E1AC0A1C2B77,classic_bike,2023-06-25 02:22:37,2023-06-25 02:28:21,Cedar St & Myrtle Ave,4751.01,Harrison Pl & Porter Ave,5090.06,40.71741496666667,-73.98017643333333,40.70686,-73.92851,casual
43968C3A05C59E0B,electric_bike,2023-06-10 23:57:11,2023-06-11 00:11:21,Onderdonk Ave & Gates Ave,4994.10,Broadway & Madison St,4483.10,40.70413,-73.90737,40.68822,-73.91966,casual
30624D30960B0E51,classic_bike,2023-06-22 07:10:59,2023-06-22 07:19:43,Spruce St & Nassau St,5137.10,Cadman Plaza E & Tillary St,4677.01,40.711382508,-74.005803943,40.69597683,-73.99014892,member
D6A0780A276713F8,classic_bike,2023-06-20 15:55:45,2023-06-20 15:59:34,Goulden Ave & W 205 St,8799.01,Goulden Ave & Bedford Park Blvd W,8738.01,40.878264666,-73.891805768,40.87387,-73.89533,member
88DF9D974877A75E,classic_bike,2023-06-28 09:17:05,2023-06-28 09:17:23,W 20 St & 8 Ave,6224.05,W 20 St & 8 Ave,6224.05,40.743404984,-74.000134945,40.74345335,-74.00004031,member
072046D00F8AD4C8,classic_bike,2023-06-09 22:16:58,2023-06-09 22:48:26,W Broadway & W Houston St,5644.05,W Broadway & W Houston St,5644.05,40.726258039,-74.000348687,40.726378,-74.000472,member
0B6EAC4205184045,classic_bike,2023-06-24 10:51:09,2023-06-24 10:57:29,Myrtle Ave & 65 St,4862.04,Myrtle Ave & 65 St,4862.04,40.701204062,-73.890442133,40.70117,-73.8904,member
F600B0517842DD5B,classic_bike,2023-06-20 07:14:31,2023-06-20 07:16:24,Lewis Ave & Greene Ave,4543.07,Lewis Ave & Kosciuszko St,4617.01,40.68995,-73.9365,40.69237074,-73.93705428,member
2141968AE98EFFC7,classic_bike,2023-06-06 08:46:41,2023-06-06 09:35:16,West End Ave & W 107 St,7650.05,Centre St & Chambers St,5207.01,40.8021174,-73.9681805305,40.71273266,-74.0046073,member
66E2D760E9389C7A,classic_bike,2023-06-07 08:40:29,2023-06-07 09:10:45,W Broadway & Spring St,5569.06,Old Slip & South St,4993.13,40.72494672359416,-74.00165855884552,40.70336686695866,-74.007867872715,member
5CD41670ECFBE641,classic_bike,2023-06-01 17:43:21,2023-06-01 17:45:35,Prospect Ave & Vanderbilt St,3426.02,Prospect Park SW & Vanderbilt St,3457.03,40.653368,-73.976291,40.65482,-73.973217,member
90DD29279566FEF9,classic_bike,2023-06-16 18:12:39,2023-06-16 18:23:50,W 36 St & 7 Ave,6483.06,W 53 St & 10 Ave,6890.01,40.752149,-73.989539,40.76669671,-73.99061728,member
6FFEB351AC0C9EB8,classic_bike,2023-06-30 15:04:05,2023-06-30 15:39:39,W 37 St & 5 Ave,6398.06,5 Ave & E 93 St,7372.10,40.75038009,-73.98338988,40.7857851,-73.957481,member
697CB1266F7F7C7C,classic_bike,2023-06-22 11:39:33,2023-06-22 11:45:28,Lafayette St & Jersey St,5561.06,6 Ave & Broome St,5610.09,40.72456089,-73.99565293,40.72431,-74.00473,member
A7DD307544753909,classic_bike,2023-06-15 16:48:22,2023-06-15 16:59:04,E 53 St & Lexington Ave,6617.09,W 41 St & 8 Ave,6602.03,40.75828065,-73.97069431,40.75640548,-73.9900262,member
A8EB689988CE39FD,classic_bike,2023-06-08 18:17:13,2023-06-08 18:17:32,8 Ave & W 31 St,6450.05,8 Ave & W 31 St,6450.05,40.7505853470215,-73.9946848154068,40.7505853470215,-73.9946848154068,member
F94739A7CD8E7D87,classic_bike,2023-06-26 15:39:13,2023-06-26 16:04:03,W 56 St & 10 Ave,6955.01,Stanton St & Chrystie St,5523.02,40.768213272,-73.988696456,40.72229346,-73.99147535,member
30D2F52DE230B244,classic_bike,2023-06-11 14:33:56,2023-06-11 14:35:15,Prospect Ave & E 151 St,7830.03,Westchester Ave & Jackson Ave,7853.01,40.814254045,-73.903946996,40.816124,-73.908116,member
1AE07D6B34A77404,electric_bike,2023-06-20 19:57:09,2023-06-20 19:58:03,E 6 St & Avenue D,5506.14,Ave D & E 8 St,5506.1,40.72228087,-73.97668709,40.72368361,-73.97574813,member
E84D87984CD0B56A,classic_bike,2023-06-21 10:03:54,2023-06-21 10:05:57,E 1 St & 1 Ave,5593.01,1 Ave & E 6 St,5626.15,40.72335597960796,-73.98864984512329,40.72633085971696,-73.98616880178452,member
42899AC201166D52,classic_bike,2023-06-16 16:14:28,2023-06-16 16:20:02,Park Ave & E 124 St,7682.01,W 111 St & 5 Ave,7587.16,40.8045555,-73.9396861,40.79752078124756,-73.9489397406578,member
5A0BCCB6A912B7AD,classic_bike,2023-06-19 09:06:39,2023-06-19 09:16:19,Albemarle Rd & McDonald Ave,3166.03,7 Ave & 20 St,3588.01,40.645220995,-73.979599476,40.659053,-73.98854,member
4AA6DE4E9AE9DCD2,classic_bike,2023-06-01 16:59:05,2023-06-01 17:07:09,Cherry St,5181.04,Allen St & Stanton St,5484.09,40.712207913,-73.979189038,40.722055,-73.989111,member
F6FB06A5FC144C7E,classic_bike,2023-06-02 12:08:00,2023-06-02 12:15:42,W 13 St & 5 Ave,5947.04,Cooper Square & Astor Pl,5712.03,40.735445,-73.99431,40.72951496224949,-73.99075269699097,member
60ABFDF356841F69,classic_bike,2023-06-05 07:39:07,2023-06-05 07:56:35,Schermerhorn St & Hoyt St,4479.1,1 Pl & Clinton St,4193.14,40.6886263,-73.9851911,40.6809591,-73.99905709,member
0624839E1A910A5D,classic_bike,2023-06-28 18:35:23,2023-06-28 19:15:53,Mercer St & Spring St,5532.01,Caton Ave & Bedford Ave,3368.04,40.723517299,-73.999355555,40.65237,-73.95623,member
6CE4CE3DAAECABF3,classic_bike,2023-06-25 09:23:36,2023-06-25 10:02:59,E 85 St & 3 Ave,7212.05,W 111 St & 5 Ave,7587.16,40.77801203,-73.95407149,40.79752078124756,-73.9489397406578,member
077E3EDAC1A3C3A1,classic_bike,2023-06-15 02:04:09,2023-06-15 02:07:35,Amsterdam Ave & W 73 St,7260.09,Amsterdam Ave & W 82 St,7360.10,40.77966809007312,-73.98093044757842,40.78524672,-73.97667321,member
85205C2564862914,electric_bike,2023-06-11 10:21:19,2023-06-11 15:22:17,Brooklyn Ave & Prospect Pl,4057.04,Cooper Square & Astor Pl,5712.03,40.67412,-73.94447,40.72951496224949,-73.99075269699097,member
818518C6AF711B52,classic_bike,2023-06-06 10:58:16,2023-06-06 11:06:07,Sullivan St & Washington Sq,5721.01,6 Ave & Broome St,5610.09,40.73047747,-73.99906065,40.72431,-74.00473,member
6ECA4A0521E0848E,classic_bike,2023-06-12 09:08:46,2023-06-12 09:37:01,6 Ave & W 34 St,6364.1,E 97 St & Madison Ave,7393.09,40.74964,-73.98805,40.787801,-73.953559,member
2E34D1A041B72C9F,classic_bike,2023-06-10 17:13:52,2023-06-10 17:19:33,Madison Ave & E 99 St,7443.01,2 Ave & E 104 St,7436.11,40.78948541553215,-73.95242929458618,40.7892105,-73.94370784,member
5B9167893C0CEB68,classic_bike,2023-06-18 21:53:33,2023-06-18 22:00:42,Clermont Ave & Park Ave,4692.01,Lawrence St & Willoughby St,4596.09,40.69573398,-73.97129668,40.69236178,-73.98631746,member
BB1C29EC2070EEBE,electric_bike,2023-06-15 20:13:21,2023-06-15 20:14:26,43 Ave & 40 St,6292.03,39 St & Queens Blvd,6218.04,40.74562,-73.92402,40.74431,-73.92601,member
A67FF1AAC4DCC596,classic_bike,2023-06-22 11:57:31,2023-06-22 12:13:12,Kent Ave & Grand St,5388.01,Sharon St & Olive St,5323.06,40.716425,-73.96594,40.71534162042448,-73.93865078687668,member
80D63F722D873632,classic_bike,2023-06-26 19:31:31,2023-06-26 19:55:15,Madison Ave & E 26 St,6131.12,W 59 St & 10 Ave,7023.04,40.742684734875695,-73.98671329021454,40.770513,-73.988038,casual
FB8B9D0C7E5F95CC,classic_bike,2023-06-18 18:17:22,2023-06-18 18:20:23,Ave A & E 14 St,5779.11,E 7 St & Ave B,5584.05,40.73031071000895,-73.98047178983688,40.7251285241158,-73.98131668567657,member
46B331CBB9082158,classic_bike,2023-06-10 15:13:19,2023-06-10 15:14:17,Grand Concourse & E 164 St,8057.02,Grand Concourse & E 161 St,8021.11,40.829493761,-73.921538711,40.82713380423556,-73.9227358996868,member
AB7ECFB3EC8B875E,classic_bike,2023-06-20 12:00:45,2023-06-20 12:27:02,Liberty St & Broadway,5105.01,E 17 St & Broadway,5980.07,40.70905623,-74.01043382,40.73704984,-73.99009296,member
CE232C38698348B4,classic_bike,2023-06-11 14:49:50,2023-06-11 14:52:55,8 Ave & W 16 St,6072.11,9 Ave & W 22 St,6266.06,40.740983,-74.001702,40.7454973,-74.00197139,member
641B51E1D66C9677,classic_bike,2023-06-28 20:58:20,2023-06-28 21:21:59,E 2 St & 2 Ave,5593.02,President St & Henry St,4307.13,40.724952459,-73.990904689,40.6828003,-73.99990419,member
027A121E489761A5,classic_bike,2023-06-29 17:01:26,2023-06-29 17:15:58,King St & Varick St,5687.11,Spruce St & Nassau St,5137.10,40.72789701409023,-74.00536268949507,40.71146364,-74.00552427,casual
14E5A9C9A19BD758,classic_bike,2023-06-17 09:20:59,2023-06-17 09:36:16,W 100 St & Manhattan Ave,7538.14,E 67 St & Park Ave,6932.14,40.7950176,-73.964365363,40.76780080148132,-73.96592080593109,casual
AFB1DBC4B14F5575,classic_bike,2023-06-04 15:35:37,2023-06-04 15:45:46,W Broadway & Spring St,5569.06,Christopher St & Greenwich St,5847.01,40.72494672359416,-74.00165855884552,40.73291553,-74.00711384,member
7EC96236B7795218,classic_bike,2023-06-13 18:11:09,2023-06-13 18:30:59,7 Ave & 41 St,3192.05,Bergen St & Flatbush Ave,4281.08,40.647214532,-74.00109601,40.680944723477296,-73.97567331790923,member
041C64EB6815B51E,classic_bike,2023-06-30 22:58:34,2023-06-30 23:11:59,Forsyth St & Canal St,5270.07,Rivington St & Ridge St,5406.02,40.7158155,-73.99422366,40.71850211,-73.98329859,member
EF3CDF4AF157A1A6,classic_bike,2023-06-19 22:26:42,2023-06-19 22:37:04,Eastern Pkwy & Franklin Ave,3919.07,Union St & 4 Ave,4175.15,40.670751572,-73.957518935,40.6772744,-73.98282002,member
26258BA2A97E6F01,classic_bike,2023-06-10 23:02:21,2023-06-10 23:30:47,St Johns Pl & Washington Ave,4001.09,George St & Wilson Ave,4906.07,40.6737236,-73.9631611,40.702997,-73.92997,casual
E0148B47BC155911,classic_bike,2023-06-11 21:24:39,2023-06-11 21:26:14,E 11 St & Avenue B,5659.11,E 14 St & Avenue B,5736.09,40.72746420692392,-73.97950418293476,40.72938685,-73.97772429,member
F0E6B28176713223,classic_bike,2023-06-29 15:31:47,2023-06-29 15:38:42,Bayard St & Baxter St,5351.03,Great Jones St,5636.11,40.716059327,-73.999836564,40.72743423,-73.99379025,member
3E6A6080EADECBB6,electric_bike,2023-06-14 00:39:59,2023-06-14 00:40:27,Underhill Ave & Lincoln Pl,4042.08,Underhill Ave & Lincoln Pl,4042.08,40.6740123,-73.9671457,40.6740123,-73.9671457,casual
9FDD59B252881322,classic_bike,2023-06-25 13:27:26,2023-06-25 13:31:47,E 1 St & 1 Ave,5593.01,Washington Pl & Broadway,5755.01,40.723469973,-73.989035487,40.72903917,-73.99404649,casual
36054FAA044F1F16,classic_bike,2023-06-24 23:12:41,2023-06-24 23:24:10,W 111 St & 5 Ave,7587.16,W 111 St & 5 Ave,7587.16,40.797716141,-73.948991299,40.79752078124756,-73.9489397406578,member
E0D7FBEE4FB45C8D,classic_bike,2023-06-16 21:50:37,2023-06-16 21:54:08,E 5 St & Avenue C,5545.04,Rivington St & Ridge St,5406.02,40.72299208,-73.97995466,40.71850211,-73.98329859,member
FF1C4F5C93121C0E,classic_bike,2023-06-15 19:11:58,2023-06-15 19:36:57,6 Ave & Broome St,5610.09,Stanton St & Chrystie St,5523.02,40.72431,-74.00473,40.72229346,-73.99147535,member
49D520442F877B22,classic_bike,2023-06-15 16:18:48,2023-06-15 16:26:23,Plaza Dr & W 170 St,8213.01,Walton Ave & E 153 St,7945.07,40.840662122,-73.917962193,40.822351,-73.926907,member
231CC466F4A1BA1F,classic_bike,2023-06-18 18:34:55,2023-06-18 18:48:29,Henry St & Atlantic Ave,4531.05,Court St & State St,4488.08,40.69089272,-73.99612349,40.6902375,-73.99203074,casual
A66C75FB74EE4EFE,classic_bike,2023-06-01 17:46:27,2023-06-01 17:48:57,4 Ave & Shore Road Dr,2832.03,67 St & Erik Pl,2733.03,40.637033,-74.022141,40.633385,-74.016562,member
F9CD856E5BA5A304,classic_bike,2023-06-16 22:19:01,2023-06-16 22:30:24,10 St & 5 Ave,3842.08,Dean St & Hoyt St,4446.05,40.6686273,-73.98700053,40.6864442,-73.98759104,member
039FFAAE1CA706A7,classic_bike,2023-06-05 08:22:52,2023-06-05 08:32:59,E 13 St & 2 Ave,5820.08,Avenue D & E 3 St,5436.09,40.73153937464073,-73.9853024482727,40.72082834,-73.97793172,member
00D8E9783BE83CE8,classic_bike,2023-06-26 17:03:57,2023-06-26 17:04:28,E 13 St & Avenue A,5779.09,E 13 St & Avenue A,5779.09,40.72966729392978,-73.98067966103554,40.72966729392978,-73.98067966103554,member
23659C599DA15EE8,docked_bike,2023-06-18 15:55:08,2023-06-18 16:26:56,Crescent St & 30 Ave,6958.06,Center Blvd & 48 Ave,6254.06,40.768692,-73.924957,40.745038,-73.957539,casual
22FB1B8CDB4B6648,classic_bike,2023-06-15 07:31:58,2023-06-15 08:05:11,Hope St & Union Ave,5187.03,West St & Liberty St,5184.08,40.71167351,-73.95141312,40.711444,-74.014847,member
E170E97065CA3779,electric_bike,2023-06-16 22:58:57,2023-06-16 23:15:02,Jay St & York St,4895.09,E 2 St & Avenue A,5553.10,40.70140317257725,-73.98672670125961,40.72307749068673,-73.98583620786667,member
A51EF37E9BBE910C,classic_bike,2023-06-14 17:47:50,2023-06-14 18:12:58,11 Ave & W 27 St,6425.04,West St & Chambers St,5329.03,40.751396,-74.005226,40.71754834,-74.01322069,member
81E3A3BC83AC0249,classic_bike,2023-06-06 19:06:24,2023-06-06 19:16:30,Driggs Ave & Lorimer St,5481.04,Stagg St & Union Ave,5117.05,40.72179134,-73.9504154,40.70877084,-73.95095259,casual
73684049C36BF375,classic_bike,2023-06-13 09:02:59,2023-06-13 09:08:00,Columbus Ave & W 72 St,7175.05,Broadway & W 61 St,7014.12,40.777211308,-73.978890419,40.77003010255044,-73.9819684624672,member
6EF16AC8E315D0AD,classic_bike,2023-06-12 19:30:36,2023-06-12 19:36:31,E 14 St & 1 Ave,5779.10,Gramercy Park N & Gramercy Park E,6013.12,40.73139303364151,-73.98286700248718,40.73795,-73.98509,member
8237616C0AF76060,classic_bike,2023-06-10 11:05:47,2023-06-10 11:56:25,Vesey St & Church St,5216.06,W 25 St & 6 Ave,6215.04,40.71221958009051,-74.01047229766846,40.74395411,-73.99144871,casual
6AE3C96D369AD27D,classic_bike,2023-06-12 10:18:32,2023-06-12 10:37:14,Waterbury St & Stagg St,5099.02,Carmine St & 6 Ave,5763.03,40.710255027,-73.93737638,40.73038599,-74.00214988,casual
ECF5068EE2C01D4B,electric_bike,2023-06-29 16:05:17,2023-06-29 16:05:47,Bergen St & Vanderbilt Ave,4157.10,Bergen St & Vanderbilt Ave,4157.10,40.6794388,-73.9680438,40.6794388,-73.9680438,member
2889B6AED6790C2A,classic_bike,2023-06-28 09:10:56,2023-06-28 09:15:54,Walker St & Baxter St,5351.07,Bayard St & Baxter St,5351.03,40.717411,-73.999573,40.71602118,-73.99974372,casual
790701F1F22189C4,classic_bike,2023-06-08 14:05:45,2023-06-08 14:07:33,Duane St & Hudson St,5359.12,Harrison St & Hudson St,5400.05,40.71703,-74.00925,40.71870987,-74.0090009,member
EF958D1EB7A0C2D7,classic_bike,2023-06-12 07:48:22,2023-06-12 07:57:22,Schermerhorn St & Hoyt St,4479.1,1 Pl & Clinton St,4193.14,40.688559651,-73.985454321,40.6809591,-73.99905709,member
5B6F0DA498D3AD98,electric_bike,2023-06-17 17:40:02,2023-06-17 17:46:00,Emerson Pl & Myrtle Ave,4683.02,DeKalb Ave & Vanderbilt Ave,4461.04,40.69363137,-73.96223558,40.68940747,-73.96885458,casual
F60503EFB8BB647C,classic_bike,2023-06-21 21:29:48,2023-06-21 21:32:05,Wadsworth Ave & W 179 St,8336.02,Wadsworth Ave & W 175 St,8299.03,40.848441243,-73.936156511,40.846052,-73.937648,member
E228A9135946234E,classic_bike,2023-06-19 10:09:27,2023-06-19 10:13:21,St Nicholas Ave & Manhattan Ave,7723.01,Adam Clayton Powell Blvd & W 115 St,7643.18,40.809725,-73.953149,40.802535,-73.9532423,member
AB73DB7F44D0A4AC,classic_bike,2023-06-11 17:53:19,2023-06-11 17:57:39,4 Ave & E 12 St,5788.15,E 10 St & Avenue A,5659.05,40.732647,-73.99011,40.72740794,-73.98142006,member
3C26DC7378264BDC,classic_bike,2023-06-19 10:20:17,2023-06-19 10:42:35,8 Ave & W 31 St,6450.05,Delancey St & Eldridge St,5414.07,40.7505853470215,-73.9946848154068,40.719383,-73.991479,casual
B17B143E152C1C9B,electric_bike,2023-06-05 17:18:03,2023-06-05 17:21:35,Washington St & Barrow St,5847.08,Spring St & Hudson St,5653.12,40.73191132323174,-74.008769094944,40.72583996792375,-74.0076532959938,casual
50F587FE26F2D980,electric_bike,2023-06-09 14:41:30,2023-06-09 14:47:59,W 145 St & Amsterdam Ave,7997.08,Edgecombe Ave & W 145 St,7976.08,40.825244,-73.947257,40.823498,-73.94386,member
F9696EFA30A63CEC,electric_bike,2023-06-01 14:03:57,2023-06-01 14:06:46,E 84 St & Park Ave,7243.04,E 81 St & Park Ave,7188.1,40.77862688,-73.95772073,40.77677702,-73.9590097,member
563A40A32F08EE03,classic_bike,2023-06-18 23:34:26,2023-06-18 23:46:27,Bergen St & Flatbush Ave,4281.08,Montague St & Clinton St,4677.06,40.680944723477296,-73.97567331790923,40.6942715,-73.9923272,member
F0B6B03E6E731A9F,classic_bike,2023-06-10 15:13:18,2023-06-10 15:17:25,E 1 St & 1 Ave,5593.01,E 14 St & 1 Ave,5779.1,40.72335597960796,-73.98864984512329,40.73139303364151,-73.98286700248718,member
95DEFE3BAE412AF9,classic_bike,2023-06-15 19:07:12,2023-06-15 19:07:16,Adam Clayton Powell Blvd & W 115 St,7643.18,Adam Clayton Powell Blvd & W 115 St,7643.18,40.802535,-73.9532423,40.802535,-73.9532423,member
383ACB8CB6996855,classic_bike,2023-06-05 09:01:46,2023-06-05 09:08:34,Metropolitan Ave & Bedford Ave,5308.04,Driggs Ave & Lorimer St,5481.04,40.71534825,-73.96024116,40.72179134,-73.9504154,casual
404FDEAF368E52E2,classic_bike,2023-06-19 08:27:22,2023-06-19 09:21:47,Ashland Pl & Dekalb Ave,4513.09,Crescent St & 35 Ave,6688.01,40.690246701,-73.978840113,40.7596276,-73.9321455,member
9E6D4CDD833473FA,classic_bike,2023-06-30 19:54:57,2023-06-30 20:01:18,E 2 St & Avenue A,5553.10,E 6 St & Avenue D,5506.14,40.723300815,-73.986241221,40.72228087,-73.97668709,member
1BAAAC5BCC4C4129,classic_bike,2023-06-20 17:33:40,2023-06-20 17:38:10,Morningside Dr & Amsterdam Ave,7741.04,W 116 St & Amsterdam Ave,7692.11,40.81028506306003,-73.95736455917358,40.8067581,-73.9607082,member
1497B317ADD3A961,classic_bike,2023-06-09 17:09:01,2023-06-09 17:13:30,E 32 St & Park Ave,6280.12,E 33 St & 1 Ave,6197.08,40.7457121,-73.98194829,40.74322681432173,-73.97449783980846,member
E15146BD04E26AAC,classic_bike,2023-06-28 08:20:20,2023-06-28 08:36:15,E 47 St & 1 Ave,6498.09,27 St & Hunter St,6310.06,40.75206862,-73.96784384,40.7485,-73.941275,member
440AB1A55472670D,classic_bike,2023-06-07 08:52:23,2023-06-07 08:56:33,31 St & Newtown Ave,6923.20,30 Ave & 47 St,6774.13,40.767492771,-73.920931816,40.761294,-73.909562,casual
202D6393F487F5DC,classic_bike,2023-06-18 13:30:47,2023-06-18 13:46:05,Plaza St East & Flatbush Ave,4010.01,Franklin Ave & Myrtle Ave,4715.01,40.673134,-73.969106,40.694546087246025,-73.95801365375519,member
EFF97569F1FDEC29,classic_bike,2023-06-22 16:07:55,2023-06-22 16:09:33,6 Ave & 21 St,3628.11,7 Ave & 20 St,3588.01,40.66016,-73.990974,40.659053,-73.98854,member
5F16C64D39201A4E,classic_bike,2023-06-19 20:50:58,2023-06-19 20:52:15,E 20 St & Park Ave,6055.08,Gramercy Park N & Gramercy Park E,6013.12,40.73827428,-73.98751968,40.73795,-73.98509,member
FEDFF0D9054D9883,classic_bike,2023-06-17 16:30:33,2023-06-17 16:37:34,10 Ave & W 14 St,6157.04,Watts St & Greenwich St,5578.02,40.741703987,-74.008262873,40.72405549,-74.00965965,member
1FC38DA071C79A38,classic_bike,2023-06-20 15:55:19,2023-06-20 16:27:00,E 23 St & 1 Ave,5929.01,W 63 St & Broadway,7052.01,40.736502,-73.97809472,40.77163851,-73.98261428,member
BC6B3A3789EF7057,classic_bike,2023-06-03 18:35:47,2023-06-03 18:42:21,W 11 St & 6 Ave,5914.03,Spring St & Hudson St,5653.12,40.735209942,-73.997677445,40.72583996792375,-74.0076532959938,member
F7953F3CABDF1124,classic_bike,2023-06-10 11:41:46,2023-06-10 12:26:25,Division Ave & Hooper St,5045.05,10 St & 7 Ave,3762.08,40.70684203101325,-73.9544353965357,40.6662078,-73.98199886,casual
96FC0D9382D8F412,classic_bike,2023-06-23 08:02:16,2023-06-23 08:09:44,Nassau Ave & Russell St,5581.01,Driggs Ave & N 9 St,5411.08,40.72557,-73.94434,40.71816969454208,-73.95520135760307,member
1D35BA5850347769,classic_bike,2023-06-03 10:52:15,2023-06-03 11:18:57,Montague St & Clinton St,4677.06,E 11 St & 3 Ave,5788.16,40.6942715,-73.9923272,40.73127,-73.98849,member
BF2915FD88D3FE16,classic_bike,2023-06-07 17:49:01,2023-06-07 17:58:08,Vesey St & Church St,5216.06,Division St & Bowery,5270.08,40.71221958009051,-74.01047229766846,40.714193,-73.996732,casual
88C38B0A9F80FD42,electric_bike,2023-06-05 09:55:45,2023-06-05 09:58:10,Vesey Pl & River Terrace,5297.02,West St & Chambers St,5329.03,40.7153379,-74.01658354,40.71754834,-74.01322069,member
4E87FE217B704268,classic_bike,2023-06-15 15:26:53,2023-06-15 15:29:02,Amsterdam Ave & W 66 St,7149.05,W 59 St & 10 Ave,7023.04,40.7746671,-73.98470567,40.770513,-73.988038,member
960DDA9017F024D2,classic_bike,2023-06-09 13:07:08,2023-06-09 13:23:10,E 51 St & Lexington Ave,6659.01,W 20 St & 7 Ave,6182.02,40.75714758,-73.97207836,40.74238787,-73.99726235,member
225DD8E3C80EFFC0,classic_bike,2023-06-28 10:41:02,2023-06-28 10:59:19,Perry St & Bleecker St,5922.07,E 32 St & Park Ave,6280.12,40.73535398,-74.00483091,40.7457121,-73.98194829,member
95A26C4155E2D103,classic_bike,2023-06-24 12:02:15,2023-06-24 12:11:09,Pacific St & Smith St,4446.03,Smith St & 9 St,4077.04,40.687880939612775,-73.98939281702042,40.6746957,-73.99785768,member
5004EEA80864892E,classic_bike,2023-06-11 20:12:29,2023-06-11 20:15:04,W 64 St & Thelonious Monk Circle,7123.04,Riverside Blvd & W 67 St,7183.03,40.77515953434235,-73.98918695747852,40.777507027547976,-73.98888587951659,member
669D80F65C48C7F9,classic_bike,2023-06-24 23:12:29,2023-06-24 23:28:25,Broadway & W 48 St,6708.04,W 106 St & Central Park West,7606.01,40.760246396,-73.985137105,40.7981856,-73.9605909006,member
64ECFF2758BA0296,classic_bike,2023-06-15 14:13:38,2023-06-15 14:16:33,Walton Ave & E 168 St,8179.03,Walton Ave & E 171 St,8249.10,40.83649,-73.918316,40.840683,-73.915073,member
4768C13A1373DD73,classic_bike,2023-06-16 08:18:10,2023-06-16 08:24:13,E 7 St & Ave C,5545.01,Cooper Square & Astor Pl,5712.03,40.72412944090093,-73.97901266813278,40.72951496224949,-73.99075269699097,member
0F00BE3E2B5C2EAE,classic_bike,2023-06-08 08:27:42,2023-06-08 08:40:25,E 44 St & Lexington Ave,6464.09,1 Ave & E 68 St,6822.09,40.752643,-73.974996,40.76500525,-73.95818491,member
4CB49E4867822F91,classic_bike,2023-06-06 17:07:45,2023-06-06 17:17:30,Amsterdam Ave & W 82 St,7360.1,E 81 St & Park Ave,7188.1,40.78524672,-73.97667321,40.77677702,-73.9590097,member
8A80211F6F04FA40,classic_bike,2023-06-28 19:02:58,2023-06-28 19:10:08,Smith St & 9 St,4077.04,Pioneer St & Richards St,4128.08,40.6746957,-73.99785768,40.6777748,-74.0094613,member
4FAD6A5EA60EC255,classic_bike,2023-06-09 20:23:08,2023-06-09 20:45:38,Hunts Point Ave & Bryant Ave,7820.05,Westchester Ave & Southern Blvd,8004.03,40.8141855,-73.885702848,40.824956,-73.891677,member
741AC39016FA93B8,classic_bike,2023-06-21 00:30:53,2023-06-21 00:38:20,4 Ave & E 12 St,5788.15,Ave D & E 8 St,5506.1,40.732647,-73.99011,40.72368361,-73.97574813,member
D6119C5A86EE4377,classic_bike,2023-06-22 23:32:29,2023-06-22 23:37:19,Irving Ave & Jefferson St,5051.02,Irving Ave & Palmetto St,4775.01,40.705391169,-73.925567389,40.698,-73.9127,member
43B26F51ABACAE76,classic_bike,2023-06-10 19:53:30,2023-06-10 20:07:00,E 14 St & Avenue B,5736.09,W 20 St & 7 Ave,6182.02,40.72938685,-73.97772429,40.74238787,-73.99726235,member
1C1BD5D8B196A0D1,classic_bike,2023-06-05 19:50:51,2023-06-05 19:58:05,Douglass St & 3 Ave,4217.02,10 St & 7 Ave,3762.08,40.680307031,-73.984389782,40.6662078,-73.98199886,member
9A06628BFDDB3820,classic_bike,2023-06-21 18:16:40,2023-06-21 18:25:27,Delancey St & Eldridge St,5414.07,1 Ave & E 6 St,5626.15,40.719383,-73.991479,40.72633085971696,-73.98616880178452,casual
D6F5E66FB0334864,classic_bike,2023-06-20 06:57:53,2023-06-20 07:01:28,Kane St & Clinton St,4455.11,Douglass St & 3 Ave,4217.02,40.686225057,-73.996584892,40.6802133,-73.98432695,member
4C88C9C847538333,electric_bike,2023-06-10 19:03:41,2023-06-10 19:15:10,3 St & Hoyt St,4110.1,Van Brunt St & Van Dyke St,4095.10,40.6777287,-73.99364123,40.6758329439129,-74.01472628116608,member
1E16CAFB013C73E2,classic_bike,2023-06-04 14:48:54,2023-06-04 14:54:35,W 15 St & 6 Ave,5989.02,Carmine St & 6 Ave,5763.03,40.738046142482766,-73.99642959237099,40.73038599,-74.00214988,casual
9A39E9120BF48C74,classic_bike,2023-06-19 21:00:49,2023-06-19 21:07:48,W 21 St & 6 Ave,6140.05,E 22 St & 2 Ave,5971.09,40.74173969,-73.99415556,40.73716919369882,-73.98122549057007,member
F15622EEAFD0FF60,classic_bike,2023-06-21 12:08:39,2023-06-21 12:13:41,Henry St & Atlantic Ave,4531.05,Montague St & Clinton St,4677.06,40.69089272,-73.99612349,40.6942715,-73.9923272,member
02703B6E10352902,classic_bike,2023-06-09 13:33:35,2023-06-09 13:52:51,Adam Clayton Powell Blvd & W 118 St,7670.09,E 115 St & Madison Ave,7599.02,40.804372,-73.951475,40.7989445,-73.944846,member
551AAD0522D49857,classic_bike,2023-06-01 21:08:42,2023-06-01 21:13:32,72 St & 41 Ave,6258.03,72 St & 41 Ave,6258.03,40.744717002,-73.893746853,40.7448,-73.89377,member
1DDBED5774C0C65C,classic_bike,2023-06-07 19:16:01,2023-06-07 19:22:25,Prospect Pl & Nostrand Ave,4025.02,Macon St & Nostrand Ave,4214.03,40.674362779,-73.950430751,40.6809833854,-73.9500479759,casual
59209574B2DFD838,classic_bike,2023-06-19 13:18:51,2023-06-19 13:43:55,W 104 St & Amsterdam Ave,7610.13,6 Ave & W 45 St,6593.15,40.79904139288298,-73.96649479866028,40.756951,-73.982631,casual
3D13AEF85FD01540,classic_bike,2023-06-03 10:30:14,2023-06-03 10:37:39,E 76 St & Park Ave,7128.08,E 76 St & Park Ave,7128.08,40.773763,-73.96222088,40.773763,-73.96222088,casual
3F4A400D14BB500C,electric_bike,2023-06-18 11:48:42,2023-06-18 11:56:17,Columbus Ave & W 72 St,7175.05,W 56 St & 6 Ave,6809.07,40.7770575,-73.97898475,40.76340613,-73.97722479,member
6ED88953CC87E57C,classic_bike,2023-06-09 16:46:15,2023-06-09 16:58:09,Warren St & Smith St,4371.01,Underhill Ave & Lincoln Pl,4042.08,40.685382605,-73.991227508,40.6740123,-73.9671457,member
9B501758299D7EC4,classic_bike,2023-06-20 11:57:03,2023-06-20 12:16:47,8 Ave & W 38 St,6526.05,W 22 St & 10 Ave,6306.06,40.75461,-73.99177,40.74691959,-74.00451887,casual
1C548749FC6B0213,classic_bike,2023-06-20 00:48:22,2023-06-20 00:53:27,E 58 St & Madison Ave,6839.04,E 76 St & Park Ave,7128.08,40.76278317,-73.972466588,40.773763,-73.96222088,casual
D79152EE3E4EC224,classic_bike,2023-06-27 18:16:30,2023-06-27 18:20:16,Driggs Ave & N 9 St,5411.08,Engert Ave & McGuinness Blvd,5473.03,40.718201995,-73.955146432,40.72158,-73.94546,member
94035A8CFB1CFFAD,electric_bike,2023-06-26 07:26:00,2023-06-26 07:30:49,W 26 St & 10 Ave,6382.05,W 22 St & 10 Ave,6306.06,40.749717753,-74.002950346,40.74691959,-74.00451887,member
E7085FB81C533A77,classic_bike,2023-06-03 07:09:22,2023-06-03 08:05:54,Rivington St & Ridge St,5406.02,1 Ave & E 68 St,6822.09,40.71850211,-73.98329859,40.76500525,-73.95818491,member
5645F80966685359,classic_bike,2023-06-01 15:27:37,2023-06-01 15:36:07,Frederick Douglass Blvd & W 112 St,7631.23,Columbus Ave & W 95 St,7520.07,40.801695704,-73.957245469,40.7919557,-73.968087,member
B01C6ECCEFF5EF51,classic_bike,2023-06-15 22:11:36,2023-06-15 22:22:12,Kent Ave & N 7 St,5489.03,Boerum St & Broadway,5004.02,40.72036775298455,-73.96165072917938,40.70538077,-73.94976519,member
09E5BDBD2B688A26,classic_bike,2023-06-22 05:41:21,2023-06-22 05:42:56,West End Ave & W 94 St,7524.09,W 92 St & Broadway,7502.01,40.7941654,-73.974124,40.7921,-73.9739,member
AA7A144C54F54303,classic_bike,2023-06-12 11:45:33,2023-06-12 11:53:46,E 50 St & Park Ave,6659.1,E 33 St & 1 Ave,6197.08,40.757332802,-73.974705696,40.74322681432173,-73.97449783980846,member
14D5ACDE1459D65A,classic_bike,2023-06-17 19:44:12,2023-06-17 20:07:35,E 161 St & River Ave,8041.07,Jerome Ave & E 164 St,8096.02,40.827883,-73.927111,40.831444,-73.926226,member
BFD069EE20982A26,classic_bike,2023-06-26 20:38:09,2023-06-26 20:42:13,DeKalb Ave & Vanderbilt Ave,4461.04,DeKalb Ave & Vanderbilt Ave,4461.04,40.689435005,-73.968943596,40.68940747,-73.96885458,member
46BE56685874971E,classic_bike,2023-06-14 10:59:25,2023-06-14 11:03:56,E 32 St & Park Ave,6280.12,E 33 St & 1 Ave,6197.08,40.7457121,-73.98194829,40.74322681432173,-73.97449783980846,member
BDC422B9D678D39C,classic_bike,2023-06-26 09:12:25,2023-06-26 09:22:25,Pier 40 - Hudson River Park,5696.03,Liberty St & Broadway,5105.01,40.728061676,-74.011060357,40.70905623,-74.01043382,member
CB0BCB2B2F1A213D,classic_bike,2023-06-03 17:11:38,2023-06-03 17:26:21,Clinton St & Tillary St,4748.07,Clinton St & Tillary St,4748.07,40.69623297129316,-73.99142056703568,40.69623297129316,-73.99142056703568,member
94F308FE7E5E118D,classic_bike,2023-06-24 16:23:53,2023-06-24 16:32:27,W 50 St & 10 Ave,6890.06,Amsterdam Ave & W 82 St,7360.10,40.764791131,-73.992088556,40.78524672,-73.97667321,member
F090CA5EFC967078,classic_bike,2023-06-21 19:31:32,2023-06-21 19:47:39,Broadway & W 61 St,7014.12,E 54 St & 1 Ave,6608.09,40.77003010255044,-73.9819684624672,40.756265,-73.964179,member
6C6EFA9522B14D8A,classic_bike,2023-06-07 20:43:30,2023-06-07 20:52:02,E 88 St & 1 Ave,7235.13,Pleasant Ave & E 120 St,7579.01,40.778301,-73.9488134,40.7974772,-73.9311847,member
92C2FAC709DDFC86,electric_bike,2023-06-14 11:48:40,2023-06-14 12:09:44,E 4 St & 2 Ave,5593.04,Myrtle Ave & Marcy Ave,4707.03,40.7262807,-73.98978041,40.69539817,-73.94954908,member
A7972CEC30084D6C,classic_bike,2023-06-25 22:01:26,2023-06-25 22:20:40,Barrow St & Hudson St,5805.05,W 59 St & 10 Ave,7023.04,40.76854335,-73.95855628333334,40.770513,-73.988038,member
BF7E32A88F4B0B23,classic_bike,2023-06-17 17:08:25,2023-06-17 17:52:36,Wyckoff St & 3 Ave,4290.06,Wyckoff St & 3 Ave,4290.06,40.6827549,-73.98258555,40.6827549,-73.98258555,member
86083DDB9D61E207,electric_bike,2023-06-10 15:12:02,2023-06-10 15:43:08,Pearl St & York St,4895.15,E 66 St & Madison Ave,6969.08,40.70140463410644,-73.98768022656441,40.76800889305947,-73.96845281124115,member
B35741FD5CD048E7,classic_bike,2023-06-14 18:37:42,2023-06-14 18:58:22,Washington Square E,5755.09,DeKalb Ave & Vanderbilt Ave,4461.04,40.73060441,-73.995654583,40.68940747,-73.96885458,member
4860B640D5743F0D,electric_bike,2023-06-19 21:39:22,2023-06-19 21:45:56,MacDougal St & Prince St,5687.04,Cooper Square & Astor Pl,5712.03,40.72710258,-74.00297088,40.72951496224949,-73.99075269699097,member
E5043F8C6CE65666,classic_bike,2023-06-27 16:52:37,2023-06-27 16:59:00,W 24 St & 7 Ave,6257.03,Bank St & Washington St,5964.01,40.744898677,-73.995295048,40.7361967,-74.00859207,member
8E942887C1C215CE,electric_bike,2023-06-15 12:51:56,2023-06-15 13:03:29,Steinway St & Broadway,6711.13,21 Ave & Crescent St,7284.01,40.75905795418586,-73.91897544264793,40.780478,-73.912212,member
4FEAC9A6708DBCE2,electric_bike,2023-06-09 04:56:31,2023-06-09 05:02:11,Montrose Ave & Bushwick Ave,5068.02,Irving Ave & DeKalb Ave,4898.02,40.70767788,-73.94016171,40.7027,-73.92095,member
4AC66876BBD92314,classic_bike,2023-06-21 02:24:37,2023-06-21 02:26:29,Wilson Ave & Troutman St,4864.09,Irving Ave & DeKalb Ave,4898.02,40.701642156,-73.927344441,40.7027,-73.92095,member
31E27A6F09C2BD80,classic_bike,2023-06-08 00:02:40,2023-06-08 00:19:55,Meserole Ave & Manhattan Ave,5666.04,Fulton St & Waverly Ave,4345.11,40.727014899,-73.953086376,40.68323865460341,-73.96599590778351,member
51A0118E525B09C5,classic_bike,2023-06-18 16:10:39,2023-06-18 16:15:52,W 18 St & 6 Ave,6064.08,Madison Ave & E 26 St,6131.12,40.73971301,-73.99456405,40.742684734875695,-73.98671329021454,member
719758BF8D044B47,electric_bike,2023-06-25 16:04:56,2023-06-25 16:06:05,Central Park W & W 91 St,7453.01,Central Park W & W 91 St,7453.01,40.78866499127884,-73.96680057048798,40.78866499127884,-73.96680057048798,member
C231E3B30CAC8002,classic_bike,2023-06-27 18:17:27,2023-06-27 18:31:39,Crescent St & 34 Ave,6759.15,11 St & 43 Ave,6438.04,40.761080623,-73.930560708,40.7519071,-73.9479119,member
06345390F9D90287,classic_bike,2023-06-09 21:53:35,2023-06-09 22:02:13,Broadway & W 51 St,6779.04,Central Park West & W 68 St,7079.06,40.76228826,-73.98336183,40.7734066,-73.97782542,casual
5EC027825DF5730C,classic_bike,2023-06-01 18:42:06,2023-06-01 18:55:13,Thompson St & Bleecker St,5721.07,E 12 St & Ave C,5616.08,40.72840059450829,-73.99968780577183,40.727243,-73.976831,member
E9D348F74EE15D46,electric_bike,2023-06-01 13:03:39,2023-06-01 13:30:20,Broadway & W 25 St,6173.08,Cadman Plaza E & Tillary St,4677.01,40.74286877312112,-73.98918628692627,40.69597683,-73.99014892,member
9F3C500CAFCFA7C0,electric_bike,2023-06-06 18:33:51,2023-06-06 18:38:45,Eastern Pkwy & Franklin Ave,3919.07,Prospect Pl & Nostrand Ave,4025.02,40.6707767,-73.9576801,40.67428,-73.9503,member
FEFC64DCD80ED5B5,classic_bike,2023-06-16 15:20:40,2023-06-16 15:26:08,E 39 St & Lexington Ave,6389.09,E 26 St & 3 Ave,6089.11,40.7494985460252,-73.97729203113158,40.74069317733043,-73.98160636425018,member
6765403B04FA248B,classic_bike,2023-06-01 14:47:24,2023-06-01 14:53:26,Emerson Pl & Myrtle Ave,4683.02,Kosciuszko St & Nostrand Ave,4519.04,40.69363137,-73.96223558,40.69072549,-73.95133465,casual
85EB099DA5E9190D,classic_bike,2023-06-17 15:20:02,2023-06-17 17:06:50,12 Ave & W 40 St,6765.01,Central Park W & W 97 St,7538.18,40.76087502,-74.00277668,40.79249519495111,-73.96417066463071,casual
BC48BA21D77AAFD5,classic_bike,2023-06-14 18:40:46,2023-06-14 18:46:14,1 Ave & E 6 St,5626.15,Ave D & E 8 St,5506.1,40.72633085971696,-73.98616880178452,40.72368361,-73.97574813,casual
5C00BCBEE12DACD8,classic_bike,2023-06-09 12:35:26,2023-06-09 13:05:23,South St & Whitehall St,4846.01,Cadman Plaza E & Tillary St,4677.01,40.70122128,-74.01234218,40.69597683,-73.99014892,casual
15761E827437FEAA,electric_bike,2023-06-08 21:38:38,2023-06-08 21:44:23,E 16 St & 5 Ave,6022.04,E 14 St & Avenue B,5736.09,40.73726186,-73.99238967,40.72938685,-73.97772429,member
3FF726DAA327896A,classic_bike,2023-06-15 07:50:07,2023-06-15 07:55:46,E 14 St & 1 Ave,5779.1,Gramercy Park N & Gramercy Park E,6013.12,40.73139303364151,-73.98286700248718,40.73795,-73.98509,member
03F5673894E27556,classic_bike,2023-06-04 12:33:49,2023-06-04 12:39:19,University Pl & E 14 St,5905.14,Carmine St & 6 Ave,5763.03,40.734814,-73.992085,40.73038599,-74.00214988,member
353718DBE73D73AC,classic_bike,2023-06-16 15:08:32,2023-06-16 15:09:49,Fulton St & Waverly Ave,4345.11,Fulton St & Waverly Ave,4345.11,40.68323865460341,-73.96599590778351,40.68323865460341,-73.96599590778351,member
AF01D641292873F8,classic_bike,2023-06-02 16:40:43,2023-06-02 16:55:57,Johnson St & Brooklyn Bridge Blvd,4637.07,Centre St & Chambers St,5207.01,40.695,-73.98917,40.71273266,-74.0046073,casual
E011484E2D2B4061,classic_bike,2023-06-30 10:34:41,2023-06-30 10:51:22,47 St & 3 Ave,3243.02,47 St & 3 Ave,3243.02,40.649152875,-74.012421131,40.649143,-74.012384,casual
502026732625A927,classic_bike,2023-06-26 13:24:39,2023-06-26 13:36:06,Bergen St & 4 Ave,4322.06,10 St & 7 Ave,3762.08,40.68256425759694,-73.9798977971077,40.6662078,-73.98199886,member
7371097353DBEE84,classic_bike,2023-06-03 23:32:43,2023-06-03 23:38:25,W 18 St & 6 Ave,6064.08,W 25 St & 8 Ave,6297.08,40.73971301,-73.99456405,40.74649996333341,-73.99732626293645,member
141E2D26F5E3AA20,classic_bike,2023-06-13 17:28:46,2023-06-13 17:34:31,Lafayette St & Grand St,5422.09,Market St & Henry St,5270.09,40.72028,-73.99879,40.71310702305908,-73.99446353316307,member
6BC2DB9957043DBF,classic_bike,2023-06-13 06:31:13,2023-06-13 06:43:01,President St & 4 Ave,4101.17,Prospect Park SW & 10 Ave,3611.02,40.676757,-73.983262,40.659945,-73.977504,member
A6C4EA69ABFE5866,classic_bike,2023-06-07 18:56:38,2023-06-07 18:56:44,Hunts Point Ave & Bryant Ave,7820.05,Hunts Point Ave & Bryant Ave,7820.05,40.813991,-73.8855,40.813991,-73.8855,member
9E767C177196ACB5,classic_bike,2023-06-22 22:10:16,2023-06-22 22:19:14,Vernon Blvd & 31 Ave,7003.06,18 St & 27 Ave,7062.07,40.7692475,-73.9354504,40.772768286288304,-73.92743647098541,member
0DC64CF7313AE257,classic_bike,2023-06-05 16:18:06,2023-06-05 16:32:57,Suydam St & Broadway,4689.03,Humboldt St & Varet St,4956.02,40.69544,-73.93223,40.7031724,-73.940636,member
7CA9D7435EE76774,electric_bike,2023-06-02 15:16:37,2023-06-02 15:30:41,S 3 St & Bedford Ave,5235.05,W Broadway & W Houston St,5644.05,40.71260486,-73.96264403,40.726378,-74.000472,member
5489F58A70431382,classic_bike,2023-06-06 18:26:08,2023-06-06 18:29:29,31 St & Ditmars Blvd,7144.02,20 Ave & 42 St,7163.07,40.776303411,-73.910327554,40.775415,-73.900063,member
3C4F62FEE3185BCC,classic_bike,2023-06-04 02:45:11,2023-06-04 02:50:13,E 58 St & 1 Ave (NW Corner),6723.10,E 68 St & Madison Ave,6932.15,40.759158492,-73.962960958,40.7691572,-73.96703464,member
EDAA0C962080B732,electric_bike,2023-06-17 13:40:41,2023-06-17 13:41:05,Lafayette Ave & St James Pl,4494.04,Lafayette Ave & St James Pl,4494.04,40.68851534,-73.9647628,40.68851534,-73.9647628,member
732390434FCF978D,classic_bike,2023-06-05 16:48:52,2023-06-05 16:49:53,6 Ave & 9 St,3803.09,6 Ave & 9 St,3803.09,40.668127,-73.98377641,40.668127,-73.98377641,member
428B78FFAC835D5B,classic_bike,2023-06-15 16:58:52,2023-06-15 17:04:43,E 89 St & 3 Ave,7265.1,E 97 St & Madison Ave,7393.09,40.7806284,-73.9521667,40.787801,-73.953559,member
16BD1AD1038D8DDA,electric_bike,2023-06-12 15:30:54,2023-06-12 15:38:53,E 22 St & 2 Ave,5971.09,Lafayette St & E 8 St,5788.13,40.73716919369882,-73.98122549057007,40.73020660529954,-73.99102628231049,casual
96567959F688DE5A,classic_bike,2023-06-23 15:59:27,2023-06-23 16:04:05,8 Ave & W 31 St,6450.05,9 Ave & W 22 St,6266.06,40.7505853470215,-73.9946848154068,40.7454973,-74.00197139,member
43A08C8AA5405D06,classic_bike,2023-06-15 12:24:37,2023-06-15 12:40:39,W 20 St & 5 Ave,6098.02,10 Ave & W 28 St,6459.04,40.739544988,-73.99172318,40.75066386,-74.00176802,casual
0FB0120306B60FC3,classic_bike,2023-06-30 01:02:44,2023-06-30 01:10:44,Canal St & Rutgers St,5303.08,Avenue D & E 3 St,5436.09,40.71427487,-73.98990025,40.72082834,-73.97793172,member
C2FF8CBCD7E31554,classic_bike,2023-06-22 20:31:43,2023-06-22 20:35:18,West End Ave & W 60 St,7059.08,W 59 St & 10 Ave,7023.04,40.77237,-73.99005,40.770513,-73.988038,member
B38781E9F29F77FA,classic_bike,2023-06-19 10:24:16,2023-06-19 10:46:02,Central Ave & Melrose St,4832.07,Wythe Ave & N 13 St,5558.04,40.70112,-73.93039,40.722767,-73.957021,member
F084A6943C7EB066,classic_bike,2023-06-07 12:50:30,2023-06-07 12:51:01,University Pl & E 14 St,5905.14,University Pl & E 14 St,5905.14,40.734814,-73.992085,40.734814,-73.992085,member
5ADC4BC33EB9853F,classic_bike,2023-06-28 07:29:56,2023-06-28 07:34:11,E 5 St & Ave A,5626.06,E 14 St & Avenue B,5736.09,40.72479007746337,-73.98430064320564,40.72938685,-73.97772429,member
71FCC869203DD2EC,electric_bike,2023-06-01 05:51:50,2023-06-01 05:53:36,2 Ave & E 72 St,6925.09,1 Ave & E 68 St,6822.09,40.7687620293096,-73.95840793848038,40.76500525,-73.95818491,member
DE7376B355E02E9A,classic_bike,2023-06-02 08:59:41,2023-06-02 09:07:14,Broadway & W 58 St,6948.1,W 67 St & Broadway,7116.04,40.76695317,-73.98169333,40.77492513,-73.98266566,member
CE72827C9968CEAC,classic_bike,2023-06-22 10:04:22,2023-06-22 10:14:44,Norfolk St & Broome St,5374.01,Watts St & Greenwich St,5578.02,40.7172274,-73.98802084,40.72405549,-74.00965965,member
0F06B8AB185D4A0B,classic_bike,2023-06-08 09:33:17,2023-06-08 09:41:13,Schermerhorn St & Hoyt St,4479.1,Lawrence St & Willoughby St,4596.09,40.6886263,-73.9851911,40.69236178,-73.98631746,member
9872F1563146C8FA,classic_bike,2023-06-25 21:36:00,2023-06-25 21:48:16,Moffat St & Bushwick,4357.01,Central Ave & Starr Street,4792.03,40.684571505,-73.909270048,40.700003,-73.92834,casual
9C81E8FE925491F0,classic_bike,2023-06-04 09:35:04,2023-06-04 09:52:44,E 22 St & 2 Ave,5971.09,Division St & Bowery,5270.08,40.73716919369882,-73.98122549057007,40.714193,-73.996732,member
A09E4F9C0AB23B18,classic_bike,2023-06-03 11:59:52,2023-06-03 12:11:32,W Broadway & Spring St,5569.06,E 6 St & Avenue D,5506.14,40.72494672359416,-74.00165855884552,40.72228087,-73.97668709,member
A4A128E559FAD7EE,classic_bike,2023-06-27 21:38:24,2023-06-27 21:59:00,34 Ave & 38 St,6638.01,Amsterdam Ave & W 79 St,7311.02,40.75690043,-73.921351433,40.7829391,-73.9786517,member
13CBF99A1C93133A,classic_bike,2023-06-24 13:32:22,2023-06-24 13:43:27,Caton Ave & E 10 St,3230.01,7 Ave & 20 St,3588.01,40.64862442,-73.970376134,40.659053,-73.98854,member
10EC0B920991A80B,classic_bike,2023-06-17 08:36:14,2023-06-17 08:40:56,Greenpoint Ave & Manhattan Ave,5785.05,Van Dam St & Greenpoint Ave,5883.06,40.73026,-73.95394,40.73443564069459,-73.93790781497955,member
E6E2D7E3CEA07DBB,classic_bike,2023-06-06 13:20:49,2023-06-06 13:26:55,Clinton St & Cherry St,5190.09,Peck Slip & South St,5096.12,40.711471394469264,-73.98672603070736,40.7075188830923,-74.00108054280281,casual
BC545D0D381DFC0D,classic_bike,2023-06-06 11:31:30,2023-06-06 11:35:39,South St & Whitehall St,4846.01,William St & Pine St,5065.12,40.701224685,-74.012386203,40.70717936,-74.00887308,member
AA786C4E8FA1F774,electric_bike,2023-06-18 18:36:28,2023-06-18 18:50:40,Division St & Bowery,5270.08,Division St & Bowery,5270.08,40.714193,-73.996732,40.714193,-73.996732,member
F7845DB32CEC4B47,classic_bike,2023-06-05 18:34:30,2023-06-05 18:47:11,E 54 St & 1 Ave,6608.09,W 54 St & 11 Ave,6955.05,40.756265,-73.964179,40.768333,-73.992573,member
140DAD6857AE6D48,classic_bike,2023-06-22 17:20:56,2023-06-22 17:38:30,Vesey St & Church St,5216.06,E 11 St & 3 Ave,5788.16,40.71221958009051,-74.01047229766846,40.73127,-73.98849,member
109BC8A777FF9364,classic_bike,2023-06-01 10:49:44,2023-06-01 10:55:32,Grand Army Plaza & Central Park S,6839.10,5 Ave & E 72 St,7100.07,40.764161348,-73.973862648,40.77282817,-73.96685276,member
99FF8B18CC52A256,classic_bike,2023-06-08 14:22:21,2023-06-08 14:27:31,Clermont Ave & Lafayette Ave,4461.01,Hanson Pl & Ashland Pl,4395.07,40.68764484,-73.96968902,40.68506807308177,-73.97790759801863,member
9EF3C5D947B4B7C4,classic_bike,2023-06-25 16:32:44,2023-06-25 16:35:24,Lexington Ave & E 29 St,6164.09,Gramercy Park N & Gramercy Park E,6013.12,40.743096471,-73.982210994,40.73795,-73.98509,member
BDCA3954E4FC3941,classic_bike,2023-06-28 19:32:33,2023-06-28 19:42:40,Park Ave & E 162 St,8016.07,E 161 St & River Ave,8041.07,40.825700164,-73.915701509,40.827883,-73.927111,casual
9E48BC321A96FE3B,classic_bike,2023-06-30 03:32:00,2023-06-30 03:42:50,Wyckoff Av & Jefferson St,5051.01,Bushwick Ave & Powers St,5250.05,40.707165,-73.923711,40.71247661,-73.94100005,casual
83973B734062B0BB,electric_bike,2023-06-02 15:04:28,2023-06-02 15:04:52,Atlantic Ave & Furman St,4614.04,Atlantic Ave & Furman St,4614.04,40.69165183,-73.9999786,40.69165183,-73.9999786,member
117417103609A70C,classic_bike,2023-06-29 21:34:25,2023-06-29 22:31:03,W 168th S & Fort Washington Ave,8226.07,E 6 St & Avenue D,5506.14,40.841901422,-73.941873789,40.72228087,-73.97668709,member
6FBDD00F4B0FB842,electric_bike,2023-06-28 19:19:54,2023-06-28 19:40:35,West St & Liberty St,5184.08,E 20 St & FDR Dr,5886.13,40.711444,-74.014847,40.733208626522426,-73.9756813647,member
7D988D789C081080,classic_bike,2023-06-18 11:55:18,2023-06-18 12:04:00,Broadway & W 37 St,6441.02,W 47 St & 10 Ave,6824.07,40.75172632,-73.98753523,40.76269882,-73.99301222,member
460AE5653133CA4D,classic_bike,2023-06-13 14:13:36,2023-06-13 14:34:10,W 100 St & Manhattan Ave,7538.14,W 59 St & 10 Ave,7023.04,40.795,-73.9645,40.770513,-73.988038,member
0D41718FCE097D5F,classic_bike,2023-06-02 08:52:24,2023-06-02 08:55:08,Willis Ave & Bruckner Blvd,7691.05,Brook Ave & E 141 St,7740.08,40.805650949,-73.925137877,40.809619,-73.917875,member
56915A433852D667,classic_bike,2023-06-10 12:23:57,2023-06-10 12:29:12,W 67 St & Broadway,7116.04,Amsterdam Ave & W 82 St,7360.10,40.774744511,-73.982510924,40.78524672,-73.97667321,member
B8391A7CFA9DA7BD,classic_bike,2023-06-25 14:42:00,2023-06-25 14:47:29,Court St & State St,4488.08,President St & Henry St,4307.13,40.6902375,-73.99203074,40.6828003,-73.99990419,member
3C4E8A0140F38A26,classic_bike,2023-06-07 07:12:16,2023-06-07 07:27:41,5 Ave & E 72 St,7100.07,Madison Ave & E 26 St,6131.12,40.772636056,-73.967016339,40.742684734875695,-73.98671329021454,member
8DBE8B1D7A1F9E8E,classic_bike,2023-06-13 17:26:37,2023-06-13 17:39:33,E 47 St & 2 Ave,6498.10,E 14 St & Avenue B,5736.09,40.753282309,-73.970528364,40.72938685,-73.97772429,member
29BE0F2DE76AC93F,classic_bike,2023-06-10 11:14:10,2023-06-10 11:36:55,W 76 St & Columbus Ave,7281.09,E 51 St & 1 Ave,6532.06,40.78025651,-73.977333069,40.75455731,-73.96592976,casual
95B98BC5BA579D92,classic_bike,2023-06-07 17:28:20,2023-06-07 17:34:56,Bergen St & Flatbush Ave,4281.08,Bergen St & Vanderbilt Ave,4157.10,40.680944723477296,-73.97567331790923,40.6794388,-73.9680438,member
D38615E583BF2B14,classic_bike,2023-06-22 09:36:51,2023-06-22 09:49:42,Lexington Ave & E 127 St,7662.13,Riverside Dr & W 138 St,7942.21,40.805750132,-73.936368942,40.823168,-73.955857,member
DEB230F273E69F20,classic_bike,2023-06-24 09:03:52,2023-06-24 09:09:03,Crescent St & 34 Ave,6759.15,31 Ave & 34 St,6819.15,40.76108,-73.930562,40.763154,-73.920827,member
99CB7FA3900BB946,classic_bike,2023-06-02 18:21:27,2023-06-02 18:26:47,N 6 St & Bedford Ave,5379.1,Leonard St & Nassau Ave,5550.09,40.71745169,-73.95850939,40.7239567849954,-73.94984364509583,member
14964556316F8D57,classic_bike,2023-06-20 16:25:13,2023-06-20 16:31:31,5 St & 6 Ave,3874.01,Degraw St & Hoyt St,4258.07,40.6704836,-73.98208968,40.68199044270703,-73.99079024791718,member
20CD755CFEB46F15,classic_bike,2023-06-16 11:12:34,2023-06-16 11:56:02,Pleasant Ave & E 116 St,7450.05,E 114 St & 1 Ave,7540.02,40.7949879,-73.9333349,40.7945663,-73.9362541,member
11589DE223FA1863,classic_bike,2023-06-30 13:29:36,2023-06-30 13:42:09,Washington Ave & Greene Ave,4419.03,Halsey St & Tompkins Ave,4319.07,40.68650065,-73.96563307,40.6823687,-73.944118,member
36CFE35D3A603960,classic_bike,2023-06-25 09:23:01,2023-06-25 09:28:18,Amsterdam Ave & W 73 St,7260.09,W 63 St & Broadway,7052.01,40.77966809007312,-73.98093044757842,40.77163851,-73.98261428,member
337CADF75A0147CE,electric_bike,2023-06-16 22:37:36,2023-06-16 22:44:14,Lenox Ave & W 144 St,7910.01,Riverside Dr & W 138 St,7942.21,40.819783,-73.936521,40.823168,-73.955857,member
711867D538B6EA4F,classic_bike,2023-06-02 10:07:36,2023-06-02 10:45:34,Schenectady Ave & Prospect Pl,4007.01,Pioneer St & Richards St,4128.08,40.67351,-73.93363,40.6777748,-74.0094613,member
EAE18D53FF21638B,classic_bike,2023-06-12 14:47:55,2023-06-12 15:04:14,Park Cir & East Dr,3344.02,Carlton Ave & St Marks Ave,4199.13,40.651535273,-73.972183108,40.67911856082165,-73.97176265716553,member
AE58A9395EC233E4,classic_bike,2023-06-08 20:49:57,2023-06-08 20:55:36,Ave A & E 14 St,5779.11,Avenue D & E 12 St,5575.08,40.73031071000895,-73.98047178983688,40.72580614,-73.97422494,member
18DF822020AF8331,classic_bike,2023-06-13 11:08:51,2023-06-13 11:37:10,7 Ave & Central Park South,6912.01,West St & Chambers St,5329.03,40.7667405590595,-73.9790689945221,40.71754834,-74.01322069,casual
10C4E4557D4E8015,classic_bike,2023-06-03 01:19:24,2023-06-03 01:31:35,Bank St & Hudson St,5922.08,Spring St & Hudson St,5653.12,40.73652889,-74.00618026,40.72583996792375,-74.0076532959938,casual
92EFC123F73623D5,classic_bike,2023-06-03 16:14:14,2023-06-03 16:28:55,Degraw St & Smith St,4298.05,Centre St & Chambers St,5207.01,40.683011293,-73.993334293,40.71273266,-74.0046073,member
DEAEB47B367120C9,classic_bike,2023-06-01 08:41:56,2023-06-01 08:54:18,E 44 St & 2 Ave,6422.09,Great Jones St,5636.11,40.751256824,-73.971659184,40.72743423,-73.99379025,casual
C85516BB254455F1,classic_bike,2023-06-13 12:51:54,2023-06-13 12:55:18,Broadway & W 53 St,6779.05,Broadway & W 41 St,6560.01,40.763584018,-73.983084202,40.75513557,-73.98658032,member
973327D876DC7B38,classic_bike,2023-06-24 18:23:27,2023-06-24 18:29:54,W 47 St & 10 Ave,6824.07,W 40 St & 7 Ave,6560.14,40.762757063,-73.993017793,40.754818,-73.988154,casual
3C4F81A2F5D56D4D,classic_bike,2023-06-30 20:40:26,2023-06-30 21:22:16,North Moore St & Greenwich St,5470.12,Centre St & Chambers St,5207.01,40.72019521437465,-74.0103006362915,40.71273266,-74.0046073,casual
82C90918DD8DA52C,classic_bike,2023-06-09 06:15:47,2023-06-09 06:22:01,1 Ave & E 18 St,5854.09,E 32 St & Park Ave,6280.12,40.734088421,-73.980418801,40.7457121,-73.98194829,member
3C3306A285D02EA8,classic_bike,2023-06-18 10:01:47,2023-06-18 10:20:24,E 161 St & River Ave,8041.07,Central Park West & W 85 St,7354.01,40.827881336,-73.927142501,40.78476,-73.969862,casual
2AA70C8F603A7874,classic_bike,2023-06-24 15:57:02,2023-06-24 16:05:06,10 Ave & W 14 St,6157.04,W 30 St & 10 Ave,6459.07,40.74198159994023,-74.00831580162048,40.752694,-74.002353,casual
60A7435E52DCCF46,classic_bike,2023-06-21 21:36:48,2023-06-21 21:58:43,Broadway & Roebling St,5125.07,Broadway & Roebling St,5125.07,40.709201097,-73.96060729,40.70924826276157,-73.96063148975372,member
111A17BCA13BB2F3,classic_bike,2023-06-27 18:27:06,2023-06-27 18:38:33,8 Ave & W 52 St,6816.07,W 21 St & 6 Ave,6140.05,40.763724685,-73.985118628,40.74173969,-73.99415556,member
A8884DE9285FBE0B,classic_bike,2023-06-13 20:49:39,2023-06-13 20:54:15,W 11 St & 6 Ave,5914.03,Bank St & Washington St,5964.01,40.73532427,-73.99800419,40.7361967,-74.00859207,member
4F471925EF417B0F,classic_bike,2023-06-16 11:42:06,2023-06-16 12:18:58,9 Ave & W 22 St,6266.06,E 88 St & Park Ave,7293.1,40.745449424,-74.002110481,40.781410700190015,-73.95595908164978,member
A9B6BEF059BA9681,classic_bike,2023-06-02 09:03:53,2023-06-02 09:28:10,E 102 St & 1 Ave,7407.13,5 Ave & W 126 St,7701.21,40.7869946,-73.94164802,40.80722,-73.9418,casual
9A2B4C0003441D82,classic_bike,2023-06-02 00:22:11,2023-06-02 00:22:38,W 110 St & Amsterdam Ave,7646.04,W 110 St & Amsterdam Ave,7646.04,40.802606225,-73.962821722,40.802692,-73.96295,casual
6FDA8C65867F1C0B,electric_bike,2023-06-28 20:05:13,2023-06-28 20:34:46,E 20 St & 2 Ave,5971.08,Douglass St & 3 Ave,4217.02,40.73587678,-73.98205027,40.6802133,-73.98432695,member
3E0A7DF80DBC6FBE,classic_bike,2023-06-05 16:25:52,2023-06-05 16:37:36,E 14 St & Avenue B,5736.09,Columbia St & Rivington St,5365.02,40.73027705,-73.97704598333334,40.71739973,-73.98016555,member
12F7E8284759E41C,classic_bike,2023-06-01 21:06:58,2023-06-01 21:14:16,West Drive & Prospect Park West,3651.04,6 Ave & 21 St,3628.11,40.661232471,-73.979246378,40.66016,-73.990974,member
EB5532C3A4AE63F2,classic_bike,2023-06-17 13:07:50,2023-06-17 13:17:00,E 55 St & 2 Ave,6650.07,2 Ave & E 29 St,6122.09,40.75797322,-73.96603308,40.74172351097472,-73.97809267044067,casual
4F44C1E3E0325D6B,classic_bike,2023-06-29 21:55:20,2023-06-29 22:09:40,W 17 St & 8 Ave,6148.02,E 33 St & 1 Ave,6197.08,40.74177603,-74.00149746,40.74322681432173,-73.97449783980846,casual
0B93759C4BA42CCA,classic_bike,2023-06-29 22:08:11,2023-06-29 22:25:46,W 24 St & 7 Ave,6257.03,E 51 St & 1 Ave,6532.06,40.74487634,-73.99529885,40.75455731,-73.96592976,member
F9D12D3764A034FA,classic_bike,2023-06-03 14:30:02,2023-06-03 14:38:21,6 Ave & W 33 St,6364.07,Mercer St & Bleecker St,5679.05,40.748642445,-73.988719225,40.72706363348306,-73.99662137031554,member
1ED29F95D8039FA9,classic_bike,2023-06-05 14:55:38,2023-06-05 15:10:34,W 17 St & 8 Ave,6148.02,West St & Liberty St,5184.08,40.74177603,-74.00149746,40.711444,-74.014847,member
1F77C44E9EFB90DB,classic_bike,2023-06-29 08:58:43,2023-06-29 09:02:45,Park Cir & East Dr,3344.02,West Drive & Prospect Park West,3651.04,40.651537776,-73.972117543,40.6610633719006,-73.97945255041122,casual
69DF589B2E449483,classic_bike,2023-06-02 16:01:19,2023-06-02 16:25:15,2 Ave & E 72 St,6925.09,Nassau Ave & Newell St,5623.03,40.768604994,-73.95845437,40.724812564400175,-73.94752621650696,member
708953EADD5A8389,classic_bike,2023-06-15 20:56:40,2023-06-15 21:33:51,7 Ave S & Bleecker St,5805.07,Carmine St & 6 Ave,5763.03,40.73213896287381,-74.00363802909851,40.73038599,-74.00214988,member
EE9FB62C8E30240D,classic_bike,2023-06-08 21:10:25,2023-06-08 21:29:41,Kingston Ave & Montgomery St,3759.07,Fulton St & Waverly Ave,4345.11,40.66481,-73.94269,40.68323865460341,-73.96599590778351,member
88B8F42E606E52AE,classic_bike,2023-06-08 12:25:59,2023-06-08 12:35:04,E 43 St & Madison Ave,6551.11,E 33 St & 1 Ave,6197.08,40.7534585,-73.979242802,40.74322681432173,-73.97449783980846,member
A26BF39F2EA5C0F0,classic_bike,2023-06-10 07:27:02,2023-06-10 07:45:21,11 Ave & W 59 St,7059.01,46 Ave & 5 St,6286.02,40.771171451,-73.990754724,40.74731,-73.95451,member
08B6B1FCFA658412,classic_bike,2023-06-28 12:25:34,2023-06-28 12:34:34,Washington Pl & Broadway,5755.01,Christopher St & Greenwich St,5847.01,40.72903917,-73.99404649,40.73291553,-74.00711384,member
5AC075EE38B90E1B,classic_bike,2023-06-01 19:04:25,2023-06-01 19:32:52,India St Pier,5794.05,Great Jones St,5636.11,40.73175168,-73.960541725,40.72743423,-73.99379025,member
949F6C2B6B75406F,classic_bike,2023-06-14 12:45:19,2023-06-14 12:54:50,Devoe St & Lorimer St,5259.06,Milton St & Franklin St,5752.07,40.71335226222875,-73.9491033554077,40.72906,-73.95779,member
C0D26482FF7FA100,classic_bike,2023-06-02 12:22:20,2023-06-02 12:31:58,E 40 St & Park Ave,6432.11,Madison Ave & E 26 St,6131.12,40.750876307,-73.978737712,40.742684734875695,-73.98671329021454,member
23F9569B8547550D,classic_bike,2023-06-16 11:51:32,2023-06-16 12:01:38,Butler St & Court St,4339.01,Wyckoff St & 3 Ave,4290.06,40.6849894,-73.99440329,40.6827549,-73.98258555,member
EE00788FA7820DC1,classic_bike,2023-06-27 00:11:17,2023-06-27 00:27:29,W 30 St & 10 Ave,6459.07,Spruce St & Nassau St,5137.10,40.752694,-74.002353,40.71146364,-74.00552427,member
6B87D6BA7E5FF31C,classic_bike,2023-06-30 13:10:45,2023-06-30 13:18:01,5 Ave & E 72 St,7100.07,E 59 St & Madison Ave,6801.01,40.77282817,-73.96685276,40.76350532,-73.97109243,member
2F51CE4F808000FE,classic_bike,2023-06-24 00:57:12,2023-06-24 01:11:56,6 Ave & W 34 St,6364.10,E 14 St & Avenue B,5736.09,40.74964,-73.98805,40.72938685,-73.97772429,member
6E89D7CB33E52C3C,classic_bike,2023-06-20 19:21:04,2023-06-20 19:30:42,W 87 St & West End Ave,7484.05,W 78 St & Broadway,7311.07,40.789622,-73.97757,40.78339981,-73.98093133,member
D39DD00C44D7F997,classic_bike,2023-06-04 01:22:04,2023-06-04 01:33:33,Kent Ave & N 7 St,5489.03,E 6 St & Avenue B,5584.04,40.720481873,-73.961621523,40.72453734,-73.98185424,member
9864C5B6BF111AFC,classic_bike,2023-06-10 14:08:24,2023-06-10 14:29:58,W 35 St & Dyer Ave,6569.08,Lafayette St & E 8 St,5788.13,40.754691750226016,-73.99740189313889,40.73020660529954,-73.99102628231049,member
188B79D328194EBF,electric_bike,2023-06-23 18:26:04,2023-06-23 18:36:12,E 54 St & 1 Ave,6608.09,E 54 St & 1 Ave,6608.09,40.756265,-73.964179,40.756265,-73.964179,member
E83079DFC7F06978,classic_bike,2023-06-24 19:56:02,2023-06-24 20:01:10,Wyckoff Ave & Gates Ave,4847.03,Central Ave & Woodbine St,4632.10,40.699871408829885,-73.91171872615814,40.69296,-73.91605,member
72F2A6F88DBFFF9A,electric_bike,2023-06-09 07:56:22,2023-06-09 08:06:13,W 225 St & Exterior St,8711.02,E Fordham Rd & Webster Ave,8582.09,40.873265,-73.906646,40.861748,-73.89105,casual
F27693A38EE19CF9,classic_bike,2023-06-05 08:46:04,2023-06-05 09:06:54,Amsterdam Ave & W 156 St,8104.1,Broadway & W 61 St,7014.12,40.832152128,-73.942980528,40.77003010255044,-73.9819684624672,member
C0D7845FB52F52CB,classic_bike,2023-06-11 16:29:00,2023-06-11 16:36:23,E 6 St & Avenue B,5584.04,E 6 St & Avenue B,5584.04,40.72479713,-73.982238173,40.72453734,-73.98185424,member
C6A5C579A1C9BC00,classic_bike,2023-06-27 14:44:07,2023-06-27 14:58:16,9 Ave & W 18 St,6190.08,W 17 St & 8 Ave,6148.02,40.743234754,-74.003631949,40.74177603,-74.00149746,member
3470CB6AC1217402,classic_bike,2023-06-04 00:54:56,2023-06-04 01:21:30,E 85 St & York Ave,7146.04,E 138 St & Cypress Ave,7669.10,40.775243878,-73.947955012,40.805559,-73.914718,member
10E198346A99A43D,classic_bike,2023-06-09 22:00:53,2023-06-09 22:19:56,Newtown Ave & 23 St,7026.08,21 Ave & Crescent St,7284.01,40.771336436,-73.924653649,40.780478,-73.912212,member
AAEB7573839CDF12,classic_bike,2023-06-04 19:03:30,2023-06-04 19:15:26,Schermerhorn St & Hoyt St,4479.10,5 St & 6 Ave,3874.01,40.6886263,-73.9851911,40.6704836,-73.98208968,member
355E5E62FAE0BF61,classic_bike,2023-06-30 22:02:31,2023-06-30 22:12:26,N 7 St & Driggs Ave,5340.01,Wythe Ave & N 13 St,5558.04,40.716967,-73.956388,40.722767,-73.957021,casual
51CF7B6A3E80E1AD,classic_bike,2023-06-26 08:18:54,2023-06-26 08:21:55,Avenue D & E 10 St,5575.13,E 13 St & Avenue A,5779.09,40.72506551015475,-73.97515833377838,40.72966729392978,-73.98067966103554,member
D88F52103009F1F4,classic_bike,2023-06-13 16:35:32,2023-06-13 16:40:18,Ave A & E 14 St,5779.11,Ave D & E 8 St,5506.1,40.73031071000895,-73.98047178983688,40.72368361,-73.97574813,member
BCAC019ABE68D0B3,classic_bike,2023-06-02 14:06:45,2023-06-02 14:47:01,E 58 St & 1 Ave (NW Corner),6723.10,Amsterdam Ave & W 82 St,7360.10,40.759174228,-73.962733984,40.78524672,-73.97667321,member
D73687B7D324AB27,classic_bike,2023-06-25 11:49:46,2023-06-25 12:05:40,10 St & 5 Ave,3842.08,Clermont Ave & Lafayette Ave,4461.01,40.71741496666667,-73.98017643333333,40.68764484,-73.96968902,casual
F9C627791263C2A0,classic_bike,2023-06-14 13:33:25,2023-06-14 13:36:51,E 43 St & Madison Ave,6551.11,W 43 St & 6 Ave,6593.14,40.75354681867074,-73.97896572947502,40.75527307,-73.98316936,member
